     2.00           OBSERVATION DATA    G (GPS)             RINEX VERSION / TYPE
teqc  1999Jul19     autorun             20100411 04:10:30UTCPGM / RUN BY / DATE
MSWinNT 4.0|PentPro|wcl386 10.6|MSWin95/98/NT|486/DX+       COMMENT
BIT 2 OF LLI FLAGS DATA COLLECTED UNDER A/S CONDITION       COMMENT
BJFS                                                        MARKER NAME
21601M001                                                   MARKER NUMBER
QUFENG              CASM                                    OBSERVER / AGENCY
3332                ASHTECH Z-XII3      CD00-1D02           REC # / TYPE / VERS
1126                ASH700936B_M    SNOW                    ANT # / TYPE
        0.0000        0.0000        0.0000                  APPROX POSITION XYZ
        0.0460        0.0000        0.0000                  ANTENNA: DELTA H/E/N
     1     1                                                WAVELENGTH FACT L1/2
     5    L1    L2    C1    P1    P2                        # / TYPES OF OBSERV
    30.0000                                                 INTERVAL
 SNR is mapped to RINEX snr flag value [1-9]                COMMENT
  L1: 1 -> 1;  90 -> 5; 210 -> 9                            COMMENT
  L2: 1 -> 1; 150 -> 5; 250 -> 9                            COMMENT
  2010     4    10     0     0   30.0000000     GPS         TIME OF FIRST OBS
                                                            END OF HEADER
 10  4 10  0  0 30.0000000  0  9G 2G29G12G 4G13G17G10G 5G30
 -23767369.90549 -18490802.82048  20266089.565    20266089.538    20266089.969
  -2833744.35849  -2181356.02845  24147450.006    24147450.208    24147453.276
  -7224229.88049  -5591403.24045  23789900.567    23789900.904    23789902.939
 -13095062.40549 -10149729.82346  21949553.724    21949554.270    21949557.564
  -7114558.40049  -5514640.79045  23197524.262    23197524.258    23197526.743
    659621.14549    549282.63345  24898305.018    24898306.861    24898312.055
 -24605451.88949 -19125558.48547  20005167.407    20005166.851    20005170.010
 -24176058.42749 -18787233.00047  20845224.582    20845225.281    20845227.258
  -6860638.11349  -5316226.95045  23769703.874    23769703.737    23769706.946
 10  4 10  0  1  0.0000000  0  9G 2G29G12G 4G13G17G10G 5G30
 -23786525.33049 -18505729.13148  20262444.407    20262444.272    20262444.761
  -2932067.53849  -2257971.46345  24128739.730    24128739.801    24128742.968
  -7156898.62149  -5538937.37445  23802713.127    23802713.255    23802715.270
 -13030057.98549 -10099077.07246  21961923.683    21961924.456    21961927.486
  -7048791.41149  -5463393.82145  23210039.370    23210039.814    23210041.580
    773904.28649    638334.23845  24920052.413    24920052.936    24920058.133
 -24600389.85049 -19121614.04347  20006130.720    20006130.114    20006133.403
 -24221000.11749 -18822252.48847  20836672.517    20836672.892    20836674.896
  -6823896.24349  -5287596.95845  23776695.687    23776695.556    23776698.713
 10  4 10  0  1 30.0000000  0  9G 2G29G12G 4G13G17G10G 5G30
 -23805382.49449 -18520423.03048  20258856.017    20258856.026    20258856.344
  -3030210.92249  -2334446.79345  24110063.635    24110063.630    24110066.825
  -7089279.86249  -5486247.46945  23815580.468    23815580.047    23815583.690
 -12964851.46649 -10048266.83446  21974332.135    21974332.536    21974335.616
  -6982525.88949  -5411758.39245  23222649.363    23222648.635    23222651.790
    888245.42249    727431.05945  24941810.930    24941811.663    24941817.955
 -24594865.63549 -19117309.46647  20007181.966    20007181.337    20007184.772
 -24265551.42649 -18856967.78647  20828194.635    20828195.091    20828197.126
  -6786666.80549  -5258587.04345  23783780.224    23783780.821    23783783.311
 10  4 10  0  2  0.0000000  0  9G 2G29G12G 4G13G17G10G 5G30
 -23823939.45149 -18534883.00948  20255324.761    20255324.591    20255325.109
  -3128171.32549  -2410779.56045  24091422.366    24091423.135    24091425.106
  -7021376.09149  -5433335.48245  23828501.928    23828501.911    23828505.195
 -12899442.64549  -9997298.96846  21986779.017    21986779.709    21986782.837
  -6915763.14949  -5359735.53645  23235353.905    23235354.978    23235357.122
   1002643.10249    816571.97045  24963580.337    24963581.302    24963585.811
 -24588879.69049 -19112645.10147  20008321.016    20008320.428    20008323.777
 -24309711.29849 -18891378.07047  20819791.303    20819791.878    20819793.907
  -6748951.34449  -5229198.41345  23790957.236    23790958.572    23790960.978
 10  4 10  0  2 30.0000000  0  9G 2G29G12G 4G13G17G10G 5G30
 -23842196.65849 -18549109.41648  20251850.553    20251850.566    20251850.934
  -3225947.60849  -2486968.84845  24072816.260    24072816.516    24072818.870
  -6953191.46349  -5380204.64345  23841477.011    23841477.499    23841481.387
 -12833832.78049  -9946174.44046  21999264.249    21999264.566    21999268.060
  -6848506.89049  -5307328.09345  23248152.426    23248152.009    23248155.254
   1117093.99449    905754.32445  24985359.797    24985360.895    24985365.492
 -24582433.95649 -19107622.46047  20009547.590    20009547.119    20009550.426
 -24353480.58049 -18925483.99547  20811462.275    20811463.074    20811464.889
  -6710753.26049  -5199433.70645  23798226.126    23798226.680    23798229.001
 10  4 10  0  3  0.0000000  0  9G 2G29G12G 4G13G17G10G 5G30
 -23860152.66049 -18563101.11148  20248433.665    20248433.621    20248433.996
  -3323536.74049  -2563012.30145  24054245.731    24054245.722    24054248.684
  -6884727.98849  -5326856.53245  23854505.248    23854507.168    23854508.907
 -12768021.80349  -9894893.19946  22011787.640    22011788.576    22011791.443
  -6780758.80649  -5254537.43245  23261044.393    23261044.584    23261046.639
   1231596.52549    994976.87345  25007148.903    25007150.230    25007153.354
 -24575529.28649 -19102242.20047  20010861.505    20010860.809    20010864.210
 -24396858.89249 -18959285.27047  20803207.651    20803208.319    20803210.125
  -6672074.24649  -5169294.26045  23805586.573    23805586.765    23805591.319
 10  4 10  0  3 30.0000000  0  9G 2G29G12G 4G13G17G10G 5G30
 -23877806.29249 -18576857.19648  20245074.266    20245074.237    20245074.563
  -3420936.34349  -2638908.06545  24035711.079    24035711.503    24035713.777
  -6815988.73449  -5273293.53245  23867586.080    23867585.764    23867589.775
 -12702009.99249  -9843455.47646  22024349.368    22024349.640    22024353.026
  -6712521.12649  -5201365.26045  23274029.629    23274029.555    23274032.568
   1346148.64349   1084238.07545  25028947.410    25028948.350    25028954.142
 -24568167.51449 -19096505.76147  20012262.385    20012261.799    20012265.246
 -24439846.40049 -18992782.02447  20795027.354    20795027.792    20795029.829
  -6632916.66449  -5138781.91645  23813038.034    23813039.006    23813040.676
 10  4 10  0  4  0.0000000  0  8G 2G29G12G 4G13G10G 5G30
 -23895158.37249 -18590378.30048  20241772.321    20241772.203    20241772.608
  -3518145.77149  -2714655.64045  24017212.625    24017212.929    24017215.442
  -6746978.71849  -5219519.53745  23880718.210    23880719.492    23880721.924
 -12635799.41049  -9791862.85546  22036948.903    22036949.048    22036952.362
  -6643798.15849  -5147814.93445  23287107.362    23287106.921    23287110.757
 -24560351.33749 -19090415.23547  20013749.771    20013749.370    20013752.563
 -24482444.70349 -19025975.50047  20786921.205    20786921.734    20786923.520
  -6593284.58849  -5107899.80145  23820579.776    23820580.046    23820583.558
 10  4 10  0  4 30.0000000  0  8G 2G29G12G 4G13G10G 5G30
 -23912205.24549 -18603661.58548  20238528.380    20238528.358    20238528.695
  -3615160.07449  -2790251.18345  23998751.340    23998751.830    23998754.020
  -6677698.29049  -5165534.83445  23893901.973    23893902.086    23893904.734
 -12569387.78849  -9740113.58546  22049586.623    22049587.308    22049589.605
  -6574589.62949  -5093886.26145  23300277.295    23300276.804    23300280.304
 -24552078.63649 -19083968.98347  20015324.009    20015323.460    20015327.041
 -24524651.47549 -19058863.88847  20778889.548    20778890.533    20778892.112
  -6553177.40549  -5076647.49845  23828211.916    23828212.582    23828215.824
 10  4 10  0  5  0.0000000  0  8G 2G29G12G 4G13G10G 5G30
 -23928946.53349 -18616706.75048  20235342.649    20235342.434    20235343.003
  -3711976.87549  -2865692.81745  23980327.567    23980328.114    23980330.509
  -6608150.64149  -5111341.91445  23907136.559    23907137.773    23907139.937
 -12502775.99849  -9688208.33046  22062262.444    22062262.713    22062265.631
  -6504898.33649  -5039581.39745  23313538.968    23313539.532    23313542.055
 -24543351.68849 -19077168.76847  20016984.668    20016984.160    20016987.587
 -24566467.12549 -19091447.50147  20770932.341    20770933.022    20770934.598
  -6512598.09749  -5045027.29845  23835934.068    23835933.497    23835938.300
 10  4 10  0  5 30.0000000  0  8G 2G29G12G 4G13G10G 5G30
 -23945380.92449 -18629512.77548  20232215.288    20232215.209    20232215.840
  -3808594.08649  -2940978.94445  23961941.756    23961942.203    23961944.551
  -6538339.13249  -5056943.37745  23920421.410    23920421.847    23920424.630
 -12435964.25649  -9636147.28146  22074976.315    22074977.091    22074979.859
  -6434726.98049  -4984902.46945  23326892.190    23326892.199    23326894.791
 -24534171.78749 -19070015.60447  20018731.615    20018731.141    20018734.508
 -24607891.59949 -19123726.30147  20763049.482    20763049.890    20763051.941
  -6471549.50149  -5013041.43245  23843745.316    23843747.137    23843748.813
 10  4 10  0  6  0.0000000  0  8G 2G29G12G 4G13G10G 5G30
 -23961507.33849 -18642078.82048  20229146.541    20229146.383    20229147.101
  -3905008.77949  -3016107.23745  23943594.578    23943594.814    23943597.383
  -6468266.42349  -5002341.32345  23933755.912    23933756.825    23933759.472
 -12368952.63249  -9583930.48046  22087728.177    22087728.464    22087732.187
  -6364077.53549  -4929850.99945  23340336.453    23340336.721    23340340.158
 -24524540.13749 -19062510.43447  20020564.423    20020563.862    20020567.268
 -24648924.46249 -19155699.95447  20755241.169    20755241.615    20755243.540
  -6430033.61349  -4980691.43245  23851645.550    23851645.859    23851649.862
 10  4 10  0  6 30.0000000  0  8G 2G29G12G 4G13G10G 5G30
 -23977325.57949 -18654404.72948  20226136.416    20226136.347    20226136.670
  -4001219.06549  -3091076.25745  23925286.339    23925286.189    23925289.446
  -6397935.99749  -4947538.44445  23947139.496    23947140.430    23947144.066
 -12301741.98249  -9531558.58546  22100517.972    22100518.629    22100521.746
  -6292952.95249  -4874429.29545  23353870.925    23353870.762    23353874.248
 -24514458.47849 -19054654.60047  20022482.913    20022482.414    20022485.893
 -24689566.77849 -19187369.27847  20747507.188    20747507.659    20747509.634
  -6388053.22849  -4947979.49345  23859634.248    23859634.849    23859638.704
 10  4 10  0  7  0.0000000  0  8G 2G29G12G 4G13G10G 5G30
 -23992833.96149 -18666489.19048  20223185.252    20223185.160    20223185.528
  -4097222.09049  -3165883.78445  23907017.572    23907018.006    23907020.776
  -6327350.41649  -4892536.73845  23960571.452    23960571.611    23960574.332
 -12234332.19649  -9479031.51846  22113345.641    22113346.269    22113348.956
  -6221355.12349  -4818638.82945  23367495.515    23367495.939    23367498.755
 -24503927.52849 -19046448.67147  20024486.892    20024486.407    20024489.604
 -24729818.23349 -19218734.04447  20739847.603    20739848.052    20739849.905
  -6345610.20949  -4914907.04945  23867710.888    23867710.958    23867714.596
 10  4 10  0  7 30.0000000  0  8G 2G29G12G 4G13G10G 5G30
 -24008032.27649 -18678332.04648  20220293.105    20220293.062    20220293.472
  -4193016.18749  -3240528.52245  23888788.593    23888789.335    23888791.661
  -6256513.89749  -4837339.50245  23974051.156    23974051.779    23974055.592
 -12166724.45949  -9426350.21546  22126210.929    22126211.922    22126214.478
  -6149287.36649  -4762482.19645  23381209.585    23381209.735    23381212.771
 -24492949.60749 -19037894.46247  20026575.928    20026575.450    20026578.806
 -24769679.57649 -19249794.82747  20732262.223    20732262.643    20732264.713
  -6302707.52149  -4881476.40645  23875875.111    23875875.056    23875879.243
 10  4 10  0  8  0.0000000  0  8G 2G29G12G 4G13G10G 5G30
 -24022918.46949 -18689931.68348  20217460.377    20217460.353    20217460.710
  -4288597.73449  -3315007.63145  23870600.023    23870600.597    23870603.832
  -6185427.73249  -4781947.71845  23987578.502    23987578.175    23987582.488
 -12098917.94049  -9373514.00246  22139114.149    22139114.690    22139117.954
  -6076751.21449  -4705960.56145  23395012.906    23395013.709    23395016.416
 -24481524.61049 -19028991.87247  20028750.047    20028749.605    20028752.922
 -24809149.69949 -19280550.76047  20724751.343    20724751.883    20724753.629
  -6259346.62149  -4847688.75345  23884126.405    23884126.273    23884130.852
 10  4 10  0  8 30.0000000  0  8G 2G29G12G 4G13G10G 5G30
 -24037492.78149 -18701288.30248  20214687.020    20214687.063    20214687.327
  -4383965.41949  -3389320.09645  23852452.212    23852452.241    23852455.553
  -6114096.36449  -4726364.89345  24001152.411    24001152.928    24001154.997
 -12030914.05549  -9320524.00346  22152054.887    22152054.782    22152059.051
  -6003750.25849  -4649076.74745  23408904.611    23408905.012    23408907.535
 -24469655.07149 -19019742.89047  20031008.747    20031008.361    20031011.521
 -24848229.76849 -19311002.75247  20717314.578    20717315.081    20717316.943
  -6215531.09649  -4813546.81545  23892464.336    23892464.341    23892467.099
 10  4 10  0  9  0.0000000  0  8G 2G29G12G 4G13G10G 5G30
 -24051753.07049 -18712400.22448  20211973.398    20211973.402    20211973.646
  -4479115.75049  -3463463.19445  23834345.692    23834345.736    23834348.414
  -6042521.72349  -4670592.51645  24014772.711    24014773.938    24014776.677
 -11962712.33549  -9267379.85746  22165033.289    22165033.367    22165036.966
  -5930285.87949  -4591831.84045  23422884.319    23422884.634    23422887.017
 -24457341.70449 -19010148.06847  20033351.955    20033351.299    20033354.719
 -24886918.94149 -19341150.15547  20709952.234    20709952.358    20709954.729
  -6171262.79949  -4779052.05445  23900888.340    23900888.989    23900892.622
 10  4 10  0  9 30.0000000  0  8G 2G29G12G 4G13G10G 5G30
 -24065698.76649 -18723267.01048  20209319.664    20209319.579    20209319.874
  -4574046.96949  -3537435.55045  23816280.900    23816280.932    23816283.714
  -5970707.42549  -4614633.36545  24028438.529    24028438.568    24028442.040
 -11894313.46949  -9214082.09246  22178049.171    22178049.906    22178053.675
  -5856361.43049  -4534228.41345  23436951.715    23436952.246    23436954.402
 -24444585.83549 -19000208.43047  20035779.296    20035778.899    20035781.915
 -24925217.63449 -19370993.29347  20702664.189    20702664.883    20702666.568
  -6126544.70549  -4744206.85545  23909397.840    23909398.748    23909401.607
 10  4 10  0 11  0.0000000  0  8G 2G29G12G 4G13G10G 5G30
 -24105610.66249 -18754367.21848  20201724.697    20201724.667    20201725.095
  -4857470.45849  -3758284.96945  23762347.104    23762347.369    23762350.573
  -5753828.82949  -4445637.20645  24069709.005    24069710.516    24069712.409
 -11687909.00049  -9053247.57546  22217326.742    22217328.054    22217330.363
  -5631821.76649  -4359262.61745  23479680.212    23479680.525    23479683.123
 -24403648.79549 -18968309.44947  20043569.360    20043568.826    20043571.978
 -25037746.21449 -19458677.90147  20681250.703    20681251.517    20681253.104
  -5989686.17549  -4637563.99945  23935440.936    23935441.509    23935444.578
 10  4 10  0 11 30.0000000  0  8G 2G29G12G 4G13G10G 5G30
 -24118300.90949 -18764255.73148  20199309.824    20199309.689    20199310.130
  -4951511.24549  -3831563.49845  23744451.718    23744451.648    23744455.097
  -5681098.39049  -4388964.20045  24083549.180    24083549.865    24083553.121
 -11618737.08749  -8999347.42646  22230489.763    22230490.172    22230493.603
  -5556092.87249  -4300253.13345  23494090.953    23494091.639    23494094.963
 -24389149.28049 -18957011.12647  20046328.548    20046327.936    20046331.272
 -25074497.69749 -19487315.42147  20674257.120    20674257.509    20674259.615
  -5943204.95549  -4601344.91245  23944285.998    23944287.365    23944289.718
 10  4 10  0 12  0.0000000  0  8G 2G29G12G 4G13G10G 5G30
 -24130665.77749 -18773890.70648  20196956.824    20196956.768    20196957.178
  -5045314.46149  -3904656.89145  23726601.478    23726602.185    23726603.578
  -5608137.87249  -4332111.89245  24097433.231    24097433.644    24097436.752
 -11549364.13749  -8945290.62946  22243691.038    22243691.982    22243694.864
  -5479910.56749  -4240890.36645  23508588.102    23508588.853    23508591.065
 -24374208.95549 -18945369.32147  20049171.579    20049170.898    20049174.285
 -25110854.06749 -19515645.05947  20667338.730    20667339.259    20667341.109
  -5896280.89849  -4564780.75645  23953215.509    23953215.094    23953220.829
 10  4 10  0 12 30.0000000  0  8G 2G29G12G 4G13G10G 5G30
 -24142706.73449 -18783273.27848  20194665.503    20194665.514    20194665.809
  -5138879.74049  -3977564.87645  23708796.585    23708797.001    23708799.321
  -5534952.30649  -4275084.23145  24111360.090    24111361.102    24111363.548
 -11479792.43049  -8891078.95046  22256930.227    22256930.727    22256934.445
  -5403279.74449  -4181178.08745  23523170.560    23523170.218    23523173.623
 -24358830.65549 -18933386.23047  20052097.957    20052097.202    20052100.823
 -25146817.74149 -19543668.70347  20660495.123    20660495.567    20660497.536
  -5848918.25249  -4527874.83845  23962228.289    23962229.614    23962231.545
 10  4 10  0 13  0.0000000  0  8G 2G29G12G 4G13G10G 5G30
 -24154424.53949 -18792404.04048  20192435.735    20192435.538    20192436.019
  -5232206.40349  -4050286.92545  23691037.157    23691037.716    23691039.960
  -5461546.61149  -4217885.04345  24125328.914    24125329.152    24125333.254
 -11410024.30849  -8836714.23446  22270206.672    22270206.767    22270210.537
  -5326204.57949  -4121119.58145  23537837.449    23537838.374    23537841.007
 -24343018.08249 -18921064.74747  20055106.954    20055106.519    20055109.862
 -25182390.84949 -19571388.00647  20653725.785    20653726.343    20653728.379
  -5801121.58649  -4490630.70145  23971323.811    23971324.238    23971326.189
 10  4 10  0 13 30.0000000  0  8G 2G29G12G 4G13G10G 5G30
 -24165818.08449 -18801282.13548  20190267.638    20190267.499    20190267.855
  -5325292.15249  -4122821.25145  23673323.608    23673323.429    23673326.107
  -5387924.27149  -4160517.03145  24139338.870    24139339.533    24139341.741
 -11340059.78249  -8782196.45646  22283520.522    22283520.700    22283524.377
  -5248687.81049  -4060716.95945  23552588.404    23552588.582    23552591.457
 -24326772.07949 -18908405.52647  20058198.492    20058197.799    20058201.215
 -25217573.15649 -19598802.79747  20647030.795    20647031.228    20647033.214
  -5752893.30049  -4453050.26745  23980501.486    23980502.983    23980506.443
 10  4 10  0 14  0.0000000  0  8G 2G29G12G 4G13G10G 5G30
 -24176887.67249 -18809907.79148  20188161.144    20188161.037    20188161.381
  -5418135.43949  -4195166.66645  23655656.109    23655656.150    23655658.594
  -5314089.00149  -4102983.12345  24153389.384    24153390.985    24153391.998
 -11269900.52849  -8727526.94646  22296871.449    22296871.927    22296875.531
  -5170732.91249  -3999972.93745  23567422.883    23567423.872    23567426.354
 -24310095.61649 -18895410.88447  20061371.874    20061371.222    20061374.662
 -25252366.09549 -19625914.17547  20640409.921    20640410.611    20640412.507
  -5704237.30549  -4415136.57645  23989760.495    23989760.964    23989764.331
 10  4 10  0 14 30.0000000  0  8G 2G29G12G 4G13G10G 5G30
 -24187632.11249 -18818280.09248  20186116.560    20186116.632    20186116.973
  -5510733.50549  -4267320.96545  23638035.326    23638035.608    23638038.089
  -5240043.57349  -4045285.44645  24167479.762    24167480.391    24167482.927
 -11199546.77449  -8672705.89446  22310259.293    22310259.908    22310262.700
  -5092342.56549  -3938889.62345  23582340.139    23582341.095    23582342.008
 -24292990.09649 -18882081.91747  20064626.963    20064626.458    20064629.836
 -25286769.88449 -19652722.32247  20633863.106    20633863.563    20633865.575
  -5655156.21049  -4376891.63045  23999100.389    23999101.718    23999103.381
 10  4 10  0 15  0.0000000  0  8G 2G29G12G 4G13G10G 5G30
 -24198050.80249 -18826398.56048  20184133.942    20184133.895    20184134.294
  -5603084.25549  -4339282.57145  23620461.601    23620461.775    23620463.977
  -5165791.72449  -3987426.92045  24181609.395    24181609.730    24181613.466
 -11128999.34049  -8617733.91346  22323684.096    22323684.495    22323688.228
  -5013519.86449  -3877469.38445  23597339.690    23597340.131    23597342.757
 -24275457.17149 -18868419.90447  20067963.384    20067963.058    20067966.191
 -25320785.42549 -19679227.93747  20627390.133    20627390.685    20627392.562
  -5605653.22149  -4338317.88345  24008520.769    24008520.297    24008525.615
 10  4 10  0 15 30.0000000  0  8G 2G29G12G 4G13G10G 5G30
 -24208142.13549 -18834261.94248  20182213.686    20182213.694    20182214.025
  -5695184.50749  -4411048.99045  23602935.372    23602935.098    23602938.510
  -5091335.72549  -3929409.33145  24195777.990    24195778.071    24195781.326
 -11058257.88249  -8562610.74546  22337145.781    22337146.435    22337149.571
  -4934266.67249  -3815713.71145  23612421.162    23612422.090    23612423.615
 -24257497.69549 -18854425.51147  20071381.006    20071380.303    20071383.846
 -25354412.18549 -19705430.60047  20620991.203    20620991.794    20620993.750
  -5555729.79349  -4299416.60245  24018020.830    24018020.960    24018024.479
 10  4 10  0 16  0.0000000  0  9G 2G29G12G 4G13G10G 5G30G15
 -24217905.39749 -18841869.68148  20180355.793    20180355.551    20180356.026
  -5787032.48149  -4482618.83045  23585457.139    23585457.288    23585459.773
  -5016679.29449  -3871235.54045  24209984.692    24209985.236    24209986.678
 -10987323.12549  -8507336.95546  22350644.221    22350644.891    22350648.144
  -4854586.14549  -3753625.06045  23627583.654    23627583.764    23627586.960
 -24239113.74149 -18840100.35947  20074879.359    20074878.821    20074882.137
 -25387650.52849 -19731330.61147  20614666.162    20614666.713    20614668.647
  -5505389.26049  -4260190.27445  24027600.450    24027600.288    24027604.269
  -1692777.46549  -1289489.24545  25262645.998    25262646.464    25262650.349
 10  4 10  0 16 30.0000000  0  9G 2G29G12G 4G13G10G 5G30G15
 -24227340.01849 -18849221.34548  20178560.451    20178560.333    20178560.825
  -5878625.27549  -4553989.82645  23568027.606    23568028.254    23568030.617
  -4941825.45949  -3812907.90945  24224228.981    24224227.926    24224232.811
 -10916195.46749  -8451912.85246  22364179.392    22364179.711    22364183.804
  -4774481.00449  -3691205.52045  23642827.262    23642827.131    23642830.840
 -24220306.55649 -18825445.41747  20078458.273    20078457.893    20078460.959
 -25420500.72049 -19756928.15747  20608414.985    20608415.321    20608417.401
  -5454634.36349  -4220641.04145  24037258.753    24037260.231    24037262.161
  -1807654.19349  -1379003.53345  25240785.644    25240785.178    25240789.945
 10  4 10  0 17  0.0000000  0  9G 2G29G12G 4G13G10G 5G30G15
 -24236445.10349 -18856316.22148  20176827.844    20176827.713    20176828.164
  -5969961.21349  -4625160.66745  23550646.984    23550647.156    23550649.688
  -4866777.64549  -3754429.16445  24238510.038    24238510.818    24238513.248
 -10844875.68149  -8396339.03846  22377751.108    22377751.315    22377755.217
  -4693954.33649  -3628457.54945  23658151.073    23658152.102    23658154.763
 -24201077.95349 -18810462.09347  20082117.382    20082116.860    20082120.051
 -25452963.98649 -19782224.20447  20602237.422    20602237.858    20602239.860
  -5403468.20649  -4180771.35145  24046995.368    24046995.511    24046999.834
  -1922572.70149  -1468550.32045  25218917.136    25218917.057    25218921.589
 10  4 10  0 17 30.0000000  0  9G 2G29G12G 4G13G10G 5G30G15
 -24245219.24349 -18863153.22648  20175158.158    20175158.199    20175158.590
  -6061037.02549  -4696128.81945  23533315.849    23533316.124    23533318.473
  -4791538.46449  -3695801.30145  24252827.493    24252827.857    24252829.461
 -10773363.73349  -8340615.48546  22391359.405    22391359.854    22391363.260
  -4613008.22649  -3565382.72445  23673554.730    23673555.139    23673558.404
 -24181428.86449 -18795151.12747  20085856.454    20085855.661    20085859.155
 -25485039.80149 -19807218.34647  20596133.588    20596133.933    20596136.197
  -5351893.04349  -4140582.96545  24056809.793    24056810.956    24056814.290
  -2037530.11949  -1558127.45545  25197041.382    25197041.681    25197046.033
 10  4 10  0 18  0.0000000  0  9G 2G29G12G 4G13G10G 5G30G15
 -24253661.11149 -18869731.31048  20173551.718    20173551.461    20173551.965
  -6151849.61549  -4766891.85645  23516034.807    23516035.128    23516037.699
  -4716110.90849  -3637026.61645  24267180.813    24267180.421    24267184.816
 -10701659.21849  -8284741.88446  22405004.318    22405004.878    22405008.446
  -4531644.89249  -3501982.79345  23689037.726    23689037.680    23689041.473
 -24161360.70749 -18779513.60847  20089675.308    20089674.688    20089677.938
 -25516727.98849 -19831910.43447  20590103.511    20590104.177    20590105.989
  -5299911.31249  -4100077.75445  24066701.568    24066702.489    24066705.242
  -2152523.39149  -1647732.56645  25175158.997    25175159.620    25175163.342
 10  4 10  0 18 30.0000000  0  9G 2G29G12G 4G13G10G 5G30G15
 -24261770.36949 -18876050.22348  20172008.553    20172008.429    20172008.774
  -6242397.12049  -4837448.32845  23498804.047    23498803.687    23498806.792
  -4640498.00849  -3578107.55345  24281569.440    24281570.788    24281572.739
 -10629763.43949  -8228719.23746  22418685.662    22418685.547    22418689.663
  -4449867.59749  -3438260.29045  23704599.471    23704600.417    23704603.710
 -24140875.49549 -18763551.11847  20093573.532    20093573.129    20093576.187
 -25548029.40649 -19856301.14547  20584147.071    20584147.511    20584149.571
  -5247526.33949  -4059258.32245  24076670.200    24076671.487    24076673.373
  -2267551.54249  -1737364.75745  25153269.864    25153270.063    25153273.303
 10  4 10  0 19  0.0000000  0  9G 2G29G12G 4G13G10G 5G30G15
 -24269546.47349 -18882109.53648  20170528.824    20170528.833    20170529.101
  -6332677.97749  -4907797.04745  23481624.015    23481624.080    23481626.784
  -4564703.60949  -3519047.01945  24295992.631    24295992.305    24295995.005
 -10557677.33049  -8172548.29846  22432403.166    22432404.080    22432407.676
  -4367679.81249  -3374217.92545  23720239.386    23720239.660    23720243.058
 -24119975.22049 -18747265.19947  20097550.716    20097550.176    20097553.480
 -25578944.99049 -19880391.21047  20578264.043    20578264.414    20578266.609
  -5194741.05149  -4018126.97345  24086714.745    24086714.894    24086719.124
  -2382612.00949  -1827022.17945  25131374.546    25131373.462    25131379.545
 10  4 10  0 19 30.0000000  0  9G 2G29G12G 4G13G10G 5G30G15
 -24276988.46349 -18887908.49948  20169112.636    20169112.644    20169112.960
  -6422689.10149  -4977935.55945  23464495.407    23464495.258    23464498.449
  -4488730.84549  -3459847.51845  24310449.835    24310450.845    24310452.567
 -10485400.95849  -8116229.09046  22446156.995    22446157.778    22446160.672
  -4285084.01149  -3309857.62045  23735956.945    23735956.639    23735960.245
 -24098661.01549 -18730656.73247  20101606.689    20101605.978    20101609.299
 -25609474.94449 -19904180.78947  20572454.388    20572455.066    20572456.894
  -5141558.40249  -3976685.99045  24096835.027    24096834.898    24096839.392
  -2497702.40449  -1916702.87645  25109473.449    25109473.533    25109477.962
 10  4 10  0 20  0.0000000  0  9G 2G29G12G 4G13G10G 5G30G15
 -24284095.06449 -18893446.11948  20167760.324    20167760.100    20167760.696
  -6512427.63849  -5047861.66745  23447418.705    23447419.259    23447421.632
  -4412582.28149  -3400511.01345  24324940.484    24324939.994    24324944.526
 -10412934.27649  -8059761.60146  22459947.027    22459947.782    22459951.595
  -4202082.44049  -3245181.15745  23751751.731    23751752.764    23751754.747
 -24076933.82849 -18713726.46347  20105741.257    20105740.745    20105744.034
 -25639619.40649 -19927669.97247  20566718.075    20566718.567    20566720.526
  -5087980.69349  -3934937.15245  24107030.417    24107032.129    24107035.983
  -2612820.08349  -2006404.82245  25087567.151    25087567.518    25087572.044
 10  4 10  0 20 30.0000000  0  9G 2G29G12G 4G13G10G 5G30G15
 -24290863.87849 -18898720.53348  20166472.251    20166472.312    20166472.748
  -6601890.19649  -5117572.73645  23430394.571    23430394.915    23430397.921
  -4336260.15149  -3341039.27745  24339463.979    24339463.710    24339468.218
 -10340276.65949  -8003145.32346  22473773.388    22473773.790    22473777.627
  -4118676.87849  -3180189.87245  23767623.383    23767624.196    23767627.175
 -24054794.50749 -18696475.05447  20109954.204    20109953.669    20109957.196
 -25669377.61949 -19950858.19847  20561055.279    20561055.787    20561057.926
  -5034009.65149  -3892881.85545  24117300.763    24117302.239    24117305.043
  -2727961.74549  -2096125.44645  25065656.194    25065656.137    25065660.367
 10  4 10  0 21  0.0000000  0  9G 2G29G12G 4G13G10G 5G30G15
 -24297294.63049 -18903731.51848  20165248.546    20165248.439    20165248.838
  -6691074.48149  -5187066.95345  23413423.265    23413423.244    23413426.443
  -4259767.52449  -3281434.71045  24354020.085    24354022.201    24354024.374
 -10267429.00149  -7946380.96846  22487635.933    22487636.673    22487639.891
  -4034870.46849  -3114886.25045  23783571.198    23783571.536    23783574.673
 -24032244.87649 -18678903.92647  20114245.276    20114244.688    20114248.118
 -25698750.18649 -19973745.91347  20555465.809    20555466.607    20555468.437
  -4979648.49249  -3850522.56145  24127645.617    24127646.668    24127649.889
  -2843125.09049  -2185863.01245  25043741.296    25043741.129    25043744.599
 10  4 10  0 21 30.0000000  0  9G 2G29G12G 4G13G10G 5G30G15
 -24303387.03149 -18908478.85948  20164089.251    20164089.231    20164089.622
  -6779978.68149  -5256342.94745  23396505.263    23396505.266    23396508.568
  -4183108.35049  -3221700.33945  24368608.017    24368609.053    24368610.448
 -10194392.08449  -7889469.13546  22501534.383    22501535.171    22501538.446
  -3950666.53449  -3049272.85945  23799594.703    23799595.773    23799598.331
 -24009287.41149 -18661014.99847  20118613.930    20118613.504    20118616.612
 -25727738.17649 -19996333.95747  20549949.602    20549950.096    20549952.154
  -4924900.56849  -3807861.89145  24138063.861    24138064.036    24138067.338
  -2958308.74149  -2275616.36745  25021822.368    25021823.332    25021827.760
 10  4 10  0 22  0.0000000  0  9G 2G29G12G 4G13G10G 5G30G15
 -24309140.41149 -18912962.02448  20162994.431    20162994.389    20162994.737
  -6868600.51949  -5325398.91246  23379641.164    23379641.971    23379644.559
  -4106286.11949  -3161838.91045  24383226.895    24383226.454    24383230.590
 -10121166.84149  -7832410.55146  22515468.757    22515469.885    22515472.340
  -3866068.21549  -2983352.16445  23815693.187    23815693.458    23815695.994
 -23985923.78449 -18642809.58547  20123059.864    20123059.366    20123062.673
 -25756342.22249 -20018622.82347  20544506.406    20544507.094    20544509.094
  -4869769.43649  -3764902.61645  24148554.998    24148554.643    24148559.588
  -3073510.51749  -2365383.92745  24999900.025    24999899.899    24999905.183
 10  4 10  0 22 30.0000000  0  9G 2G29G12G 4G13G10G 5G30G15
 -24314552.17249 -18917178.99148  20161964.612    20161964.542    20161964.932
  -6956935.98949  -5394231.73646  23362831.442    23362831.828    23362834.677
  -4029302.41349  -3101851.67645  24397876.436    24397877.761    24397879.440
 -10047751.96549  -7775204.20546  22529439.188    22529438.834    22529443.076
  -3781076.63549  -2917125.00945  23831866.669    23831866.392    23831869.720
 -23962153.62149 -18624287.38847  20127583.187    20127582.724    20127585.932
 -25784561.24649 -20040611.67047  20539136.518    20539137.001    20539139.184
  -4814256.16649  -3721645.55745  24159118.915    24159118.191    24159123.381
  -3188726.14349  -2455162.25145  24977975.170    24977974.278    24977979.585
 10  4 10  0 23  0.0000000  0  9G 2G29G12G 4G13G10G 5G30G15
 -24319622.47249 -18921129.88848  20160999.795    20160999.630    20160999.960
  -7044983.38749  -5462840.07646  23346076.540    23346077.597    23346080.026
  -3952160.98249  -3041741.52145  24412556.176    24412556.769    24412559.961
  -9974148.64649  -7717851.02746  22543445.437    22543446.007    22543449.710
  -3695695.48349  -2850594.33445  23848114.267    23848115.473    23848117.118
 -23937979.36749 -18605450.31647  20132183.405    20132182.920    20132186.331
 -25812396.42149 -20062301.41847  20533839.634    20533840.148    20533842.262
  -4758364.13949  -3678093.37445  24169754.931    24169754.797    24169759.596
  -3303954.26849  -2544950.36645  24956047.814    24956047.038    24956052.467
 10  4 10  0 23 30.0000000  0  9G 2G29G12G 4G13G10G 5G30G15
 -24324350.49549 -18924814.07548  20160100.075    20160100.043    20160100.444
  -7132740.58049  -5531222.29146  23329376.939    23329377.328    23329379.811
  -3874865.44149  -2981511.28145  24427264.989    24427264.527    24427270.252
  -9900357.97149  -7660351.87446  22557487.417    22557488.346    22557491.409
  -3609927.84449  -2783762.45845  23864435.377    23864436.265    23864440.099
 -23913403.31049 -18586300.15147  20136860.057    20136859.442    20136862.984
 -25839848.55749 -20083692.69047  20528615.623    20528616.115    20528618.130
  -4702096.72949  -3634248.66945  24180462.388    24180463.204    24180467.190
  -3419192.70049  -2634746.47545  24934118.505    24934119.228    24934122.337
 10  4 10  0 24  0.0000000  0  9G 2G29G12G 4G13G10G 5G30G15
 -24328734.37949 -18928230.10848  20159265.838    20159265.631    20159266.113
  -7220203.95749  -5599375.56446  23312733.179    23312733.241    23312736.478
  -3797417.99349  -2921162.68045  24442002.774    24442002.953    24442006.697
  -9826379.01749  -7602705.98746  22571565.209    22571565.340    22571568.830
  -3523775.42049  -2716630.78945  23880829.580    23880829.696    23880833.504
 -23888426.39349 -18566837.63547  20141613.025    20141612.592    20141615.838
 -25866917.16149 -20104785.11247  20523464.636    20523465.141    20523467.593
  -4645455.98249  -3590113.06245  24191240.653    24191241.042    24191245.404
  -3534438.25749  -2724548.14745  24912187.936    24912187.851    24912193.154
 10  4 10  0 24 30.0000000  0  9G 2G29G12G 4G13G10G 5G30G15
 -24332773.97049 -18931377.85748  20158497.149    20158496.993    20158497.440
  -7307371.85149  -5667298.58546  23296145.683    23296145.964    23296149.184
  -3719821.87949  -2860698.25045  24456768.936    24456769.831    24456771.457
  -9752212.94049  -7544914.29346  22585678.520    22585679.390    22585683.086
  -3437241.84049  -2649202.07145  23897296.416    23897296.546    23897299.491
 -23863050.21249 -18547063.99747  20146442.010    20146441.469    20146444.843
 -25893602.83249 -20125579.14148  20518386.541    20518387.076    20518389.268
  -4588445.20149  -3545689.14145  24202089.428    24202090.621    24202094.141
  -3649689.00949  -2814353.84945  24890256.383    24890257.164    24890261.274
 10  4 10  0 25  0.0000000  0  9G 2G29G12G 4G13G10G 5G30G15
 -24336467.69949 -18934256.10548  20157794.271    20157794.429    20157794.465
  -7394241.43449  -5734989.16446  23279614.917    23279615.647    23279618.597
  -3642080.08949  -2800120.31145  24471562.833    24471562.010    24471565.073
  -9677859.66349  -7486976.73246  22599827.529    22599827.885    22599831.825
  -3350329.28249  -2581478.08145  23913835.464    23913833.428    23913838.711
 -23837276.02549 -18526980.22747  20151346.665    20151346.073    20151349.417
 -25919906.32149 -20146075.37548  20513381.214    20513381.561    20513383.807
  -4531066.75649  -3500978.71645  24213008.445    24213009.213    24213013.422
  -3764942.13249  -2904161.39545  24868324.225    24868323.478    24868328.891
 10  4 10  0 25 30.0000000  0  9G 2G29G12G 4G13G10G 5G30G15
 -24339815.69949 -18936864.94748  20157157.203    20157157.160    20157157.580
  -7480810.87749  -5802445.86346  23263141.334    23263141.542    23263144.217
  -3564196.51749  -2739431.86245  24486383.580    24486385.308    24486385.725
  -9603320.48749  -7428894.31746  22614011.877    22614012.475    22614016.358
  -3263041.79349  -2513461.92345  23930445.883    23930446.247    23930449.278
 -23811106.62449 -18506588.49347  20156326.507    20156325.986    20156329.429
 -25945828.83449 -20166274.73548  20508448.297    20508448.716    20508451.077
  -4473325.23749  -3455985.37345  24223996.333    24223997.895    24223999.564
  -3880196.35449  -2993969.79945  24846391.776    24846391.951    24846396.730
 10  4 10  0 26  0.0000000  0  9G 2G29G12G 4G13G10G 5G30G15
 -24342815.94849 -18939202.81848  20156586.293    20156586.086    20156586.595
  -7567076.57649  -5869665.87946  23246725.659    23246726.136    23246728.437
  -3486173.30749  -2678634.60445  24501230.946    24501229.921    24501233.743
  -9528594.72649  -7370666.49946  22628231.667    22628232.381    22628236.143
  -3175380.94849  -2445154.84645  23947127.237    23947127.778    23947129.955
 -23784542.11249 -18485888.88247  20161381.612    20161381.056    20161384.402
 -25971369.56049 -20186176.60348  20503588.075    20503588.631    20503590.708
  -4415222.04049  -3410710.19045  24235052.978    24235053.402    24235056.917
  -3995447.78049  -3083775.99645  24824460.232    24824461.173    24824464.754
 10  4 10  0 26 30.0000000  0  9G 2G29G12G 4G13G10G 5G30G15
 -24345468.12549 -18941269.46548  20156081.600    20156081.445    20156081.970
  -7653036.68249  -5936647.77946  23230368.077    23230368.231    23230370.988
  -3408014.45049  -2617731.65545  24516104.017    24516105.413    24516109.104
  -9453683.66349  -7312294.30246  22642486.946    22642487.602    22642491.229
  -3087350.17949  -2376559.51845  23963878.970    23963879.581    23963881.907
 -23757584.90149 -18464883.27847  20166511.458    20166510.925    20166514.220
 -25996529.72749 -20205781.93548  20498800.248    20498800.586    20498802.741
  -4356761.10049  -3365156.25645  24246177.765    24246178.280    24246180.442
  -4110695.17249  -3173579.08945  24802529.450    24802529.556    24802534.391
 10  4 10  0 27  0.0000000  0  9G 2G29G12G 4G13G10G 5G30G15
 -24347771.98249 -18943064.68548  20155643.216    20155643.119    20155643.531
  -7738689.50449  -6003390.23346  23214068.844    23214069.054    23214072.025
  -3329723.37749  -2556725.67145  24531002.467    24531001.621    24531007.411
  -9378588.10149  -7253778.32546  22656777.161    22656777.629    22656780.622
  -2998952.98549  -2307678.66845  23980700.385    23980701.206    23980702.514
 -23730237.11749 -18443573.32247  20171715.550    20171714.962    20171718.423
 -26021310.12749 -20225091.33448  20494084.661    20494085.120    20494087.243
  -4297945.40049  -3319325.89945  24257369.890    24257370.492    24257372.536
  -4225936.35249  -3263377.36345  24780599.843    24780601.087    24780604.205
 10  4 10  0 27 30.0000000  0  9G 2G29G12G 4G13G10G 5G30G15
 -24349724.72049 -18944586.31348  20155271.625    20155271.556    20155272.002
  -7824030.45149  -6069889.67246  23197828.967    23197829.207    23197832.532
  -3251301.11049  -2495617.50445  24545925.568    24545925.499    24545930.839
  -9303306.71449  -7195117.56946  22671102.732    22671102.612    22671106.528
  -2910190.16349  -2238512.89645  23997591.551    23997591.453    23997596.339
 -23702498.61249 -18421958.91547  20176994.014    20176993.438    20176996.638
 -26045709.52549 -20244103.85448  20489441.627    20489441.994    20489444.142
  -4238776.16549  -3273220.03545  24268629.544    24268629.737    24268634.554
  -4341166.90949  -3353167.33145  24758672.296    24758673.487    24758677.016
 10  4 10  0 28  0.0000000  0  9G 2G29G12G 4G13G10G 5G30G15
 -24351326.24849 -18945834.26848  20154966.889    20154966.787    20154967.241
  -7909057.50649  -6136144.50546  23181648.839    23181649.528    23181652.043
  -3172751.57549  -2434410.09445  24560872.869    24560874.261    24560877.488
  -9227840.26249  -7136312.59246  22685463.550    22685463.930    22685468.363
  -2821065.27649  -2169065.02145  24014551.530    24014551.882    24014553.913
 -23674371.23049 -18400041.48047  20182346.455    20182346.023    20182349.151
 -26069729.01449 -20262820.33548  20484870.875    20484871.389    20484873.586
  -4179256.83549  -3226841.41945  24279955.635    24279955.357    24279960.018
  -4456385.09149  -3442947.69645  24736747.268    24736747.086    24736751.505
 10  4 10  0 28 30.0000000  0  9G 2G29G12G 4G13G10G 5G30G15
 -24352576.84949 -18946808.78048  20154728.929    20154728.812    20154729.373
  -7993770.04449  -6202154.27446  23165528.678    23165529.328    23165531.759
  -3094079.29949  -2373107.08645  24575843.689    24575843.857    24575849.205
  -9152191.12649  -7077365.27746  22699859.098    22699859.574    22699863.058
  -2731582.71049  -2099338.42445  24031579.590    24031578.384    24031584.255
 -23645858.85049 -18377824.05747  20187772.235    20187771.846    20187775.145
 -26093370.84549 -20281242.54648  20480372.026    20480372.403    20480374.722
  -4119392.06749  -3180193.58245  24291347.743    24291349.119    24291353.436
  -4571590.20549  -3532717.86245  24714824.542    24714824.433    24714829.403
 10  4 10  0 29  0.0000000  0  9G 2G29G12G 4G13G10G 5G30G15
 -24353473.57049 -18947507.53448  20154558.300    20154558.230    20154558.519
  -8078163.12749  -6267915.10146  23149469.283    23149469.536    23149472.795
  -3015285.18949  -2311709.13945  24590837.722    24590838.367    24590842.648
  -9076357.24149  -7018274.00246  22714289.880    22714289.994    22714294.056
  -2641743.04049  -2029333.54245  24048675.508    24048674.619    24048679.158
 -23616960.45749 -18355305.83747  20193271.443    20193270.969    20193274.180
 -26116633.03649 -20299368.92948  20475945.348    20475945.698    20475948.028
  -4059182.30749  -3133276.92945  24302805.555    24302806.437    24302806.640
  -4686777.49849  -3622474.11445  24692904.996    24692906.157    24692909.230
 10  4 10  0 29 30.0000000  0  9G 2G29G12G 4G13G10G 5G30G15
 -24354016.64049 -18947930.72248  20154455.012    20154454.921    20154455.416
  -8162235.20849  -6333425.80546  23133470.806    23133471.171    23133473.569
  -2936373.61249  -2250219.67645  24605854.261    24605854.851    24605858.182
  -9000340.04949  -6959039.88746  22728755.518    22728755.430    22728759.093
  -2551550.05449  -1959053.37945  24065838.702    24065838.517    24065842.340
 -23587678.57349 -18332488.79847  20198843.578    20198842.972    20198846.498
 -26139517.24349 -20317200.77448  20471590.597    20471591.002    20471593.237
  -3998631.94549  -3086094.91045  24314328.047    24314328.391    24314332.483
  -4801945.31049  -3712215.20145  24670989.176    24670989.649    24670993.207
 10  4 10  0 30  0.0000000  0  9G 2G29G12G 4G13G10G 5G30G15
 -24354203.68749 -18948076.48748  20154419.378    20154419.366    20154419.766
  -8245982.27649  -6398683.25446  23117534.236    23117534.594    23117536.968
  -2857345.79649  -2188639.63145  24620892.918    24620893.700    24620897.327
  -8924138.33549  -6899662.00046  22743256.187    22743256.511    22743260.784
  -2461005.10549  -1888498.95745  24083068.798    24083069.448    24083073.101
 -23558013.58649 -18309373.23747  20204488.621    20204488.124    20204491.497
 -26162022.33349 -20334737.21548  20467308.002    20467308.617    20467310.488
  -3937742.20749  -3038648.40045  24325914.981    24325915.789    24325920.179
  -4917089.61649  -3801937.96645  24649077.880    24649078.388    24649080.907
 10  4 10  0 30 30.0000000  0  9G 2G29G12G 4G13G10G 5G30G15
 -24354034.89649 -18947944.97948  20154451.488    20154451.444    20154451.997
  -8329403.36449  -6463686.68146  23101659.736    23101659.714    23101662.356
  -2778206.20749  -2126972.49745  24635952.829    24635954.044    24635957.788
  -8847754.21249  -6840141.96946  22757791.757    22757792.338    22757795.536
  -2370112.65349  -1817673.75745  24100365.235    24100365.284    24100369.463
 -23527968.53149 -18285961.51947  20210206.041    20210205.586    20210208.952
 -26184150.33749 -20351979.81548  20463097.178    20463097.672    20463099.708
  -3876517.78649  -2990941.11045  24337565.580    24337565.004    24337568.492
  -5032209.83149  -3891641.94545  24627171.144    24627171.444    24627175.934
 10  4 10  0 31  0.0000000  0  9G 2G29G12G 4G13G10G 5G30G15
 -24353509.52649 -18947535.61448  20154551.488    20154551.604    20154551.788
  -8412496.01949  -6528434.19546  23085847.775    23085848.180    23085850.394
  -2698957.88049  -2065220.62345  24651033.278    24651034.624    24651037.759
  -8771188.10049  -6780480.12346  22772361.809    22772362.312    22772366.180
  -2278875.55049  -1746579.97045  24117727.215    24117726.206    24117731.365
 -23497544.96349 -18262254.85247  20215995.492    20215994.848    20215998.106
 -26205901.90749 -20368929.08948  20458957.987    20458958.438    20458960.536
  -3814961.54049  -2942975.23745  24349279.329    24349279.485    24349285.576
  -5147303.13649  -3981324.97245  24605269.274    24605269.027    24605273.454
 10  4 10  0 31 30.0000000  0  9G 2G29G12G 4G13G10G 5G30G15
 -24352625.84149 -18946847.04348  20154719.642    20154719.428    20154720.057
  -8495256.50849  -6592922.87846  23070098.918    23070098.403    23070102.089
  -2619603.11649  -2003385.79945  24666134.312    24666135.380    24666139.568
  -8694439.18249  -6720675.84346  22786966.673    22786967.091    22786970.667
  -2187295.58649  -1675219.03445  24135154.302    24135155.180    24135157.014
 -23466743.35649 -18238253.61847  20221856.845    20221856.120    20221859.963
 -26227276.35449 -20385584.50448  20454890.528    20454890.854    20454893.246
  -3753075.35049  -2894752.31844  24361055.710    24361056.681    24361057.842
  -5262366.15649  -4070984.39945  24583373.415    24583373.655    24583377.194
 10  4 10  0 32  0.0000000  0  9G 2G29G12G 4G13G10G 5G30G15
 -24351383.67649 -18945879.13348  20154956.008    20154955.844    20154956.386
  -8577683.33049  -6657151.54446  23054413.548    23054414.341    23054416.508
  -2540145.65249  -1941470.96245  24681254.718    24681254.123    24681260.732
  -8617508.82449  -6660730.16146  22801606.083    22801606.107    22801609.810
  -2095376.15249  -1603593.56045  24152645.965    24152646.421    24152650.651
 -23435566.17349 -18213959.72047  20227789.661    20227789.103    20227792.558
 -26248275.16849 -20401947.21648  20450894.614    20450895.250    20450897.179
  -3690862.93349  -2846275.09144  24372894.418    24372895.186    24372901.645
  -5377397.21949  -4160618.93445  24561483.695    24561483.379    24561488.042
 10  4 10  0 32 30.0000000  0  9G 2G29G12G 4G13G10G 5G30G15
 -24349782.41149 -18944631.41048  20155260.711    20155260.703    20155261.219
  -8659774.27849  -6721118.51146  23038792.112    23038792.456    23038794.721
  -2460589.19849  -1879479.00645  24696393.921    24696394.872    24696398.119
  -8540397.59449  -6600643.55246  22816279.903    22816280.108    22816284.544
  -2003120.63949  -1531706.23745  24170201.474    24170200.768    24170204.494
 -23404015.50349 -18189374.79447  20233793.526    20233793.107    20233796.508
 -26268899.16849 -20418017.86748  20446970.002    20446970.517    20446972.608
  -3628327.68749  -2797546.46745  24384794.562    24384796.796    24384797.779
  -5492394.18549  -4250226.90345  24539600.625    24539600.298    24539605.269
 10  4 10  0 33  0.0000000  0  9G 2G29G12G 4G13G10G 5G30G15
 -24347820.21849 -18943102.44248  20155634.136    20155634.035    20155634.639
  -8741525.83649  -6784821.01146  23023235.397    23023235.566    23023238.544
  -2380935.12349  -1817410.95645  24711551.652    24711551.359    24711556.063
  -8463105.01449  -6540415.63746  22830988.237    22830988.166    22830991.929
  -1910530.78849  -1459558.36345  24187820.679    24187821.849    24187826.376
 -23372091.69149 -18164499.10847  20239868.464    20239867.741    20239871.378
 -26289147.82649 -20433796.04948  20443116.839    20443117.524    20443119.370
  -3565471.96949  -2748568.01845  24396755.623    24396755.398    24396759.507
  -5607353.38749  -4339805.45945  24517724.647    24517725.162    24517729.401
 10  4 10  0 33 30.0000000  0  9G 2G29G12G 4G13G10G 5G30G15
 -24345496.78049 -18941291.98448  20156076.266    20156076.289    20156076.675
  -8822936.07749  -6848257.55046  23007743.585    23007744.120    23007746.841
  -2301187.50349  -1755270.00345  24726727.048    24726728.142    24726731.802
  -8385632.38749  -6480047.42046  22845730.852    22845731.839    22845735.417
  -1817610.22049  -1387152.79744  24205502.938    24205504.838    24205505.975
 -23339797.33049 -18139334.68447  20246013.936    20246013.457    20246016.792
 -26309022.40249 -20449282.73148  20439334.841    20439335.433    20439337.298
  -3502299.23349  -2699342.53945  24408777.064    24408777.555    24408781.981
  -5722273.32649  -4429353.40545  24495856.135    24495856.382    24495860.719
 10  4 10  0 34  0.0000000  0  9G 2G29G12G 4G13G10G 5G30G15
 -24342811.54449 -18939199.61148  20156587.273    20156587.345    20156587.719
  -8904002.98449  -6911426.56346  22992317.067    22992317.100    22992319.568
  -2221349.62249  -1693058.74145  24741919.766    24741921.864    24741923.736
  -8307980.27149  -6419539.34146  22860507.576    22860507.650    22860512.248
  -1724362.16949  -1314492.02444  24223247.527    24223246.975    24223251.504
 -23307134.23949 -18113882.93847  20252229.546    20252229.084    20252232.369
 -26328523.91549 -20464478.71848  20435623.855    20435624.452    20435626.343
  -3438812.74949  -2649872.58945  24420857.966    24420859.970    24420861.943
  -5837151.76549  -4518869.02845  24473995.618    24473995.156    24474000.692
 10  4 10  0 34 30.0000000  0  9G 2G29G12G 4G13G10G 5G30G15
 -24339764.13249 -18936825.01748  20157167.175    20157167.144    20157167.650
  -8984724.31749  -6974326.29346  22976956.262    22976956.904    22976959.087
  -2141424.94948  -1630779.82545  24757129.116    24757129.346    24757132.057
  -8230149.55649  -6358892.08946  22875318.255    22875318.776    22875323.074
  -1630789.77549  -1241578.56644  24241053.838    24241055.546    24241057.710
 -23274104.52449 -18088145.51247  20258514.896    20258514.442    20258517.536
 -26347653.20049 -20479384.66148  20431983.716    20431984.282    20431986.199
  -3375016.36449  -2600161.20145  24432997.850    24432997.038    24433003.323
  -5951986.32349  -4608350.47445  24452143.371    24452144.033    24452146.296
 10  4 10  0 35  0.0000000  0 10G 2G29G12G 4G13G10G 5G30G 7G15
 -24336352.70149 -18934166.77048  20157816.375    20157816.284    20157816.903
  -9065096.66149  -7036954.07146  22961661.939    22961662.302    22961665.005
  -2061415.96649  -1568435.20645  24772354.249    24772352.597    24772359.354
  -8152139.53049  -6298105.11646  22890163.165    22890164.019    22890167.097
  -1536894.72249  -1168413.67744  24258921.511    24258921.678    24258926.004
 -23240708.90349 -18062122.96047  20264869.873    20264869.203    20264872.691
 -26366409.52749 -20493999.98448  20428414.510    20428415.013    20428417.037
  -3310911.61749  -2550209.46844  24445196.517    24445197.662    24445201.938
  -1784720.87849  -1352668.87644  25013909.157    25013908.212    25013914.644
  -6066773.57149  -4697795.07945  24430300.189    24430301.005    24430304.605
 10  4 10  0 35 30.0000000  0 10G 2G29G12G 4G13G10G 5G30G 7G15
 -24332575.90649 -18931223.82248  20158535.055    20158535.007    20158535.467
  -9145117.43049  -7099307.90346  22946434.485    22946434.644    22946437.526
  -1981324.84349  -1506026.62845  24787595.057    24787596.114    24787599.634
  -8073950.52249  -6237178.67846  22905042.073    22905042.719    22905046.303
  -1442680.37449  -1094999.96444  24276849.882    24276850.376    24276852.515
 -23206948.49249 -18035816.14947  20271294.263    20271293.545    20271297.142
 -26384793.70249 -20508325.31348  20424916.144    20424916.734    20424918.524
  -3246501.33448  -2500019.71344  24457453.572    24457455.036    24457457.684
  -1832992.82949  -1390283.36445  25004723.935    25004724.160    25004728.289
  -6181511.02849  -4787200.84445  24408466.347    24408466.370    24408470.582
 10  4 10  0 36  0.0000000  0 10G 2G29G12G 4G13G10G 5G30G 7G15
 -24328433.10349 -18927995.67348  20159323.392    20159323.341    20159323.930
  -9224783.56649  -7161385.40546  22931274.422    22931274.859    22931277.548
  -1901154.67549  -1443556.43145  24802851.051    24802851.473    24802854.536
  -7995582.64549  -6176112.86146  22919955.063    22919955.175    22919959.055
  -1348148.88649  -1021339.13744  24294838.616    24294839.932    24294841.781
 -23172824.66449 -18009226.16547  20277787.802    20277786.960    20277790.626
 -26402806.03849 -20522360.89648  20421488.492    20421489.027    20421490.849
  -3181788.66649  -2449594.27844  24469768.183    24469769.551    24469771.907
  -1880909.96949  -1427621.37045  24995605.242    24995604.623    24995609.197
  -6296195.42949  -4876565.28545  24386642.449    24386641.779    24386646.988
 10  4 10  0 36 30.0000000  0 10G 2G29G12G 4G13G10G 5G30G 7G15
 -24323923.58449 -18924481.77648  20160181.544    20160181.497    20160182.136
  -9304092.99149  -7223184.94646  22916182.245    22916182.947    22916185.064
  -1820908.37649  -1381026.90245  24818121.342    24818121.012    24818125.504
  -7917036.65649  -6114908.26246  22934901.891    22934903.097    22934906.018
  -1253303.16349   -947433.45244  24312887.141    24312888.278    24312890.788
 -23138339.55149 -17982354.66247  20284350.100    20284349.567    20284352.891
 -26420447.16249 -20536107.22548  20418131.482    20418131.831    20418133.923
  -3116776.75749  -2398935.68445  24482139.568    24482142.016    24482144.701
  -1928470.03449  -1464681.13845  24986554.705    24986555.238    24986558.799
  -6410824.85549  -4965886.83245  24364829.003    24364829.480    24364833.495
 10  4 10  0 37  0.0000000  0 10G 2G29G12G 4G13G10G 5G30G 7G15
 -24319043.65749 -18920679.24948  20161110.192    20161109.924    20161110.539
  -9383040.96349  -7284702.84546  22901159.043    22901159.507    22901162.604
  -1740586.87149  -1318438.77845  24833406.047    24833406.261    24833411.033
  -7838310.43049  -6053563.21246  22949883.010    22949883.876    22949887.554
  -1158143.53949   -873283.18144  24330995.532    24330995.532    24331001.209
 -23103492.53149 -17955201.14547  20290981.274    20290980.676    20290984.042
 -26437715.53449 -20549563.10448  20414845.386    20414845.986    20414848.050
  -3051466.19749  -2348044.35344  24494567.872    24494567.454    24494571.372
  -1975668.25949  -1501458.92345  24977573.199    24977574.235    24977577.416
  -6525394.46549  -5055161.77545  24343027.034    24343026.653    24343031.663
 10  4 10  0 37 30.0000000  0 10G 2G29G12G 4G13G10G 5G30G 7G15
 -24313796.63449 -18916590.67748  20162108.640    20162108.473    20162109.300
  -9461628.52349  -7345939.89646  22886204.366    22886204.211    22886207.476
  -1660197.01149  -1255797.41545  24848703.726    24848704.250    24848707.663
  -7759408.42049  -5992081.19046  22964897.705    22964898.831    22964902.887
  -1062677.15949   -798893.87344  24349162.601    24349164.064    24349165.307
 -23068288.93649 -17927769.78947  20297680.325    20297679.629    20297683.012
 -26454615.43649 -20562731.86848  20411629.475    20411629.993    20411632.026
  -2985863.97649  -2296925.83844  24507051.386    24507054.709    24507055.767
  -2022505.96549  -1537955.85045  24968660.223    24968660.146    24968666.247
  -6639905.57649  -5144391.16645  24321236.176    24321236.388    24321240.853
 10  4 10  0 38  0.0000000  0 10G 2G29G12G 4G13G10G 5G30G 7G15
 -24308181.48449 -18912215.24848  20163177.189    20163177.143    20163177.704
  -9539852.98849  -7406894.01646  22871318.681    22871318.915    22871321.613
  -1579741.53049  -1193104.91145  24864013.935    24864014.831    24864018.607
  -7680330.89149  -5930462.40246  22979945.653    22979945.865    22979950.050
   -966906.56749   -724267.51744  24367387.067    24367386.919    24367391.165
 -23032730.12249 -17900061.62747  20304446.933    20304446.484    20304449.686
 -26471147.25549 -20575613.81048  20408483.552    20408484.180    20408486.209
  -2919972.63949  -2245581.98644  24519590.099    24519590.531    24519595.754
  -2068980.63049  -1574169.86345  24959816.404    24959815.999    24959820.143
  -6754355.17649  -5233572.62545  24299457.096    24299457.965    24299461.552
 10  4 10  0 38 30.0000000  0 10G 2G29G12G 4G13G10G 5G30G 7G15
 -24302196.97549 -18907552.00848  20164316.033    20164316.144    20164316.780
  -9617711.78649  -7467563.20146  22856502.658    22856503.052    22856505.547
  -1499222.98049  -1130363.24445  24879336.142    24879336.324    24879341.329
  -7601077.71649  -5868706.74446  22995027.061    22995027.314    22995031.859
   -870834.42449   -649406.19344  24385669.216    24385670.632    24385671.252
 -22996817.48049 -17872077.76447  20311280.840    20311280.223    20311283.747
 -26487311.20449 -20588209.10148  20405407.654    20405408.040    20405410.168
  -2853795.14249  -2194015.14745  24532183.362    24532183.013    24532190.339
  -2115089.54849  -1610098.85845  24951042.307    24951042.093    24951046.149
  -6868740.75649  -5322704.20845  24277690.129    24277690.904    24277694.335
 10  4 10  0 39  0.0000000  0 10G 2G29G12G 4G13G10G 5G30G 7G15
 -24295841.43949 -18902599.65148  20165525.470    20165525.327    20165526.063
  -9695201.81449  -7527945.03846  22841756.851    22841757.191    22841759.651
  -1418643.97449  -1067574.49345  24894669.819    24894669.929    24894673.985
  -7521648.88849  -5806814.21046  23010141.914    23010142.760    23010146.534
   -774462.77149   -574311.47744  24404007.889    24404007.587    24404011.202
 -22960552.05349 -17843818.99847  20318181.944    20318181.476    20318184.785
 -26503107.28049 -20600517.73748  20402401.774    20402402.471    20402404.347
  -2787334.00449  -2142227.30544  24544830.537    24544829.998    24544834.006
  -2160828.67048  -1645739.70945  24942338.363    24942339.268    24942342.760
  -6983058.87449  -5411783.21045  24255935.953    24255936.045    24255940.303
 10  4 10  0 39 30.0000000  0 10G 2G29G12G 4G13G10G 5G30G 7G15
 -24289114.64749 -18897358.00948  20166805.532    20166805.621    20166806.024
  -9772320.75649  -7588037.71146  22827081.570    22827082.200    22827084.755
  -1338007.61049  -1004741.01745  24910014.607    24910015.615    24910018.721
  -7442045.27349  -5744785.48546  23025290.100    23025290.913    23025295.090
   -677794.87349   -498985.91544  24422403.152    24422405.640    24422406.694
 -22923935.90749 -17815286.95147  20325149.764    20325149.192    20325152.695
 -26518536.42949 -20612540.45548  20399465.716    20399466.303    20399468.371
  -2720592.52249  -2090221.00745  24557530.948    24557533.164    24557538.200
  -2206197.07949  -1681091.70445  24933704.932    24933704.316    24933710.225
  -7097307.27249  -5500807.87645  24234195.233    24234196.145    24234199.496
 10  4 10  0 40  0.0000000  0 10G 2G29G12G 4G13G10G 5G30G 7G15
 -24282015.38749 -18891826.13148  20168156.485    20168156.486    20168156.987
  -9849066.08149  -7647839.25746  22812477.432    22812477.690    22812480.561
  -1257316.93149   -941865.22245  24925369.511    24925369.636    24925374.150
  -7362266.76849  -5682620.47246  23040471.529    23040472.583    23040475.641
   -580833.25049   -423431.50044  24440854.436    24440853.429    24440856.624
 -22886970.21849 -17786482.52847  20332184.126    20332183.612    20332186.900
 -26533599.31849 -20624277.77548  20396599.344    20396599.778    20396601.904
  -2653573.88049  -2037998.69644  24570284.352    24570282.437    24570287.802
  -2251191.52949  -1716152.28745  24925142.506    24925141.224    24925148.321
  -7211483.29549  -5589776.14745  24212468.253    24212468.477    24212473.021
 10  4 10  0 40 30.0000000  0 10G 2G29G12G 4G13G10G 5G30G 7G15
 -24274540.46149 -18886001.52448  20169578.929    20169578.731    20169579.449
  -9925432.80149  -7707345.79346  22797945.272    22797945.521    22797948.466
  -1176572.05349   -878947.17245  24940734.831    24940735.918    24940739.802
  -7282311.64649  -5620317.84246  23055686.506    23055686.660    23055690.755
   -483578.27449   -347648.47644  24459361.437    24459361.866    24459365.691
 -22849654.03349 -17757404.99047  20339285.147    20339284.376    20339288.097
 -26548293.52949 -20635727.81348  20393803.132    20393803.494    20393805.664
  -2586278.48749  -1985560.81144  24583090.200    24583092.929    24583095.758
  -2295807.33049  -1750917.84845  24916652.633    24916653.410    24916656.067
  -7325582.01249  -5678684.18645  24190755.951    24190756.068    24190760.801
 10  4 10  0 41  0.0000000  0 10G 2G29G12G 4G13G10G 5G30G 7G15
 -24266689.87149 -18879884.19548  20171072.843    20171072.777    20171073.476
 -10001419.26149  -7766556.01846  22783485.558    22783486.021    22783488.840
  -1095776.85349   -815989.89245  24956109.846    24956111.523    24956113.554
  -7202180.88849  -5557878.36046  23070934.978    23070935.394    23070939.515
   -386033.62249   -271639.70944  24477923.771    24477923.486    24477928.457
 -22811989.67749 -17728056.15747  20346452.380    20346451.725    20346455.565
 -26562621.05549 -20646892.12148  20391076.741    20391077.361    20391079.145
  -2518710.02949  -1932910.15544  24595948.033    24595949.439    24595952.794
  -2340042.94148  -1785387.13844  24908234.852    24908233.319    24908240.732
  -7439601.71049  -5767530.66745  24169058.646    24169059.308    24169063.032
 10  4 10  0 41 30.0000000  0 10G 2G29G12G 4G13G10G 5G30G 7G15
 -24258465.75149 -18873475.81148  20172637.840    20172637.813    20172638.385
 -10077026.07449  -7825470.40946  22769098.090    22769098.651    22769100.846
  -1014937.43849   -752998.22045  24971493.115    24971493.635    24971496.619
  -7121878.27949  -5495304.95846  23086216.195    23086216.865    23086221.021
   -288205.41549   -195410.01444  24496540.003    24496540.058    24496547.573
 -22773982.43649 -17698440.14247  20353684.946    20353684.397    20353687.864
 -26576585.41449 -20657773.44648  20388419.425    20388419.761    20388421.819
  -2450874.77349  -1880051.51344  24608857.031    24608857.512    24608863.521
  -2383898.95449  -1819560.61644  24899888.956    24899887.367    24899892.960
  -7553542.97949  -5856316.03145  24147376.283    24147376.159    24147381.110
 10  4 10  0 42  0.0000000  0 10G 2G29G12G 4G13G10G 5G30G 7G15
 -24249863.94549 -18866773.12248  20174274.714    20174274.590    20174275.182
 -10152247.34849  -7884084.38146  22754783.981    22754784.580    22754786.628
   -934053.36749   -689971.72845  24986884.954    24986885.669    24986889.216
  -7041400.80149  -5432595.30346  23101530.587    23101530.533    23101535.035
   -190093.15449   -118958.99444  24515210.021    24515210.923    24515213.418
 -22735630.27949 -17668555.36147  20360983.121    20360982.485    20360986.155
 -26590183.94549 -20668369.70948  20385831.717    20385832.162    20385834.207
  -2382772.45349  -1826984.81544  24621816.197    24621817.181    24621818.368
  -2427369.68949  -1853433.90545  24891616.899    24891619.271    24891622.471
  -7667399.70849  -5945035.53045  24125709.950    24125709.709    24125714.188
 10  4 10  0 42 30.0000000  0 10G 2G29G12G 4G13G10G 5G30G 7G15
 -24240889.52149 -18859780.07848  20175982.496    20175982.478    20175982.933
 -10227086.46649  -7942400.56146  22740542.622    22740543.269    22740545.632
   -853133.88349   -626917.62845  25002283.444    25002283.190    25002288.036
  -6960754.51049  -5369754.11046  23116877.097    23116876.789    23116881.278
    -91705.28649    -42293.19944  24533932.657    24533935.810    24533937.991
 -22696940.71649 -17638407.66547  20368345.491    20368344.998    20368348.409
 -26603422.92949 -20678685.80048  20383312.387    20383312.886    20383314.830
  -2314411.90049  -1773716.89944  24634824.799    24634823.946    24634829.929
  -2470458.19849  -1887009.34645  24883417.247    24883417.249    24883421.415
  -7781174.86549  -6033691.43545  24104059.134    24104059.807    24104064.033
 10  4 10  0 43  0.0000000  0 10G 2G29G12G 4G13G10G 5G30G 7G15
 -24231537.80849 -18852493.04348  20177762.090    20177761.926    20177762.593
 -10301537.11849  -8000414.05046  22726375.120    22726375.348    22726377.968
   -772177.44748   -563834.74645  25017688.927    25017690.363    25017693.741
  -6879936.34749  -5306778.98146  23132256.356    23132255.992    23132261.439
      6959.12249     34588.11744  24552708.079    24552711.122    24552711.549
 -22657911.31949 -17607995.16447  20375772.609    20375772.266    20375775.528
 -26616299.34349 -20688719.37548  20380862.074    20380862.532    20380864.519
  -2245792.49349  -1720247.29144  24647882.896    24647884.015    24647885.866
  -2513158.63549  -1920282.40745  24875291.655    24875291.584    24875296.549
  -7894862.34549  -6122279.05445  24082425.220    24082425.674    24082430.171
 10  4 10  0 43 30.0000000  0 10G 2G29G12G 4G13G10G 5G30G 7G15
 -24221808.69049 -18844911.92748  20179613.495    20179613.474    20179614.003
 -10375597.82949  -8058123.68546  22712281.834    22712282.374    22712284.822
   -691188.00149   -500726.14145  25033100.740    25033101.554    25033105.063
  -6798947.35549  -5243670.74746  23147668.035    23147667.483    23147672.346
    105896.28749    111681.91544  24571535.311    24571536.859    24571538.663
 -22618544.86349 -17577320.01747  20383263.839    20383263.390    20383266.518
 -26628814.61549 -20698471.53748  20378480.494    20378480.831    20378483.072
  -2176918.20949  -1666579.09945  24660989.139    24660989.652    24660994.497
  -2555469.44248  -1953251.83245  24867240.186    24867240.598    24867244.991
  -8008460.49949  -6210797.03845  24060808.326    24060809.198    24060812.730
 10  4 10  0 44  0.0000000  0 10G 2G29G12G 4G13G10G 5G30G 7G15
 -24211700.71949 -18837035.60248  20181537.002    20181536.823    20181537.560
 -10449265.30149  -8115526.90246  22698263.320    22698263.569    22698266.150
   -610167.67449   -437593.48345  25048518.460    25048519.791    25048522.935
  -6717787.37049  -5180429.26046  23163112.325    23163111.861    23163117.260
    205104.18849    188986.72844  24590413.870    24590415.180    24590420.250
 -22578842.23149 -17546382.91547  20390819.038    20390818.430    20390821.851
 -26640968.62649 -20707942.19748  20376167.694    20376168.112    20376170.235
  -2107791.30249  -1612713.99545  24674143.660    24674143.346    24674148.047
  -2597387.45549  -1985915.18845  24859263.373    24859263.660    24859268.837
  -8121965.77049  -6299242.64745  24039208.917    24039209.302    24039213.220
 10  4 10  0 44 30.0000000  0 10G 2G29G12G 4G13G10G 5G30G 7G15
 -24201213.23049 -18828863.55148  20183532.674    20183532.811    20183533.176
 -10522537.07949  -8172621.78746  22684320.159    22684320.402    22684323.133
   -529119.48249   -374439.10745  25063941.433    25063942.853    25063946.689
  -6636456.87649  -5117054.91045  23178588.996    23178589.097    23178593.488
    304579.96149    266500.25344  24609343.542    24609344.136    24609348.181
 -22538805.14549 -17515185.20747  20398437.852    20398437.296    20398440.951
 -26652761.99349 -20717131.83948  20373923.503    20373924.046    20373925.863
  -2038414.83048  -1558654.40245  24687345.694    24687345.157    24687350.648
  -2638910.55849  -2018270.83445  24851361.850    24851362.390    24851366.024
  -8235375.84749  -6387614.06445  24017627.691    24017627.572    24017631.493
 10  4 10  0 45  0.0000000  0 10G 2G29G12G 4G13G10G 5G30G 7G15
 -24190344.55649 -18820394.47748  20185600.935    20185600.779    20185601.627
 -10595410.36249  -8229406.15446  22670452.777    22670453.142    22670455.359
   -448045.50249   -311264.64045  25079369.394    25079370.053    25079374.257
  -6554955.34049  -5053547.29345  23194098.211    23194099.039    23194102.487
    404321.56049    344220.90444  24628323.747    24628320.968    24628328.480
 -22498434.40349 -17483727.50547  20406120.176    20406119.627    20406123.038
 -26664194.73649 -20726040.47748  20371747.902    20371748.452    20371750.466
  -1968791.16548  -1504402.26944  24700594.616    24700592.895    24700597.570
  -2680035.62049  -2050316.32845  24843536.222    24843537.177    24843539.500
  -8348687.33749  -6475908.67545  23996065.293    23996066.079    23996069.825
 10  4 10  0 45 30.0000000  0 10G 2G29G12G 4G13G10G 5G30G 7G15
 -24179095.79849 -18811629.23148  20187741.530    20187741.627    20187742.169
 -10667884.25949  -8285879.31746  22656661.481    22656661.819    22656663.940
   -366950.82549   -248074.04245  25094801.100    25094802.140    25094805.748
  -6473285.21049  -4989908.29245  23209639.639    23209639.531    23209644.494
    504324.36349    422145.12444  24647353.724    24647353.712    24647359.199
 -22457732.96849 -17452012.11847  20413865.412    20413864.795    20413868.344
 -26675269.27249 -20734669.99148  20369640.490    20369641.001    20369642.944
  -1898925.11349  -1449961.26444  24713889.534    24713892.558    24713896.270
  -2720761.97249  -2082051.08545  24835786.195    24835787.842    24835793.745
  -8461899.49549  -6564125.86745  23974521.708    23974522.543    23974525.844
 10  4 10  0 46  0.0000000  0 10G 2G29G12G 4G13G10G 5G30G 7G15
 -24167464.34849 -18802565.78748  20189954.929    20189954.845    20189955.592
 -10739954.52549  -8342037.96446  22642946.993    22642947.574    22642949.686
   -285836.59449   -184868.19145  25110236.602    25110236.685    25110242.298
  -6391445.21249  -4926136.93545  23225213.314    23225213.000    23225217.819
    604587.13248    500271.89344  24666433.094    24666432.534    24666434.504
 -22416701.10549 -17420039.25747  20421673.501    20421673.040    20421676.586
 -26685984.68849 -20743019.67548  20367601.394    20367602.023    20367603.886
  -1828818.16049  -1395332.57244  24727230.436    24727231.704    24727235.118
  -2761085.71649  -2113472.16545  24828113.004    24828114.294    24828116.120
  -8575007.91649  -6652262.23745  23952997.927    23952997.865    23953000.916
 10  4 10  0 46 30.0000000  0 10G 2G29G12G 4G13G10G 5G30G 7G15
 -24155451.59349 -18793205.21648  20192240.872    20192240.853    20192241.580
 -10811621.01049  -8397881.97246  22629309.325    22629309.895    22629312.682
   -204707.37649   -121650.66145  25125674.867    25125676.176    25125680.377
  -6309438.07249  -4862235.33345  23240818.821    23240819.535    23240823.678
    705104.87149    578597.34744  24685561.247    24685559.833    24685564.714
 -22375342.42749 -17387811.74147  20429543.809    20429543.192    20429546.704
 -26696343.62049 -20751091.56948  20365630.166    20365630.557    20365632.855
  -1758475.71349  -1340520.28045  24740616.368    24740616.418    24740621.115
  -2801006.69649  -2144579.41345  24820516.132    24820516.894    24820520.632
  -8688012.16749  -6740317.41945  23931493.940    23931494.141    23931498.155
 10  4 10  0 47  0.0000000  0 10G 2G29G12G 4G13G10G 5G30G 7G15
 -24143054.63149 -18783545.25748  20194599.964    20194599.859    20194600.719
 -10882879.01149  -8453407.68746  22615749.345    22615749.263    22615752.719
   -123564.32249    -58422.37445  25141116.132    25141117.077    25141120.825
  -6227261.76149  -4798201.90745  23256456.564    23256457.759    23256461.537
    805877.12049    657121.11344  24704737.481    24704739.505    24704743.511
 -22333656.46549 -17355329.18847  20437476.404    20437475.640    20437479.309
 -26706344.70949 -20758884.62348  20363727.029    20363727.565    20363729.675
  -1687898.20849  -1285524.86045  24754046.894    24754048.379    24754053.110
  -2840520.35349  -2175369.21745  24812996.775    24812997.409    24813001.793
  -8800907.59849  -6828287.81945  23910010.605    23910010.054    23910014.645
 10  4 10  0 47 30.0000000  0 10G 2G29G12G 4G13G10G 5G30G 7G15
 -24130273.68049 -18773586.08948  20197032.096    20197031.896    20197032.757
 -10953727.25649  -8508614.10346  22602267.423    22602268.165    22602270.145
    -42410.94349      4813.95245  25156559.152    25156559.656    25156563.732
  -6144917.89749  -4734037.91845  23272126.084    23272125.783    23272129.985
    906899.94649    735840.13744  24723961.544    24723962.707    24723965.787
 -22291646.15149 -17322593.89447  20445470.702    20445470.116    20445473.474
 -26715989.61349 -20766400.13548  20361891.679    20361892.145    20361894.303
  -1617089.91549  -1230349.59945  24767521.399    24767520.123    24767524.447
  -2879625.42149  -2205840.64745  24805555.298    24805552.933    24805560.583
  -8913692.50649  -6916172.10645  23888548.318    23888548.842    23888552.838
 10  4 10  0 48  0.0000000  0 10G 2G29G12G 4G13G10G 5G30G 7G15
 -24117108.29049 -18763327.36048  20199537.368    20199537.501    20199538.057
 -11024163.64249  -8563499.59146  22588863.877    22588864.175    22588866.767
     38749.20949     68055.59545  25172003.516    25172003.794    25172008.665
  -6062407.48749  -4669744.15345  23287827.248    23287827.802    23287832.188
   1008169.88449    814751.71344  24743232.373    24743231.717    24743235.536
 -22249313.26049 -17289607.24647  20453526.400    20453525.869    20453529.279
 -26725279.58349 -20773639.07748  20360123.853    20360124.299    20360126.438
  -1546054.60249  -1174997.47844  24781038.902    24781041.782    24781043.199
  -2918320.37249  -2235992.53845  24798191.832    24798194.167    24798198.481
  -9026364.91049  -7003968.71945  23867107.414    23867108.495    23867110.532
 10  4 10  0 48 30.0000000  0 10G 2G29G12G 4G13G10G 5G30G 7G15
 -24103556.48049 -18752767.52348  20202116.224    20202116.226    20202116.861
 -11094184.67449  -8618061.42546  22575539.227    22575539.090    22575541.849
    119914.70549    131301.39145  25187448.776    25187449.402    25187454.936
  -5979729.61649  -4605319.89945  23303560.455    23303561.150    23303565.384
   1109685.45648    893854.71944  24762549.935    24762546.866    24762555.947
 -22206658.26349 -17256369.60547  20461643.387    20461642.929    20461646.446
 -26734213.80549 -20780600.81248  20358423.697    20358424.236    20358426.498
  -1474794.18849  -1119469.94444  24794599.305    24794600.555    24794601.213
  -2956601.68249  -2265822.10745  24790907.207    24790907.292    24790911.807
  -9138920.81849  -7091674.54945  23845688.706    23845688.773    23845692.884
 10  4 10  0 49  0.0000000  0 10G 2G29G12G 4G13G10G 5G30G 7G15
 -24089618.82349 -18741907.02148  20204768.451    20204768.580    20204769.177
 -11163788.86249  -8672298.45846  22562293.950    22562294.588    22562296.974
    201081.27049    194548.00145  25202894.331    25202894.469    25202898.465
  -5896885.88349  -4540766.41645  23319325.120    23319325.797    23319329.987
   1211442.88549    973146.17644  24781913.987    24781915.347    24781916.765
 -22163683.71749 -17222882.96147  20469821.154    20469820.548    20469823.909
 -26742794.25449 -20787286.88048  20356790.922    20356791.357    20356793.452
  -1403312.97249  -1063770.30844  24808201.877    24808201.060    24808203.200
  -2994468.27749  -2295328.51544  24783701.313    24783701.031    24783705.437
  -9251358.67849  -7179288.40645  23824292.444    23824293.035    23824296.412
 10  4 10  0 49 30.0000000  0 10G 2G29G12G 4G13G10G 5G30G 7G15
 -24075294.26649 -18730745.04448  20207494.335    20207494.413    20207494.992
 -11232973.86349  -8726208.83346  22549128.481    22549128.933    22549131.136
    282246.37449    257793.48445  25218339.487    25218339.987    25218343.256
  -5813876.40549  -4476083.76245  23335121.318    23335122.761    23335125.973
   1313439.60049   1052624.05844  24801323.296    24801324.720    24801327.835
 -22120390.98249 -17189148.38547  20478059.480    20478059.115    20478062.424
 -26751021.23849 -20793697.52548  20355225.363    20355225.840    20355227.896
  -1331613.51549  -1007900.63144  24821845.777    24821847.163    24821848.331
  -3031917.30849  -2324509.55545  24776574.891    24776575.084    24776581.755
  -9363675.81949  -7266808.20645  23802918.961    23802919.841    23802922.925
 10  4 10  0 50  0.0000000  0 10G 2G29G12G 4G13G10G 5G30G 7G15
 -24060585.20949 -18719283.45848  20210293.394    20210293.515    20210294.154
 -11301740.64249  -8779793.32946  22536042.609    22536043.112    22536045.540
    363404.43649    321033.48545  25233783.450    25233784.574    25233789.255
  -5730704.99449  -4411274.93945  23350948.369    23350949.074    23350952.961
   1415669.43348   1132283.66344  24820776.796    24820776.694    24820780.852
 -22076784.76149 -17155169.53447  20486357.499    20486356.980    20486360.209
 -26758898.44649 -20799835.61748  20353726.371    20353726.848    20353729.078
  -1259702.15949   -951865.84144  24835530.173    24835529.721    24835536.803
  -3068950.10249  -2353366.24745  24769527.645    24769527.503    24769534.459
  -9475872.66149  -7354234.26245  23781568.543    23781569.042    23781571.973
 10  4 10  0 50 30.0000000  0 10G 2G29G12G 4G13G10G 5G30G 7G15
 -24045488.92149 -18707520.13048  20213166.139    20213166.066    20213166.745
 -11370084.46849  -8833048.25546  22523037.225    22523037.755    22523039.856
    444554.04449    384266.90445  25249225.897    25249226.944    25249230.945
  -5647370.02649  -4346338.67545  23366806.463    23366807.526    23366811.794
   1518131.99648   1212124.58344  24840274.578    24840277.953    24840278.233
 -22032865.03449 -17120946.38947  20494715.156    20494714.654    20494718.220
 -26766424.99249 -20805700.46648  20352294.116    20352294.560    20352296.921
  -1187580.14049   -895666.95944  24849254.559    24849255.089    24849258.849
  -3105562.27749  -2381895.19245  24762560.574    24762561.975    24762567.102
  -9587944.67849  -7441563.03145  23760241.771    23760242.197    23760245.243
 10  4 10  0 51  0.0000000  0 10G 2G29G12G 4G13G10G 5G30G 7G15
 -24030001.23649 -18695451.82948  20216113.347    20216113.446    20216114.081
 -11437999.71449  -8885969.22046  22510113.377    22510114.122    22510116.328
    525695.97749    447494.33745  25264666.643    25264666.555    25264671.711
  -5563868.66749  -4281272.73945  23382696.314    23382697.485    23382701.355
   1620827.52648   1292147.02544  24859817.132    24859816.357    24859821.845
 -21988629.67649 -17086477.29647  20503132.888    20503132.377    20503136.018
 -26773598.02249 -20811289.84948  20350929.149    20350929.784    20350931.871
  -1115246.85448   -839303.39344  24863019.200    24863019.070    24863024.164
  -3141748.59649  -2410092.27745  24755674.843    24755675.113    24755678.945
  -9699885.86249  -7528789.87345  23738939.855    23738940.503    23738943.512
 10  4 10  0 51 30.0000000  0 10G 2G29G12G 4G13G10G 5G30G 7G15
 -24014123.47749 -18683079.56948  20219134.853    20219134.814    20219135.480
 -11505486.01149  -8938555.93446  22497271.264    22497271.883    22497273.789
    606825.38449    510712.00745  25280104.940    25280106.616    25280108.802
  -5480203.30649  -4216079.01845  23398617.388    23398618.114    23398622.549
   1723751.17349   1372347.22844  24879402.763    24879404.497    24879407.014
 -21944082.45349 -17051765.19447  20511610.032    20511609.668    20511613.013
 -26780420.32349 -20816605.92948  20349630.893    20349631.443    20349633.658
  -1042707.73549   -782779.50344  24876822.912    24876822.714    24876826.556
  -3177508.88649  -2437957.40045  24748869.867    24748868.745    24748873.976
  -9811695.80449  -7615914.44145  23717663.214    23717663.933    23717666.491
 10  4 10  0 52  0.0000000  0 10G 2G29G12G 4G13G10G 5G30G 7G15
 -23997854.98449 -18670402.83048  20222230.690    20222230.591    20222231.317
 -11572541.14849  -8990806.68146  22484511.154    22484511.307    22484514.013
    687939.48149    573917.75745  25295540.597    25295540.772    25295545.788
  -5396374.46549  -4150757.90945  23414569.406    23414569.561    23414574.712
   1826900.14549   1452723.00344  24899031.674    24899032.059    24899036.230
 -21899224.74949 -17016811.15347  20520146.176    20520145.719    20520149.290
 -26786892.39549 -20821649.11048  20348399.330    20348399.926    20348402.107
   -969965.84249   -726097.55844  24890665.209    24890668.329    24890670.185
  -3212840.83049  -2465488.78345  24742146.499    24742147.008    24742149.852
  -9923371.51849  -7702934.40945  23696412.026    23696412.365    23696415.429
 10  4 10  0 52 30.0000000  0 10G 2G29G12G 4G13G10G 5G30G 7G15
 -23981195.06449 -18657421.09248  20225400.974    20225400.896    20225401.648
 -11639162.60349  -9042719.49846  22471833.548    22471833.923    22471836.152
    769035.42249    637109.31445  25310972.822    25310974.207    25310977.235
  -5312382.87149  -4085309.97745  23430552.590    23430553.176    23430557.174
   1930271.60648   1533272.17144  24918702.960    24918704.860    24918709.626
 -21854058.93549 -16981617.02947  20528740.977    20528740.589    20528743.845
 -26793015.41949 -20826420.30548  20347234.161    20347234.782    20347236.822
   -897024.39148   -669260.10144  24904545.629    24904544.553    24904550.823
  -3247742.41149  -2492684.77345  24735504.713    24735504.537    24735509.179
 -10034910.63949  -7789847.93645  23675186.797    23675186.489    23675190.294
 10  4 10  0 53  0.0000000  0 10G 2G29G12G 4G13G10G 5G30G 7G15
 -23964143.69349 -18644134.31948  20228645.749    20228645.700    20228646.459
 -11705349.03749  -9094293.33446  22459238.693    22459238.862    22459241.004
    850109.52849    700283.87345  25326400.720    25326400.298    25326405.038
  -5228229.51049  -4019735.98845  23446566.593    23446568.358    23446571.582
   2033862.38349   1613992.23244  24938415.738    24938417.083    24938418.599
 -21808586.58249 -16946184.04047  20537394.119    20537393.618    20537396.994
 -26798790.37549 -20830920.27048  20346135.234    20346135.803    20346138.072
   -823886.76348   -612269.80044  24918463.023    24918462.657    24918469.206
  -3282211.83449  -2519544.05045  24728945.472    24728945.347    24728950.439
 -10146311.30749  -7876653.58445  23653987.974    23653989.184    23653991.552
 10  4 10  0 53 30.0000000  0 10G 2G29G12G 4G13G10G 5G30G 7G15
 -23946699.66349 -18630541.58548  20231965.282    20231965.242    20231965.851
 -11771097.25049  -9145525.70946  22446727.177    22446727.444    22446730.366
    931159.60949    763439.74645  25341823.937    25341824.380    25341827.297
  -5143914.18649  -3954035.80645  23462611.305    23462612.202    23462616.561
   2137670.10949   1694881.36044  24958169.832    24958169.899    24958173.084
 -21762808.54449 -16910512.86147  20546105.361    20546104.778    20546108.352
 -26804217.52149 -20835149.22748  20345102.514    20345103.048    20345105.192
   -750555.76549   -555128.79244  24932417.603    24932419.075    24932419.939
  -3316247.11749  -2546065.04245  24722468.926    24722469.560    24722472.662
 -10257570.39149  -7963348.91345  23632816.237    23632816.941    23632819.788
 10  4 10  0 54  0.0000000  0  9G 2G29G 4G13G10G 5G30G 7G15
 -23928863.40249 -18616643.21348  20235359.425    20235359.342    20235360.130
 -11836406.28949  -9196415.86346  22434299.251    22434299.578    22434301.701
  -5059438.81749  -3888210.89845  23478686.508    23478687.283    23478691.711
   2241690.69548   1775936.33644  24977964.148    24977964.565    24977966.421
 -21716728.18149 -16874606.09747  20554874.191    20554873.827    20554877.268
 -26809299.04149 -20839108.85648  20344135.548    20344136.128    20344138.247
   -677035.69048   -497840.46744  24946408.072    24946407.272    24946413.946
  -3349847.27449  -2572246.94245  24716074.989    24716074.058    24716079.807
 -10368686.49149  -8049932.81545  23611671.588    23611671.920    23611674.462
 10  4 10  0 54 30.0000000  0  9G 2G29G 4G13G10G 5G30G 7G15
 -23910632.75949 -18602437.53148  20238828.595    20238828.511    20238829.319
 -11901272.66449  -9246961.08846  22421955.627    22421955.713    22421957.617
  -4974802.28049  -3822260.41145  23494792.364    23494792.973    23494797.772
   2345922.85049   1857156.17644  24997798.835    24997796.945    24997804.072
 -21670345.45649 -16838463.72947  20563700.523    20563699.807    20563703.698
 -26814034.06949 -20842798.49248  20343234.528    20343235.161    20343237.182
   -603328.14249   -440406.03644  24960434.252    24960433.841    24960439.252
  -3383008.47449  -2598086.78645  24709764.424    24709764.446    24709767.948
 -10479655.32649  -8136401.98145  23590554.922    23590555.168    23590558.154
 10  4 10  0 55  0.0000000  0  9G 2G29G 4G13G10G 5G30G 7G15
 -23892008.82849 -18587925.39648  20242372.604    20242372.447    20242373.391
 -11965695.32049  -9297160.56246  22409696.397    22409696.720    22409698.994
  -4890006.71749  -3756186.01945  23510928.450    23510929.212    23510933.082
   2450362.19649   1938537.47444  25017672.848    25017673.455    25017679.918
 -21623663.37249 -16802088.09947  20572583.818    20572583.317    20572586.805
 -26818424.72249 -20846219.78848  20342399.048    20342399.580    20342401.667
   -529437.90349   -382829.27144  24974495.410    24974495.906    24974501.711
  -3415730.38449  -2623584.39545  24703537.664    24703536.797    24703541.140
 -10590476.20449  -8222755.85645  23569466.289    23569466.658    23569469.987
 10  4 10  0 55 30.0000000  0  8G 2G29G 4G10G 5G30G 7G15
 -23872989.09949 -18573104.85048  20245991.915    20245991.871    20245992.685
 -12029670.57449  -9347011.41146  22397522.257    22397522.028    22397524.853
  -4805050.92549  -3689986.76745  23527095.199    23527096.060    23527099.790
 -21576681.91249 -16765479.18647  20581524.152    20581523.638    20581527.211
 -26822470.49049 -20849372.34548  20341629.163    20341629.593    20341631.805
   -455366.54349   -325111.38044  24988590.673    24988591.188    24988597.493
  -3448009.37749  -2648736.82045  24697395.133    24697394.410    24697399.827
 -10701144.59149  -8308990.89845  23548406.549    23548406.897    23548410.245
 10  4 10  0 56  0.0000000  0  8G 2G29G 4G10G 5G30G 7G15
 -23853574.41049 -18557976.53848  20249686.425    20249686.394    20249687.288
 -12093197.50549  -9396512.91046  22385433.463    22385433.557    22385436.257
  -4719936.86749  -3623664.18245  23543292.031    23543291.988    23543296.664
 -21529403.87049 -16728639.16647  20590520.832    20590520.319    20590523.848
 -26826173.22449 -20852257.59248  20340924.499    20340925.021    20340927.248
   -381118.40949   -267255.71844  25002719.648    25002720.557    25002725.213
  -3479844.92149  -2673543.73145  24691337.198    24691338.002    24691343.733
 -10811659.44449  -8395106.31345  23527376.049    23527376.126    23527379.886
 10  4 10  0 56 30.0000000  0  8G 2G29G 4G10G 5G30G 7G15
 -23833763.69249 -18542539.64148  20253456.332    20253456.284    20253457.039
 -12156273.31749  -9445662.89246  22373430.531    22373430.976    22373433.354
  -4634664.59949  -3557218.33845  23559518.861    23559518.675    23559524.150
 -21481830.67349 -16691569.16047  20599573.708    20599573.182    20599576.719
 -26829533.06949 -20854875.66348  20340285.171    20340285.563    20340287.807
   -306695.94649   -209264.20944  25016881.715    25016882.033    25016887.049
  -3511234.46449  -2698003.12345  24685363.770    24685363.558    24685367.689
 -10922017.56149  -8481099.59345  23506375.306    23506375.065    23506379.517
 10  4 10  0 57  0.0000000  0  8G 2G29G 4G10G 5G30G 7G15
 -23813556.34649 -18526793.69048  20257301.675    20257301.422    20257302.479
 -12218895.88649  -9494459.69946  22361513.834    22361514.196    22361516.562
  -4549234.61249  -3490649.59045  23575775.670    23575775.640    23575780.538
 -21433963.83849 -16654270.34647  20608682.464    20608681.896    20608685.463
 -26832551.01249 -20857227.32048  20339710.868    20339711.431    20339713.654
   -232102.56648   -151139.55544  25031076.481    25031075.437    25031082.086
  -3542176.22649  -2722113.55445  24679475.422    24679475.784    24679480.562
 -11032216.54549  -8566968.89245  23485405.150    23485405.452    23485409.244
 10  4 10  0 57 30.0000000  0  8G 2G29G 4G10G 5G30G 7G15
 -23792952.19749 -18510738.53047  20261222.510    20261222.228    20261223.349
 -12281063.65449  -9542902.10546  22349683.648    22349684.116    22349686.711
  -4463648.03549  -3423958.82745  23592062.260    23592062.795    23592067.032
 -21385805.65749 -16616744.51147  20617846.674    20617846.252    20617849.671
 -26835228.53749 -20859313.71448  20339201.375    20339202.023    20339203.849
   -157341.95048    -92884.59844  25045302.876    25045302.268    25045307.648
  -3572668.87449  -2745874.02745  24673672.695    24673672.912    24673676.667
 -11142254.37049  -8652712.59245  23464465.638    23464465.878    23464470.017
 10  4 10  0 58  0.0000000  0  8G 2G29G 4G10G 5G30G 7G15
 -23771951.04549 -18494374.01147  20265218.905    20265218.731    20265219.694
 -12342774.45749  -9590988.44646  22337940.440    22337940.526    22337943.347
  -4377905.58749  -3357146.61445  23608378.475    23608379.059    23608383.619
 -21337358.15449 -16578993.22847  20627065.985    20627065.470    20627069.224
 -26837566.53149 -20861135.54048  20338756.505    20338756.982    20338759.182
    -82417.43048    -34501.88044  25059560.570    25059557.909    25059562.544
  -3602710.40949  -2769282.99445  24667956.009    24667956.529    24667960.993
 -11252128.37949  -8738328.66445  23443557.205    23443557.483    23443561.272
 10  4 10  0 58 30.0000000  0  8G 2G29G 4G10G 5G30G 7G15
 -23750551.93249 -18477699.39547  20269291.066    20269290.872    20269291.841
 -12404026.04749  -9638716.95647  22326284.745    22326284.985    22326287.604
  -4292007.72649  -3290213.29445  23624724.317    23624724.613    23624730.658
 -21288622.19049 -16541017.17047  20636340.119    20636339.579    20636343.137
 -26839565.44049 -20862693.14248  20338376.124    20338376.785    20338378.592
     -7331.86948     24006.28944  25073848.500    25073848.356    25073851.052
  -3632298.85749  -2792338.90545  24662325.772    24662325.677    24662330.555
 -11361836.23549  -8823815.26446  23422680.569    23422681.375    23422684.771
 10  4 10  0 59  0.0000000  0  8G 2G29G 4G10G 5G30G 7G15
 -23728753.45849 -18460713.59747  20273439.220    20273439.160    20273439.677
 -12464815.31449  -9686085.21347  22314716.960    22314717.223    22314719.803
  -4205954.16349  -3223158.64545  23641099.862    23641100.447    23641104.951
 -21239598.88249 -16502817.20847  20645668.963    20645668.521    20645671.649
 -26841225.44249 -20863986.65948  20338060.241    20338060.684    20338062.927
     67912.47748     82638.15244  25088167.072    25088168.632    25088171.730
  -3661431.53349  -2815039.68545  24656781.877    24656782.245    24656786.851
 -11471374.32149  -8909169.55846  23401836.136    23401836.626    23401839.924
 10  4 10  0 59 30.0000000  0  8G 2G29G 4G10G 5G30G 7G15
 -23706555.98849 -18443416.89147  20277663.257    20277663.206    20277664.028
 -12525140.86549  -9733092.13347  22303237.375    22303237.360    22303240.543
  -4119745.99449  -3155983.52845  23657504.779    23657504.940    23657510.712
 -21190290.40349 -16464395.03647  20655052.047    20655051.785    20655055.197
 -26842547.85349 -20865017.11948  20337808.588    20337809.068    20337811.241
    143311.55549    141390.69744  25102515.164    25102514.151    25102522.755
  -3690107.40049  -2837384.48245  24651324.950    24651325.692    24651329.352
 -11580740.52949  -8994389.95146  23381024.454    23381024.853    23381028.768
 10  4 10  1  0  0.0000000  0  8G 2G29G 4G10G 5G30G 7G15
 -23683959.17249 -18425809.00047  20281963.328    20281963.189    20281963.943
 -12585000.95549  -9779736.35947  22291846.316    22291846.776    22291849.262
  -4033384.02749  -3088688.57145  23673938.915    23673939.922    23673943.440
 -21140698.62049 -16425752.10247  20664489.062    20664488.292    20664491.885
 -26843533.83549 -20865785.42248  20337620.943    20337621.488    20337623.544
    218862.25449    200261.29744  25116892.103    25116891.958    25116898.480
  -3718324.64749  -2859371.90545  24645955.369    24645955.450    24645960.097
 -11689932.53749  -9079474.58246  23360245.952    23360246.148    23360249.778
 10  4 10  1  0 30.0000000  0  8G 2G29G 4G10G 5G30G 7G15
 -23660961.06049 -18407888.41947  20286339.688    20286339.589    20286340.358
 -12644391.98749  -9826015.08947  22280544.611    22280544.810    22280547.478
  -3946867.76349  -3021273.38845  23690402.481    23690402.576    23690406.686
 -21090823.62549 -16386888.48747  20673979.944    20673979.272    20673982.857
 -26844182.98549 -20866291.26648  20337497.443    20337498.213    20337499.981
    294562.74248    259248.75044  25131297.469    25131296.475    25131305.246
  -3746080.32449  -2880999.68945  24640673.709    24640674.426    24640678.976
 -11798947.09649  -9164420.93946  23339501.137    23339501.739    23339504.742
 10  4 10  1  1  0.0000000  0  8G 2G29G 4G10G 5G30G 7G15
 -23637562.87549 -18389656.08247  20290792.222    20290792.137    20290792.877
 -12703313.97649  -9871928.33147  22269332.096    22269332.542    22269335.133
  -3860199.66849  -2953739.89945  23706894.863    23706894.728    23706900.536
 -21040669.58649 -16347807.43847  20683523.926    20683523.285    20683527.123
 -26844498.10749 -20866536.82948  20337437.524    20337438.045    20337440.199
    370407.82048    318348.73844  25145730.414    25145733.251    25145735.818
  -3773374.66649  -2902267.99945  24635480.049    24635479.233    24635485.459
 -11907783.38649  -9249228.40246  23318790.302    23318790.967    23318793.333
 10  4 10  1  1 30.0000000  0  8G 2G29G 4G10G 5G30G 7G15
 -23613762.80449 -18371110.59047  20295321.275    20295321.132    20295322.121
 -12761763.12349  -9917473.11347  22258209.538    22258209.852    22258212.103
  -3773378.79549  -2886087.36045  23723416.392    23723416.171    23723421.782
 -20990235.76449 -16308508.37547  20693121.158    20693120.391    20693124.281
 -26844478.06249 -20866521.21948  20337441.344    20337441.972    20337443.838
    446396.04549    377560.29544  25160190.617    25160189.693    25160196.175
  -3800204.35149  -2923174.24245  24630374.283    24630374.936    24630378.647
 -12016437.07149  -9333893.56646  23298114.163    23298115.540    23298117.694
 10  4 10  1  2  0.0000000  0  7G 2G29G 4G10G 5G 7G15
 -23589560.75049 -18352251.86447  20299926.773    20299926.573    20299927.566
 -12819737.35049  -9962647.84247  22247177.453    22247177.639    22247180.410
  -3686405.67049  -2818316.18445  23739966.891    23739967.053    23739972.161
 -20939524.28649 -16268992.96147  20702771.243    20702770.830    20702774.371
 -26844123.95649 -20866245.30248  20337508.735    20337509.215    20337511.257
  -3826567.60149  -2943716.99745  24625357.331    24625358.299    24625362.369
 -12124905.73949  -9418414.56246  23277473.453    23277474.080    23277476.584
 10  4 10  1  2 30.0000000  0  7G 2G29G 4G10G 5G 7G15
 -23564957.30149 -18333080.37047  20304608.630    20304608.582    20304609.408
 -12877236.44249 -10007452.32747  22236235.712    22236235.814    22236238.656
  -3599282.46849  -2750428.05745  23756546.095    23756546.175    23756551.689
 -20888538.24749 -16229263.60547  20712473.596    20712473.193    20712476.912
 -26843438.15549 -20865710.92948  20337639.255    20337639.775    20337641.806
  -3852464.39349  -2963896.27845  24620429.458    24620428.902    24620432.534
 -12233188.48549  -9502790.68146  23256867.952    23256867.995    23256872.320
 10  4 10  1  3  0.0000000  0  7G 2G29G 4G10G 5G 7G15
 -23539950.68949 -18313594.71247  20309367.267    20309367.098    20309368.043
 -12934256.71149 -10051883.70847  22225385.093    22225385.486    22225388.490
  -3512008.41449  -2682422.39245  23773153.748    23773153.928    23773159.340
 -20837277.86349 -16189320.47347  20722228.104    20722227.480    20722231.277
 -26842420.31249 -20864917.81748  20337832.904    20337833.471    20337835.548
  -3877891.31649  -2983709.44845  24615590.904    24615591.750    24615594.325
 -12341281.27549  -9587018.78946  23236298.537    23236298.395    23236301.658
 10  4 10  1  3 30.0000000  0  7G 2G29G 4G10G 5G 7G15
 -23514541.06249 -18293795.02347  20314202.580    20314202.570    20314203.388
 -12990796.86849 -10095940.97447  22214625.880    22214626.084    22214629.020
  -3424584.80749  -2614300.20545  23789789.864    23789790.850    23789795.971
 -20785745.17049 -16149165.15747  20732034.412    20732034.081    20732037.503
 -26841071.84749 -20863867.07448  20338089.493    20338090.153    20338092.158
  -3902847.62249  -3003155.90645  24610841.771    24610842.258    24610845.578
 -12449182.20649  -9671097.40846  23215765.606    23215765.790    23215769.223
 10  4 10  1  4  0.0000000  0  7G 2G29G 4G10G 5G 7G15
 -23488727.11049 -18273680.27547  20319114.856    20319114.760    20319115.616
 -13046853.97149 -10139621.83347  22203958.561    22203958.869    22203961.597
  -3337011.17249  -2546061.10145  23806454.687    23806454.514    23806461.053
 -20733941.11049 -16108798.38347  20741892.402    20741891.977    20741895.792
 -26839392.63649 -20862558.60748  20338409.047    20338409.672    20338411.632
  -3927330.73449  -3022233.62545  24606182.785    24606183.484    24606187.563
 -12556888.12649  -9755024.06146  23195269.826    23195269.789    23195272.908
 10  4 10  1  4 30.0000000  0  7G 2G29G 4G10G 5G 7G15
 -23462509.51949 -18253251.00347  20324103.884    20324103.876    20324104.846
 -13102427.10649 -10182925.57247  22193383.364    22193383.780    22193386.092
  -3249289.56549  -2477706.70845  23823147.643    23823148.817    23823153.547
 -20681868.48349 -16068222.33347  20751801.535    20751801.167    20751805.012
 -26837384.59149 -20860993.90448  20338791.166    20338791.578    20338793.884
  -3951339.85249  -3040942.01745  24601614.256    24601614.766    24601620.175
 -12664397.35649  -9838797.44846  23174811.476    23174811.622    23174814.317
 10  4 10  1  5  0.0000000  0  7G 2G29G 4G10G 5G 7G15
 -23435888.41249 -18232507.30347  20329169.748    20329169.829    20329170.652
 -13157514.83049 -10225851.07547  22182900.565    22182901.087    22182903.428
  -3161421.23149  -2409237.97045  23839868.586    23839868.542    23839873.868
 -20629529.17049 -16027438.47047  20761761.420    20761761.172    20761764.750
 -26835049.28149 -20859174.19048  20339235.561    20339236.200    20339238.149
  -3974874.22749  -3059280.46545  24597135.746    24597134.248    24597140.348
 -12771707.92649  -9922416.04046  23154390.977    23154391.139    23154394.022
 10  4 10  1  5 30.0000000  0  7G 2G29G 4G10G 5G 7G15
 -23408862.88349 -18211448.47247  20334312.507    20334312.408    20334313.235
 -13212114.92549 -10268396.59447  22172510.532    22172510.790    22172513.439
  -3073405.93249  -2340654.72545  23856617.412    23856618.397    23856622.898
 -20576924.21149 -15986447.61347  20771771.860    20771771.422    20771775.161
 -26832386.89749 -20857099.61548  20339742.192    20339742.879    20339745.076
  -3997931.60649  -3077247.23745  24592747.907    24592747.595    24592752.383
 -12878816.91249 -10005877.55646  23134008.761    23134008.879    23134011.875
 10  4 10  1  6  0.0000000  0  7G 2G29G 4G10G 5G 7G15
 -23381431.69549 -18190073.54547  20339532.518    20339532.635    20339533.453
 -13266224.34349 -10310559.77347  22162213.799    22162213.909    22162216.735
  -2985243.34949  -2271956.70245  23873394.336    23873394.873    23873399.702
 -20524054.33549 -15945250.33247  20781832.709    20781832.157    20781835.859
 -26829397.53249 -20854770.24948  20340311.048    20340311.525    20340313.847
  -4020509.43949  -3094840.34645  24588451.468    24588452.618    24588455.939
 -12985720.79849 -10089179.24746  23113665.523    23113665.472    23113668.104
 10  4 10  1  6 30.0000000  0  7G 2G29G 4G10G 5G 7G15
 -23353594.39649 -18168382.16247  20344829.831    20344829.787    20344830.642
 -13319841.37849 -10352339.27147  22152010.812    22152011.222    22152013.975
  -2896934.70849  -2203144.90045  23890199.024    23890199.469    23890205.048
 -20470921.32349 -15903848.00647  20791943.594    20791943.167    20791947.020
 -26826082.24349 -20852186.91548  20340941.954    20340942.469    20340944.662
  -4042606.43349  -3112058.78145  24584246.692    24584247.610    24584251.172
 -13092417.70949 -10172319.66146  23093361.653    23093362.028    23093364.754
 10  4 10  1  7  0.0000000  0  7G 2G29G 4G10G 5G 7G15
 -23325350.57849 -18146374.01647  20350204.440    20350204.467    20350205.327
 -13372963.77649 -10393733.34147  22141901.970    22141902.400    22141904.906
  -2808480.04249  -2134219.28445  23907031.346    23907032.366    23907035.662
 -20417526.71549 -15862241.84147  20802104.250    20802103.703    20802107.644
 -26822441.33749 -20849349.85348  20341634.784    20341635.319    20341637.599
  -4064220.93549  -3128901.25045  24580133.433    24580132.269    24580139.072
 -13198904.39449 -10255296.27546  23073097.823    23073098.456    23073101.152
 10  4 10  1  7 30.0000000  0  7G 2G29G 4G10G 5G 7G15
 -23296700.19649 -18124049.06647  20355656.463    20355656.522    20355657.260
 -13425590.16249 -10434740.91647  22131887.503    22131888.612    22131890.272
  -2719880.87349  -2065181.05745  23923891.366    23923891.315    23923896.692
 -20363872.35549 -15820433.27247  20812314.369    20812313.795    20812317.686
 -26818476.40649 -20846260.31148  20342389.318    20342389.897    20342392.060
  -4085351.97049  -3145366.98445  24576112.307    24576112.951    24576115.925
 -13305178.97549 -10338107.60846  23052874.398    23052874.937    23052878.035
 10  4 10  1  8  0.0000000  0  7G 2G29G 4G10G 5G 7G15
 -23267642.66849 -18101406.86347  20361185.922    20361185.894    20361186.905
 -13477718.18049 -10475360.14947  22121967.913    22121968.090    22121971.104
  -2631137.07849  -1996030.17145  23940778.831    23940779.853    23940785.128
 -20309959.48349 -15778423.26747  20822573.720    20822573.292    20822576.991
 -26814188.15949 -20842918.83148  20343205.307    20343205.752    20343208.031
  -4105997.28349  -3161454.22245  24572183.671    24572183.751    24572190.000
 -13411238.59349 -10420751.42946  23032691.878    23032691.469    23032694.829
 10  4 10  1  8 30.0000000  0  7G 2G29G 4G10G 5G 7G15
 -23238178.42049 -18078447.72547  20366792.773    20366792.523    20366793.689
 -13529347.14549 -10515590.51647  22112143.220    22112143.502    22112146.396
  -2542250.51449  -1926768.00745  23957693.388    23957693.904    23957699.036
 -20255790.46349 -15736213.66747  20832881.703    20832880.997    20832885.026
 -26809578.23449 -20839326.68948  20344082.574    20344083.214    20344085.274
  -4126156.59949  -3177162.76545  24568347.381    24568346.947    24568353.712
 -13517081.69549 -10503226.52646  23012550.501    23012550.453    23012554.010
 10  4 10  1  9  0.0000000  0  7G 2G29G 4G10G 5G 7G15
 -23208305.85849 -18055170.43047  20372477.325    20372477.307    20372478.113
 -13580473.91549 -10555429.55847  22102414.159    22102414.727    22102417.102
  -2453220.64549  -1857394.18145  23974635.125    23974636.165    23974641.199
 -20201365.81749 -15693804.87147  20843238.395    20843238.107    20843241.791
 -26804645.71449 -20835483.17348  20345021.257    20345021.834    20345023.930
  -4145827.18949  -3192490.50445  24564604.014    24564605.418    24564608.470
 -13622704.75249 -10585530.17346  22992451.017    22992450.927    22992454.404
 10  4 10  1  9 30.0000000  0  7G 2G29G 4G10G 5G 7G15
 -23178025.10249 -18031575.05847  20378239.593    20378239.648    20378240.375
 -13631096.60349 -10594875.80847  22092780.958    22092781.406    22092783.556
  -2364048.27849  -1787909.31945  23991604.085    23991604.478    23991610.237
 -20146687.25449 -15651198.22547  20853643.413    20853642.823    20853646.696
 -26799392.87149 -20831390.06348  20346020.841    20346021.313    20346023.526
  -4165007.80749  -3207436.44945  24560954.137    24560954.995    24560958.566
 -13728105.39249 -10667660.52846  22972394.045    22972394.452    22972397.159
 10  4 10  1 10  0.0000000  0  7G 2G29G 4G10G 5G 7G15
 -23147336.79249 -18007662.11247  20384079.429    20384079.365    20384080.319
 -13681214.45049 -10633928.68347  22083243.813    22083244.378    22083246.854
  -2274734.91949  -1718314.59145  24008599.870    24008600.881    24008606.271
 -20091757.27949 -15608395.67247  20864096.242    20864095.777    20864099.418
 -26793820.93449 -20827048.30448  20347081.145    20347081.619    20347083.840
  -4183698.03549  -3222000.27045  24557397.433    24557398.407    24557402.455
 -13833281.77249 -10749616.11846  22952379.646    22952380.008    22952382.906
 10  4 10  1 10 30.0000000  0  7G 2G29G 4G10G 5G 7G15
 -23116240.01949 -17983430.87547  20389996.964    20389996.819    20389997.733
 -13730825.54949 -10672586.67747  22073803.199    22073803.914    22073806.079
  -2185281.04149  -1648610.35545  24025622.439    24025622.378    24025627.758
 -20036576.89549 -15565397.99047  20874596.727    20874596.338    20874600.229
 -26787930.56249 -20822458.41348  20348202.080    20348202.722    20348204.786
  -4201896.08349  -3236180.56745  24553934.444    24553935.174    24553939.257
 -13938231.27549 -10831394.91746  22932408.480    22932408.644    22932412.291
 10  4 10  1 11  0.0000000  0  7G 2G29G 4G10G 5G 7G15
 -23084734.53549 -17958881.17647  20395992.282    20395992.398    20395992.956
 -13779927.93849 -10710848.28247  22064459.311    22064459.533    22064462.609
  -2095687.35949  -1578797.19045  24042671.719    24042671.905    24042677.549
 -19981147.95049 -15522206.63447  20885144.498    20885143.696    20885147.788
 -26781722.34549 -20817620.85948  20349383.470    20349383.965    20349386.214
  -4219600.83849  -3249976.50045  24550565.571    24550565.357    24550570.310
 -14042951.52549 -10912995.08646  22912480.808    22912481.259    22912484.063
 10  4 10  1 11 30.0000000  0  7G 2G29G 4G10G 5G 7G15
 -23052819.74349 -17934012.53647  20402065.485    20402065.504    20402066.261
 -13828519.87249 -10748712.13047  22055212.577    22055212.644    22055215.693
  -2005954.56649  -1508875.63045  24059747.421    24059747.903    24059753.470
 -19925472.07849 -15478822.86347  20895739.236    20895738.811    20895742.511
 -26775197.58649 -20812536.64248  20350625.083    20350625.735    20350627.812
  -4236810.81949  -3263386.87445  24547290.484    24547292.463    24547296.257
 -14147440.14749 -10994414.77946  22892597.207    22892597.974    22892601.052
 10  4 10  1 12  0.0000000  0  7G 2G29G 4G10G 5G 7G15
 -23020495.10149 -17908824.53147  20408216.718    20408216.825    20408217.598
 -13876598.74749 -10786176.18647  22046063.431    22046063.908    22046066.352
  -1916082.26649  -1438845.36345  24076849.433    24076850.044    24076855.502
 -19869549.67749 -15435246.99247  20906380.938    20906380.544    20906384.165
 -26768355.63749 -20807205.26148  20351927.073    20351927.644    20351929.896
  -4253523.56949  -3276409.81445  24544110.288    24544110.826    24544114.580
 -14251693.52749 -11075651.16046  22872758.380    22872758.489    22872762.167
 10  4 10  1 12 30.0000000  0  7G 2G29G 4G10G 5G 7G15
 -22987761.02549 -17883317.48347  20414445.792    20414445.493    20414446.621
 -13924163.51749 -10823239.64447  22037012.165    22037012.694    22037014.823
  -1826072.28949  -1368707.79945  24093977.775    24093978.806    24093983.344
 -19813383.28849 -15391481.00247  20917069.085    20917068.475    20917072.250
 -26761198.75849 -20801628.48848  20353289.010    20353289.571    20353291.621
  -4269738.53849  -3289044.85845  24541024.849    24541025.482    24541028.885
 -14355710.09049 -11156702.99846  22852964.695    22852965.531    22852968.532
 10  4 10  1 13  0.0000000  0  8G 2G29G 8G 4G10G 5G 7G15
 -22954617.33849 -17857491.24847  20420752.850    20420752.737    20420753.888
 -13971212.87549 -10859901.48547  22028058.969    22028059.212    22028062.250
   -461693.56249   -337000.47244                                  24697618.549
  -1735925.48149  -1298463.62745  24111132.290    24111133.470    24111138.461
 -19756974.60449 -15347526.20447  20927803.334    20927802.574    20927806.665
 -26753728.21949 -20795807.29848  20354710.579    20354711.127    20354713.314
  -4285455.07849  -3301291.54445  24538034.150    24538034.872    24538038.214
 -14459487.92749 -11237568.82646  22833216.528    22833217.602    22833220.598
 10  4 10  1 13 30.0000000  0  8G 2G29G 8G 4G10G 5G 7G15
 -22921065.08749 -17831346.66147  20427137.626    20427137.687    20427138.490
 -14017746.12349 -10896161.15947  22019203.955    22019204.482    22019207.168
   -528837.97849   -389320.73045  24684833.516    24684833.256    24684839.149
  -1645643.67449  -1228114.25545  24128312.552    24128313.736    24128318.446
 -19700326.47749 -15303384.83547  20938583.118    20938582.751    20938586.465
 -26745945.68549 -20789743.00048  20356191.508    20356192.101    20356194.217
  -4300673.02149  -3313149.67445  24535138.103    24535137.977    24535142.881
 -14563025.44649 -11318247.39446  22813514.101    22813514.882    22813517.535
 10  4 10  1 14  0.0000000  0  8G 2G29G 8G 4G10G 5G 7G15
 -22887102.22849 -17804882.12247  20433600.564    20433600.523    20433601.715
 -14063760.01249 -10932016.13747  22010447.799    22010448.174    22010450.465
   -595729.38249   -441443.84745  24672104.527    24672103.408    24672110.786
  -1555225.93449  -1157658.96445  24145518.511    24145518.825    24145524.454
 -19643439.09049 -15259057.02747  20949408.505    20949407.897    20949411.899
 -26737850.62549 -20783435.17448  20357731.938    20357732.585    20357734.663
  -4315389.53549  -3324617.10645  24532337.473    24532337.976    24532341.997
 -14666318.78649 -11398735.68746  22793858.054    22793858.780    22793861.770
 10  4 10  1 14 30.0000000  0  8G 2G29G 8G 4G10G 5G 7G15
 -22852727.20449 -17778096.40947  20440141.923    20440141.904    20440142.960
 -14109251.37649 -10967463.95147  22001791.039    22001791.397    22001794.287
   -662362.62849   -493365.80644  24659424.504    24659423.986    24659428.325
  -1464671.45949  -1087097.14445  24162750.590    24162750.236    24162756.001
 -19586311.97749 -15214542.41547  20960279.435    20960278.941    20960282.777
 -26729442.58749 -20776883.46148  20359331.934    20359332.607    20359334.758
  -4329601.66549  -3335691.49345  24529633.162    24529633.278    24529638.122
 -14769363.89249 -11479030.54246  22774249.137    22774249.595    22774252.240
 10  4 10  1 15  0.0000000  0  8G 2G29G 8G 4G10G 5G 7G15
 -22817941.36149 -17750990.58947  20446761.467    20446761.412    20446762.273
 -14154220.11549 -11002504.53147  21993233.769    21993233.731    21993236.417
   -728736.44749   -545085.62045  24646793.788    24646793.910    24646798.972
  -1373982.63849  -1016430.60845  24180008.202    24180008.778    24180013.698
 -19528948.03049 -15169843.26847  20971195.490    20971194.954    20971198.809
 -26720723.65849 -20770089.50448  20360991.156    20360991.869    20360993.833
  -4343309.80449  -3346373.19045  24527024.669    24527026.343    24527029.773
 -14872159.78949 -11559131.21946  22754687.631    22754688.077    22754691.618
 10  4 10  1 15 30.0000000  0  8G 2G29G 8G 4G10G 5G 7G15
 -22782743.98349 -17723564.08247  20453459.354    20453459.465    20453460.093
 -14198664.24649 -11037136.31747  21984776.309    21984776.886    21984779.121
   -794847.78549   -596600.90245  24634213.401    24634212.280    24634219.620
  -1283159.68749   -945659.57645  24197291.290    24197291.634    24197297.050
 -19471348.44749 -15124960.49947  20982156.352    20982156.026    20982159.460
 -26711694.74949 -20763053.99948  20362709.312    20362709.829    20362712.045
  -4356512.61549  -3356661.10445  24524512.460    24524512.883    24524516.663
 -14974704.05149 -11639035.81146  22735174.101    22735173.837    22735177.896
 10  4 10  1 16  0.0000000  0  8G 2G29G 8G 4G10G 5G 7G15
 -22747135.00749 -17695816.85647  20460235.538    20460235.554    20460236.617
 -14242582.19949 -11071358.10747  21976418.984    21976419.361    21976421.688
   -860693.35349   -647909.05745  24621683.069    24621682.844    24621688.988
  -1192203.41449   -874784.65945  24214599.722    24214600.541    24214605.990
 -19413515.13349 -15079895.60247  20993161.712    20993161.167    20993164.921
 -26702356.59349 -20755777.52148  20364486.298    20364486.759    20364489.078
  -4369208.80249  -3366554.24745  24522096.343    24522096.826    24522100.284
 -15076993.88149 -11718742.14746  22715708.747    22715708.672    22715711.991
 10  4 10  1 16 30.0000000  0  8G 2G29G 8G 4G10G 5G 7G15
 -22711114.09349 -17667748.63647  20467090.126    20467090.008    20467090.950
 -14285971.88649 -11105168.25247  21968162.200    21968162.418    21968165.032
   -926270.45049   -699008.05445  24609204.257    24609203.203    24609209.257
  -1101114.14449   -803806.12245  24231933.420    24231933.731    24231939.345
 -19355449.03549 -15034649.32047  21004211.372    21004210.558    21004214.790
 -26692709.49749 -20748260.31048  20366322.078    20366322.688    20366324.832
  -4381396.78949  -3376051.37545  24519777.134    24519777.991    24519782.456
 -15179026.69449 -11798248.20746  22696292.379    22696292.134    22696295.623
 10  4 10  1 17  0.0000000  0  8G 2G29G 8G 4G10G 5G 7G15
 -22674682.19649 -17639360.17547  20474022.863    20474022.769    20474023.929
 -14328833.40549 -11138566.84347  21960005.939    21960006.264    21960008.680
   -991577.41949   -749896.59745  24596776.877    24596775.637    24596781.482
  -1009894.21549   -732725.74345  24249292.321    24249292.734    24249297.931
 -19297153.35349 -14989224.14847  21015304.672    21015304.108    21015308.192
 -26682756.16249 -20740504.47948  20368216.150    20368216.717    20368218.885
  -4393077.46949  -3385153.22545  24517554.582    24517555.839    24517559.655
 -15280801.62649 -11877553.32646  22676925.236    22676925.091    22676928.988
 10  4 10  1 17 30.0000000  0  8G 2G29G 8G 4G10G 5G 7G15
 -22637838.53049 -17610650.85247  20481033.980    20481034.045    20481034.923
 -14371164.19349 -11171551.87947  21951950.681    21951951.290    21951953.652
  -1056610.81749   -800571.91445  24584401.382    24584401.013    24584408.265
   -918543.45449   -661543.43745  24266675.771    24266676.350    24266681.824
 -19238628.45449 -14943620.35647  21026441.629    21026441.278    21026445.071
 -26672496.63549 -20732510.05548  20370168.462    20370168.906    20370171.268
  -4404248.26049  -3393857.74545  24515428.906    24515428.872    24515435.569
 -15382315.22749 -11956654.80946  22657607.904    22657608.354    22657611.110
 10  4 10  1 18  0.0000000  0  8G 2G29G 8G 4G10G 5G 7G15
 -22600582.34549 -17581620.08147  20488123.619    20488123.417    20488124.741
 -14412962.27449 -11204121.82147  21943996.804    21943996.957    21943999.226
  -1121366.77949   -851031.02945  24572078.467    24572076.905    24572084.541
   -827062.12349   -590259.38545  24284084.160    24284084.428    24284090.413
 -19179875.75449 -14897839.06047  21037621.937    21037621.678    21037625.030
 -26661931.52849 -20724277.51848  20372178.945    20372179.554    20372181.756
  -4414907.71349  -3402163.81845  24513400.479    24513400.746    24513404.184
 -15483564.49649 -12035550.31546  22638340.762    22638341.352    22638344.401
 10  4 10  1 18 30.0000000  0  8G 2G29G 8G 4G10G 5G 7G15
 -22562914.06249 -17552268.19747  20495291.703    20495291.905    20495292.708
 -14454226.55349 -11236275.80447  21936144.418    21936144.523    21936147.290
  -1185842.95949   -901272.15745  24559809.011    24559809.248    24559814.668
   -735451.72449   -518874.76045  24301517.157    24301517.719    24301523.202
 -19120896.87549 -14851881.51547  21048845.228    21048844.528    21048848.319
 -26651062.22949 -20715807.94548  20374247.312    20374247.882    20374249.977
  -4425055.65549  -3410071.29245  24511469.406    24511469.393    24511473.029
 -15584547.83649 -12114238.60646  22619124.326    22619124.926    22619127.791
 10  4 10  1 19  0.0000000  0  8G 2G29G 8G 4G10G 5G 7G15
 -22524833.51549 -17522595.06547  20502538.254    20502538.278    20502539.359
 -14494955.61449 -11268012.74147  21928393.868    21928393.989    21928396.681
  -1250036.74649   -951293.27845  24547593.300    24547593.545    24547599.065
   -643712.43349   -447389.70345  24318974.677    24318974.484    24318980.625
 -19061693.12049 -14805748.74747  21060111.318    21060110.849    21060115.085
 -26639889.05549 -20707101.58648  20376373.485    20376374.040    20376376.328
  -4434690.70049  -3417579.14345  24509635.722    24509636.012    24509641.402
 -15685262.67549 -12192717.67746  22599958.969    22599959.224    22599962.260
 10  4 10  1 19 30.0000000  0  8G 2G29G 8G 4G10G 5G 7G15
 -22486339.52449 -17492599.77447  20509863.420    20509863.467    20509864.372
 -14535146.99149 -11299330.70947  21920745.708    21920745.923    21920749.048
  -1313944.24349  -1001091.28045  24535431.853    24535431.025    24535437.128
   -551844.34549   -375804.29545  24336456.695    24336457.031    24336463.593
 -19002265.31049 -14759441.39247  21071420.064    21071419.560    21071423.600
 -26628412.36049 -20698158.71948  20378557.391    20378557.968    20378560.289
  -4443810.84149  -3424685.73345  24507900.138    24507899.644    24507904.725
 -15785705.76049 -12270984.98346  22580845.308    22580845.446    22580849.210
 10  4 10  1 20  0.0000000  0  8G 2G29G 8G 4G10G 5G 7G15
 -22447434.06249 -17462283.84947  20517266.909    20517266.932    20517267.916
 -14574800.65049 -11330229.66847  21913199.872    21913200.267    21913202.958
  -1377564.38049  -1050665.33945  24523325.301    24523325.615    24523331.719
   -459850.08549   -304120.57145  24353962.638    24353962.543    24353968.305
 -18942616.47149 -14712961.81047  21082770.890    21082770.542    21082773.903
 -26616634.78549 -20688981.40148  20380798.616    20380799.156    20380801.397
  -4452417.02749  -3431391.84645  24506262.475    24506264.426    24506268.132
 -15885876.27449 -12349039.90746  22561783.488    22561783.982    22561787.007
 10  4 10  1 20 30.0000000  0  8G 2G29G 8G 4G10G 5G 7G15
 -22408116.25649 -17431646.62147  20524748.802    20524748.732    20524749.711
 -14613914.67149 -11360708.12247  21905756.676    21905757.260    21905759.553
  -1440893.16449  -1100012.39345  24511274.435    24511275.127    24511280.002
   -367729.57649   -232338.46645  24371492.605    24371493.266    24371498.310
 -18882747.32849 -14666310.55547  21094163.589    21094163.165    21094166.920
 -26604556.49749 -20679569.75948  20383097.016    20383097.575    20383099.913
  -4460507.37549  -3437696.00045  24504723.223    24504723.253    24504728.082
 -15985771.14849 -12426880.04446  22542774.143    22542774.802    22542777.298
 10  4 10  1 21  0.0000000  0  8G 2G29G 8G 4G10G 5G 7G15
 -22368387.38049 -17400689.07847  20532309.029    20532309.168    20532309.994
 -14652489.12549 -11390766.14647  21898416.262    21898416.452    21898419.115
  -1503929.24349  -1149131.35745  24499278.942    24499278.183    24499283.944
   -275484.86349   -160459.58445  24389046.226    24389045.725    24389052.171
 -18822660.93449 -14619490.01247  21105597.644    21105597.159    21105601.160
 -26592179.91649 -20669925.68048  20385452.238    20385452.805    20385455.000
  -4468082.45749  -3443598.65445  24503281.951    24503283.620    24503286.046
 -16085389.61049 -12504504.77946  22523817.316    22523817.096    22523821.074
 10  4 10  1 21 30.0000000  0  8G 2G29G 8G 4G10G 5G 7G15
 -22328245.14949 -17369409.44147  20539947.863    20539947.760    20539948.843
 -14690520.69849 -11420401.13447  21891179.111    21891179.522    21891182.097
  -1566668.09949  -1198018.74545  24487339.968    24487338.978    24487345.444
   -183114.91749    -88483.08745  24406623.755    24406624.925    24406630.651
 -18762356.85949 -14572499.85247  21117073.117    21117072.525    21117076.565
 -26579503.82749 -20660048.21748  20387864.410    20387865.025    20387867.306
  -4475139.63949  -3449097.73245  24501939.369    24501938.601    24501943.136
 -16184727.27749 -12581910.73446  22504913.895    22504913.892    22504917.125
 10  4 10  1 22  0.0000000  0  8G 2G29G 8G 4G10G 5G 7G15
 -22287689.24849 -17337807.45647  20547665.379    20547665.407    20547666.235
 -14728007.64449 -11449611.74447  21884045.555    21884045.810    21884048.419
  -1629106.78249  -1246672.20245  24475458.288    24475458.563    24475464.623
    -90620.31349    -16409.49945  24424224.890    24424226.370    24424230.750
 -18701835.92649 -14525340.71647  21128589.845    21128589.232    21128593.245
 -26566528.78449 -20649937.80248  20390333.511    20390334.055    20390336.337
  -4481677.54049  -3454192.17545  24500694.981    24500694.192    24500699.089
 -16283781.45949 -12659095.77846  22486064.537    22486064.861    22486068.073
 10  4 10  1 22 30.0000000  0  8G 2G29G 8G 4G10G 5G 7G15
 -22246720.44849 -17305883.73847  20555461.435    20555461.570    20555462.539
 -14764948.85349 -11478397.10747  21877015.863    21877015.917    21877018.453
  -1691242.41549  -1295089.52245  24463634.354    24463633.999    24463640.158
      1997.77849     55760.35045  24441849.615    24441849.550    24441856.156
 -18641100.23849 -14478014.23647  21140147.495    21140146.831    21140150.979
 -26553256.48149 -20639595.76048  20392859.171    20392859.777    20392861.961
  -4487695.82949  -3458881.72345  24499549.554    24499550.334    24499552.790
 -16382550.25049 -12736058.46246  22467269.472    22467269.673    22467272.420
 10  4 10  1 23  0.0000000  0  8G 2G29G 8G 4G10G 5G 7G15
 -22205339.01449 -17273638.48447  20563336.057    20563336.129    20563337.062
 -14801343.46349 -11506756.54847  21870090.230    21870090.741    21870093.507
  -1753073.14549  -1343269.24445  24451868.293    24451867.924    24451873.878
     94738.30249    128025.60045  24459497.743    24459498.542    24459504.426
 -18580151.41149 -14430521.67847  21151745.709    21151745.441    21151749.196
 -26539688.12149 -20629023.01548  20395441.177    20395441.710    20395443.967
  -4493193.71049  -3463165.76445  24498503.415    24498501.660    24498507.418
 -16481031.62749 -12812797.16246  22448529.049    22448529.376    22448532.199
 10  4 10  1 23 30.0000000  0  8G 2G29G 8G 4G10G 5G 7G15
 -22163542.94149 -17241070.14747  20571289.617    20571289.892    20571290.671
 -14837188.32949 -11534687.61847  21863269.175    21863269.593    21863272.148
  -1814593.50849  -1391207.14045  24440161.175    24440161.388    24440166.569
    187602.24149    200386.98645  24477169.215    24477169.118    24477177.080
 -18518989.17949 -14382862.82647  21163384.541    21163384.164    21163388.167
 -26525822.46849 -20618218.62148  20398079.718    20398080.393    20398082.562
  -4498169.02749  -3467042.61145  24497556.334    24497556.624    24497560.526
 -16579221.77249 -12889308.94446  22429844.142    22429844.961    22429847.757
 10  4 10  1 24  0.0000000  0  8G 2G29G 8G 4G10G 5G 7G15
 -22121335.48449 -17208181.25247  20579321.459    20579321.602    20579322.491
 -14872485.13249 -11562191.62847  21856552.375    21856553.013    21856555.371
  -1875804.47949  -1438903.95245  24428513.335    24428511.993    24428519.391
    280585.68449    272841.51945  24494863.644    24494864.908    24494869.762
 -18457617.92649 -14335041.10247  21175063.129    21175062.729    21175066.372
 -26511663.64949 -20607185.77848  20400774.084    20400774.688    20400776.961
  -4502623.78349  -3470513.82645  24496708.435    24496709.201    24496712.010
 -16677121.08949 -12965594.11246  22411214.566    22411214.959    22411218.095
 10  4 10  1 24 30.0000000  0  8G 2G29G 8G 4G10G 5G 7G15
 -22078714.26549 -17174969.93547  20587432.079    20587432.097    20587433.227
 -14907230.63549 -11589266.04547  21849940.544    21849940.791    21849943.581
  -1936700.86149  -1486355.61045  24416925.148    24416924.625    24416931.261
    373690.23549    345390.39845  24512580.895    24512580.813    24512587.143
 -18396036.97249 -14287055.98047  21186781.567    21186781.167    21186785.312
 -26497210.22949 -20595923.38148  20403524.502    20403524.984    20403527.207
  -4506554.89849  -3473577.01245  24495960.260    24495960.829    24495964.066
 -16774724.98349 -13041649.06546  22392641.115    22392641.227    22392644.769
 10  4 10  1 25  0.0000000  0  8G 2G29G 8G 4G10G 5G 7G15
 -22035679.78349 -17141436.60247  20595621.304    20595621.348    20595622.504
 -14941423.82049 -11615910.09147  21843433.737    21843433.795    21843436.669
  -1997279.84549  -1533559.93145  24405397.251    24405396.675    24405403.075
    466914.29149    418032.43445  24530320.933    24530322.501    24530326.208
 -18334248.25749 -14238908.95747  21198539.613    21198538.997    21198542.837
 -26482464.04349 -20584432.85148  20406330.625    20406331.071    20406333.299
  -4509962.24949  -3476232.07945  24495311.946    24495312.648    24495316.592
 -16872031.72249 -13117472.48646  22374124.126    22374124.546    22374127.467
 10  4 10  1 25 30.0000000  0  8G 2G29G 8G 4G10G 5G 7G15
 -21992233.05749 -17107582.04047  20603888.963    20603889.024    20603889.997
 -14975064.30649 -11642123.46947  21837032.131    21837032.597    21837035.105
  -2057540.10249  -1580515.93645  24393930.072    24393929.704    24393934.995
    560256.42349    490766.42745  24548083.396    24548083.346    24548089.520
 -18272253.88549 -14190601.69347  21210336.796    21210336.490    21210340.550
 -26467426.35249 -20572715.18148  20409192.206    20409192.620    20409194.923
  -4512845.98549  -3478479.14145  24494763.103    24494764.058    24494768.520
 -16969039.57649 -13193063.00346  22355664.105    22355665.095    22355667.833
 10  4 10  1 26  0.0000000  0  8G 2G29G 8G 4G10G 5G 7G15
 -21948373.09449 -17073405.47747  20612235.247    20612235.216    20612236.296
 -15008149.73949 -11667904.33447  21830736.192    21830736.566    21830739.065
  -2117477.81149  -1627220.60545  24382524.255    24382523.830    24382529.138
    653716.67849    563592.48045  24565868.375    24565869.283    24565874.660
 -18210054.58249 -14142134.73947  21222172.993    21222172.446    21222176.522
 -26452097.43649 -20560770.58048  20412109.164    20412109.810    20412112.010
  -4515204.35749  -3480316.80445  24494314.457    24494314.279    24494318.384
 -17065745.89149 -13268418.55046  22337261.473    22337262.395    22337265.278
 10  4 10  1 26 30.0000000  0  8G 2G29G 8G 4G10G 5G 7G15
 -21904099.64149 -17038906.71247  20620660.241    20620660.224    20620661.233
 -15040679.17449 -11693251.94547  21824546.055    21824546.541    21824549.172
  -2177089.77249  -1673671.42545  24371180.511    24371181.242    24371186.544
    747294.24649    636509.95045  24583675.665    24583676.325    24583682.979
 -18147651.68549 -14093509.13747  21234047.794    21234047.465    21234051.371
 -26436478.11549 -20548599.69048  20415081.414    20415082.043    20415084.277
  -4517036.63749  -3481744.52445  24493965.629    24493965.710    24493969.730
 -17162147.92949 -13343537.00946  22318916.754    22318916.775    22318920.143
 10  4 10  1 27  0.0000000  0  8G 2G29G 8G 4G10G 5G 7G15
 -21859414.61649 -17004087.24647  20629163.553    20629163.387    20629164.447
 -15072652.61149 -11718166.31247  21818461.726    21818462.133    21818464.953
  -2236374.98649  -1719867.62345  24359898.790    24359898.103    24359904.261
    840987.09949    709517.25045  24601504.944    24601505.912    24601511.191
 -18085047.55149 -14044726.72647  21245960.989    21245960.797    21245964.686
 -26420570.42849 -20536204.09948  20418108.557    20418109.167    20418111.535
  -4518343.56149  -3482762.88445  24493716.814    24493717.122    24493721.053
 -17258244.95149 -13418417.78646  22300630.130    22300630.605    22300633.938
 10  4 10  1 27 30.0000000  0  8G 2G29G 8G 4G10G 5G 7G15
 -21814316.48849 -16968945.87947  20637745.442    20637745.366    20637746.507
 -15104067.45449 -11742645.41347  21812483.631    21812483.852    21812486.343
  -2295329.33849  -1765806.03845  24348680.077    24348679.510    24348685.252
    934795.66249    782614.71145  24619356.128    24619354.865    24619363.405
 -18022242.46349 -13995787.72647  21257912.474    21257911.724    21257916.315
 -26404374.23349 -20523583.70048  20421190.615    20421191.243    20421193.338
  -4519123.08849  -3483370.29445  24493568.475    24493567.586    24493572.069
 -17354033.16149 -13493057.92146  22282402.220    22282402.893    22282405.694
 10  4 10  1 28  0.0000000  0  8G 2G29G 8G 4G10G 5G 7G15
 -21768805.36649 -16933482.70547  20646405.947    20646405.711    20646406.921
 -15134922.84749 -11766688.58247  21806612.020    21806612.536    21806615.002
  -2353950.02249  -1811484.45845  24337524.929    24337524.382    24337529.733
   1028719.10549    855801.66745  24637229.187    24637231.759    24637235.682
 -17959237.66949 -13946693.11847  21269901.897    21269901.474    21269905.690
 -26387890.38149 -20510739.15348  20424327.438    20424327.882    20424330.151
  -4519374.55449  -3483566.21445  24493520.545    24493520.998    24493524.297
 -17449510.26149 -13567455.63946  22264233.518    22264234.151    22264236.039
 10  4 10  1 28 30.0000000  0  8G 2G29G 8G 4G10G 5G 7G15
 -21722881.52849 -16897697.93047  20655144.963    20655144.661    20655145.928
 -15165217.72349 -11790294.98047  21800847.099    21800847.707    21800850.243
  -2412234.38249  -1856900.80045  24326433.840    24326432.721    24326438.498
   1122756.42749    929077.38245  24655124.026    24655124.243    24655130.448
 -17896034.89449 -13897444.22947  21281928.971    21281928.278    21281932.496
 -26371119.89549 -20497671.25448  20427518.780    20427519.443    20427521.442
  -4519097.73449  -3483350.49445  24493573.323    24493574.991    24493576.536
 -17544674.38449 -13641609.48346  22246124.421    22246125.008    22246127.376
 10  4 10  1 29  0.0000000  0  8G 2G29G 8G 4G10G 5G 7G15
 -21676547.71549 -16861593.70247  20663962.036    20663962.127    20663963.069
 -15194953.24449 -11813465.52047  21795188.556    21795188.705    21795191.641
  -2470182.02949  -1902054.77345  24315406.706    24315406.324    24315412.209
   1216904.60849   1002439.47545  24673039.945    24673040.949    24673047.099
 -17832637.93449 -13848044.03247  21293993.094    21293992.796    21293996.417
 -26354066.07849 -20484382.57848  20430764.009    20430764.426    20430766.700
  -4518294.20349  -3482724.35045  24493726.258    24493726.686    24493730.084
 -17639525.44549 -13715519.36846  22228074.943    22228075.224    22228078.237
 10  4 10  1 29 30.0000000  0  8G 2G29G 8G 4G10G 5G 7G15
 -21629800.19349 -16825167.09647  20672857.807    20672857.539    20672859.073
 -15224124.72249 -11836196.55447  21789637.468    21789638.017    21789640.426
  -2527786.95649  -1946941.67945  24304444.794    24304444.953    24304449.914
   1311166.05749   1075889.81744  24690977.200    24690977.022    24690984.770
 -17769044.51749 -13798490.74247  21306094.510    21306093.678    21306098.297
 -26336726.20549 -20470871.00148  20434063.645    20434064.032    20434066.401
  -4516960.11349  -3481684.76845  24493980.150    24493980.280    24493984.287
 -17734057.66149 -13789180.80846  22210086.078    22210086.717    22210088.712
 10  4 10  1 30  0.0000000  0  8G 2G29G 8G 4G10G 5G 7G15
 -21582641.04449 -16788419.74247  20681831.906    20681832.126    20681833.359
 -15252733.11149 -11858488.80847  21784193.536    21784193.906    21784196.326
  -2585047.95149  -1991560.59945  24293548.388    24293547.797    24293553.333
   1405537.97949   1149426.23344  24708935.835    24708938.398    24708943.303
 -17705257.80849 -13748786.84047  21318232.785    21318232.305    21318236.274
 -26319103.13049 -20457138.75348  20437417.187    20437417.690    20437419.841
  -4515096.62749  -3480232.68245  24494334.790    24494334.125    24494337.879
 -17828270.61549 -13862593.47546  22192158.024    22192158.798    22192161.064
 10  4 10  1 30 30.0000000  0  8G 2G29G 8G 4G10G 5G 7G15
 -21535069.32749 -16751350.90847  20690884.514    20690884.509    20690885.947
 -15280776.32849 -11880340.67347  21778856.993    21778857.361    21778860.328
  -2641961.23749  -2035908.58145  24282717.886    24282717.884    24282723.505
   1500020.85849   1223049.12744  24726915.407    24726916.052    24726922.170
 -17641277.87149 -13698932.37447  21330407.794    21330407.506    21330411.299
 -26301196.59849 -20443185.62748  20440824.693    20440825.251    20440827.612
  -4512701.91449  -3478366.64145  24494790.463    24494790.679    24494794.691
 -17922161.07149 -13935754.84247  22174291.263    22174291.318    22174294.500
 10  4 10  1 31  0.0000000  0  8G 2G29G 8G 4G10G 5G 7G15
 -21487085.19349 -16713960.70847  20700015.598    20700015.467    20700016.830
 -15308253.38149 -11901751.37547  21773628.295    21773628.860    21773631.259
  -2698524.33949  -2079983.68245  24271954.348    24271954.526    24271960.162
   1594613.74649   1296757.72844  24744915.901    24744916.761    24744922.906
 -17577106.16649 -13648928.47647  21342619.290    21342619.042    21342623.064
 -26283007.63349 -20429012.42348  20444285.923    20444286.445    20444288.730
  -4509776.13949  -3476086.79045  24495347.110    24495347.424    24495350.213
 -18015726.84149 -14008663.20647  22156486.270    22156486.164    22156489.144
 10  4 10  1 31 30.0000000  0  8G 2G29G 8G 4G10G 5G 7G15
 -21438689.73249 -16676249.99547  20709224.946    20709224.852    20709226.127
 -15335164.03249 -11922720.72047  21768507.425    21768507.746    21768510.507
  -2754735.29349  -2123784.38445  24261257.798    24261257.571    24261263.563
   1689315.11649   1370550.87044  24762937.130    24762937.015    24762945.881
 -17512745.21549 -13598777.11347  21354866.742    21354866.374    21354870.582
 -26264537.87649 -20414620.42048  20447800.625    20447801.362    20447803.612
  -4506319.28149  -3473393.11445  24496004.739    24496004.809    24496009.849
 -18108966.25849 -14081317.28447  22138743.315    22138743.637    22138746.412
 10  4 10  1 32  0.0000000  0  8G 2G29G 8G 4G10G 5G 7G15
 -21389882.00349 -16638218.03347  20718512.731    20718512.632    20718514.083
 -15361506.41049 -11943247.25547  21763494.622    21763495.456    21763497.919
  -2810590.77849  -2167308.10145  24250628.889    24250627.980    24250635.077
   1784125.05049   1444428.55844  24780978.830    24780979.545    24780983.943
 -17448194.61449 -13548477.96947  21367150.371    21367149.920    21367153.672
 -26245786.81249 -20400009.21148  20451368.867    20451369.282    20451371.848
  -4502329.83649  -3470284.42445  24496763.895    24496763.194    24496767.989
 -18201876.44649 -14153714.81447  22121062.924    22121062.927    22121066.735
 10  4 10  1 32 30.0000000  0  8G 2G29G 8G 4G10G 5G 7G15
 -21340662.96949 -16599865.57647  20727878.845    20727879.048    20727880.057
 -15387279.76549 -11963330.39947  21758590.191    21758590.551    21758593.045
  -2866088.33549  -2210552.92045  24240067.890    24240067.131    24240072.933
   1879042.09149   1518389.75344  24799041.178    24799043.659    24799047.529
 -17383456.71149 -13498032.87347  21379469.603    21379468.932    21379473.207
 -26226756.45149 -20385180.37148  20454990.247    20454990.805    20454993.014
  -4497807.98549  -3466760.89245  24497624.058    24497625.097    24497628.869
 -18294455.71049 -14225854.49747  22103445.605    22103445.473    22103449.271
 10  4 10  1 33  0.0000000  0  8G 2G29G 8G 4G10G 5G 7G15
 -21291032.66949 -16561192.64747  20737323.245    20737322.810    20737324.411
 -15412483.54749 -11982969.72047  21753794.073    21753795.071    21753797.132
  -2921225.59449  -2253516.98645  24229575.538    24229575.894    24229581.119
   1974065.14848   1592433.55044  24817123.486    24817124.832    24817130.277
 -17318532.95149 -13447442.95847  21391824.241    21391823.888    21391827.468
 -26207447.89949 -20370134.75548  20458664.523    20458665.031    20458667.305
  -4492753.60349  -3462822.37845  24498585.846    24498586.292    24498590.606
 -18386701.87949 -14297734.61147  22085891.642    22085891.426    22085895.324
 10  4 10  1 33 30.0000000  0  8G 2G29G 8G 4G10G 5G 7G15
 -21240991.80349 -16522199.80047  20746845.714    20746845.688    20746846.910
 -15437117.15349 -12002164.74647  21749106.501    21749106.887    21749109.290
  -2976000.02349  -2296198.33545  24219152.341    24219152.080    24219158.027
   2069193.13849   1666559.07444  24835225.868    24835229.508    24835231.785
 -17253425.01449 -13396709.52847  21404213.871    21404213.052    21404217.422
 -26187862.03449 -20354873.05448  20462391.580    20462392.111    20462394.400
  -4487166.44549  -3458468.71145  24499649.101    24499649.236    24499654.759
 -18478613.02449 -14369353.67647  22068401.499    22068402.043    22068404.724
 10  4 10  1 34  0.0000000  0  8G 2G29G 8G 4G10G 5G 7G15
 -21190540.29149 -16482886.97347  20756446.335    20756446.301    20756447.546
 -15461179.18549 -12020914.38747  21744527.695    21744527.947    21744530.819
  -3030408.63549  -2338594.62045  24208798.616    24208798.478    24208804.026
   2164425.77349   1740766.21244  24853348.111    24853348.455    24853357.859
 -17188133.85749 -13345833.33847  21416638.400    21416638.010    21416641.728
 -26167999.34249 -20339395.64648  20466171.373    20466172.074    20466174.097
  -4481045.78149  -3453699.35445  24500813.809    24500814.049    24500820.388
 -18570186.67849 -14440709.75647  22050975.624    22050976.037    22050979.322
 10  4 10  1 34 30.0000000  0  8G 2G29G 8G 4G10G 5G 7G15
 -21139678.68649 -16443254.58547  20766124.978    20766125.011    20766126.531
 -15484669.15149 -12039218.26347  21740057.715    21740057.711    21740060.384
  -3084449.65749  -2380704.48245  24198514.934    24198514.337    24198520.951
   2259761.50549   1815053.60844  24871489.697    24871491.055    24871496.636
 -17122661.17649 -13294815.69447  21429097.493    21429097.055    21429101.137
 -26147860.98949 -20323703.43648  20470003.600    20470004.081    20470006.491
  -4474391.97249  -3448514.54645  24502080.118    24502081.152    24502084.467
 -18661421.15449 -14511801.54347  22033614.284    22033615.026    22033617.814
 10  4 10  1 35  0.0000000  0  8G 2G29G 8G 4G10G 5G 7G15
 -21088406.44949 -16403302.22947  20775881.830    20775881.816    20775883.095
 -15507585.92649 -12057075.49847  21735696.737    21735697.290    21735699.891
  -3138119.33649  -2422524.99945  24188301.988    24188302.657    24188307.522
   2355200.17949   1889421.28144  24889651.296    24889654.011    24889659.495
 -17057007.31749 -13243656.88247  21441591.068    21441590.246    21441594.575
 -26127447.47149 -20307796.81448  20473888.193    20473888.852    20473890.895
  -4467203.78649  -3442913.34245  24503448.186    24503449.375    24503453.585
 -18752313.57249 -14582626.79247  22016318.146    22016318.710    22016321.489
 10  4 10  1 35 30.0000000  0  8G 2G29G 8G 4G10G 5G 7G15
 -21036724.41449 -16363030.55247  20785716.653    20785716.628    20785717.917
 -15529928.78749 -12074485.53147  21731445.059    21731445.783    21731447.992
  -3191415.57349  -2464054.50945  24178159.958    24178160.078    24178164.802
   2450740.76348   1963868.35844  24907832.076    24907833.246    24907838.076
 -16991173.94849 -13192358.18847  21454118.785    21454118.333    21454122.141
 -26106759.87049 -20291676.61748  20477824.903    20477825.516    20477827.725
  -4459481.41449  -3436895.88045  24504917.760    24504918.208    24504922.745
 -18842861.73349 -14653183.77847  21999087.426    21999087.988    21999090.680
 10  4 10  1 36  0.0000000  0  8G 2G29G 8G 4G10G 5G 7G15
 -20984631.11549 -16322438.40747  20795629.677    20795629.445    20795631.154
 -15551695.11949 -12091446.31547  21727303.190    21727303.611    21727305.839
  -3244333.93849  -2505289.58945  24168090.015    24168090.049    24168094.804
   2546383.76449   2038395.20244  24926032.461    24926033.526    24926041.295
 -16925160.49449 -13140919.16647  21466680.684    21466679.847    21466684.534
 -26085797.68449 -20275342.46448  20481813.885    20481814.555    20481816.777
  -4451222.89749  -3430460.65345  24506489.286    24506488.341    24506492.759
 -18933062.33049 -14723469.94547  21981922.835    21981923.491    21981925.961
 10  4 10  1 36 30.0000000  0  8G 2G29G 8G 4G10G 5G 7G15
 -20932130.99449 -16281529.26047  20805620.101    20805620.119    20805621.565
 -15572888.35449 -12107960.53247  21723270.286    21723270.713    21723272.674
  -3296876.18349  -2546231.55845  24158091.491    24158091.491    24158097.454
   2642124.37248   2112998.12144  24944251.514    24944251.044    24944259.605
 -16858972.26549 -13089343.96347  21479275.906    21479275.627    21479279.664
 -26064565.14149 -20258797.63848  20485854.316    20485855.068    20485857.193
  -4442432.02849  -3423610.61145  24508161.993    24508161.393    24508166.027
 -19022916.93849 -14793486.50747  21964824.070    21964824.438    21964827.286
 10  4 10  1 37  0.0000000  0  8G 2G29G 8G 4G10G 5G 7G15
 -20879221.00449 -16240300.73547  20815688.544    20815688.769    20815689.690
 -15593504.51749 -12124025.08647  21719347.198    21719347.539    21719349.653
  -3349035.85749  -2586875.44045  24148165.695    24148164.823    24148170.966
   2737965.10248   2187679.07444  24962489.440    24962489.398    24962496.782
 -16792607.61449 -13037631.28047  21491904.684    21491904.294    21491908.312
 -26043060.24349 -20242040.58448  20489946.580    20489947.235    20489949.461
  -4433105.33749  -3416343.06345  24509936.616    24509936.404    24509941.287
 -19112420.18549 -14863229.28747  21947792.167    21947792.959    21947795.220
 10  4 10  1 37 30.0000000  0  8G 2G29G 8G 4G10G 5G 7G15
 -20825901.98749 -16198753.48647  20825834.869    20825835.094    20825836.314
 -15613543.48249 -12139639.87547  21715533.912    21715534.628    21715537.060
  -3400811.42849  -2627220.01745  24138313.134    24138313.164    24138317.622
   2833904.00349   2262436.51544  24980746.164    24980747.388    24980754.333
 -16726068.33749 -12985782.52547  21504566.722    21504566.299    21504570.247
 -26021284.88949 -20225072.78748  20494090.298    20494090.786    20494093.020
  -4423243.31249  -3408658.37745  24511813.479    24511814.874    24511817.905
 -19201570.90949 -14932697.36047  21930827.318    21930827.614    21930830.477
 10  4 10  1 38  0.0000000  0  8G 2G29G 8G 4G10G 5G 7G15
 -20772174.85149 -16156888.22147  20836058.889    20836058.887    20836060.282
 -15633005.07149 -12154804.75247  21711830.595    21711831.082    21711833.310
  -3452201.30049  -2667264.05045  24128534.062    24128534.413    24128538.498
   2929939.78549   2337269.37444  24999021.275    24999019.619    24999030.273
 -16659356.48949 -12933799.30247  21517261.599    21517261.370    21517265.358
 -25999240.37649 -20207895.25748  20498285.223    20498285.782    20498288.049
  -4412846.38349  -3400556.86445  24513792.127    24513792.125    24513796.423
 -19290367.54149 -15001889.53647  21913929.837    21913930.022    21913933.175
 10  4 10  1 38 30.0000000  0  8G 2G29G 8G 4G10G 5G 7G15
 -20718039.93949 -16114705.20747  20846360.410    20846360.355    20846361.847
 -15651888.61049 -12169519.21847  21708237.174    21708237.320    21708239.694
  -3503202.16149  -2707004.94645  24118828.800    24118828.333    24118835.031
   3026072.02149   2412177.48944  25017314.827    25017315.413    25017321.585
 -16592472.31649 -12881681.80147  21529989.265    21529988.729    21529993.049
 -25976927.12449 -20190508.32348  20502531.283    20502531.773    20502534.072
  -4401914.12949  -3392038.23645  24515872.553    24515871.845    24515877.051
 -19378807.45649 -15070803.73847  21897100.187    21897100.393    21897103.645
 10  4 10  1 39  0.0000000  0  8G 2G29G 8G 4G10G 5G 7G15
 -20663496.78649 -16072204.08647  20856739.625    20856739.650    20856741.315
 -15670192.56649 -12183782.05347  21704754.064    21704754.391    21704756.934
  -3553811.35649  -2746440.65145  24109198.071    24109197.380    24109203.512
   3122300.26848   2487160.39244  25035626.703    25035628.235    25035635.928
 -16525416.66349 -12829430.68647  21542749.557    21542749.185    21542753.308
 -25954345.44249 -20172912.21648  20506828.435    20506828.878    20506831.249
  -4390445.78249  -3383101.87045  24518054.963    24518054.694    24518059.121
 -19466888.03949 -15139437.95247  21880339.012    21880339.386    21880342.565
 10  4 10  1 39 30.0000000  0  8G 2G29G 8G 4G10G 5G 7G15
 -20608546.14949 -16029385.44247  20867196.407    20867196.530    20867198.048
 -15687916.47849 -12197592.90247  21701381.312    21701381.426    21701384.215
  -3604026.18149  -2785569.04545  24099642.522    24099641.915    24099648.490
   3218623.34049   2562217.10244  25053956.718    25053957.396    25053963.369
 -16458191.46349 -12777047.43847  21555542.019    21555541.839    21555545.891
 -25931496.20349 -20155107.62548  20511176.521    20511177.217    20511179.169
  -4378441.62749  -3373748.01045  24520339.032    24520338.813    24520343.266
 -19554607.46349 -15207790.73547  21863646.546    21863646.672    21863649.590
 10  4 10  1 40  0.0000000  0  8G 2G29G 8G 4G10G 5G 7G15
 -20553188.40349 -15986249.56947  20877730.617    20877730.908    20877731.974
 -15705059.93149 -12210951.45147  21698119.013    21698119.534    21698122.171
  -3653844.62349  -2824388.57945  24090162.388    24090162.418    24090168.156
   3315040.11249   2637346.91144  25072304.421    25072304.785    25072311.455
 -16390797.94749 -12724533.05747  21568366.717    21568365.911    21568370.082
 -25908380.51949 -20137095.41748  20515575.338    20515576.012    20515578.310
  -4365901.74049  -3363976.67245  24522725.147    24522725.011    24522730.892
 -19641963.72249 -15275860.53347  21847023.119    21847023.241    21847026.418
 10  4 10  1 40 30.0000000  0  8G 2G29G 8G 4G10G 5G 7G15
 -20497424.09649 -15942796.89147  20888342.287    20888342.272    20888343.414
 -15721622.38449 -12223857.26547  21694967.320    21694968.056    21694969.888
  -3703263.93149  -2862897.10245  24080758.253    24080758.078    24080762.877
   3411549.92049   2712549.19844  25090669.742    25090671.060    25090677.578
 -16323237.04849 -12671888.22747  21581223.152    21581222.541    21581226.496
 -25884999.45049 -20118876.41148  20520024.651    20520025.262    20520027.509
  -4352826.07249  -3353787.85645  24525213.130    24525213.618    24525217.117
 -19728954.75049 -15343645.73047  21830469.365    21830469.810    21830473.033
 10  4 10  1 41  0.0000000  0  8G 2G29G 8G 4G10G 5G 7G15
 -20441253.45649 -15899027.59847  20899031.204    20899031.192    20899032.622
 -15737603.47349 -12236310.07747  21691926.238    21691926.332    21691929.365
  -3752281.89449  -2901092.88245  24071430.343    24071430.006    24071435.979
   3508151.48948   2787822.91644  25109052.380    25109053.404    25109061.452
 -16255510.29649 -12619114.17247  21594111.140    21594110.768    21594114.677
 -25861353.81849 -20100451.25448  20524524.308    20524525.057    20524526.951
  -4339214.60249  -3343181.53045  24527803.252    24527803.435    24527806.883
 -19815578.88549 -15411145.03847  21813985.346    21813985.632    21813988.675
 10  4 10  1 41 30.0000000  0  8G 2G29G 8G 4G10G 5G 7G15
 -20384677.72249 -15854942.64547  20909797.286    20909797.458    20909798.434
 -15753002.73049 -12248309.51147  21688995.891    21688996.370    21688998.919
  -3800896.13549  -2938974.07545  24062179.242    24062178.890    24062184.070
   3604843.70849   2863167.33044  25127452.276    25127453.226    25127461.560
 -16187618.94649 -12566211.84847  21607030.478    21607029.904    21607034.233
 -25837444.74749 -20081820.82248  20529074.051    20529074.587    20529076.871
  -4325067.33249  -3332157.67445  24530495.365    24530496.711    24530500.170
 -19901834.07749 -15478356.85947  21797571.618    21797572.594    21797574.658
 10  4 10  1 42  0.0000000  0  8G 2G29G 8G 4G10G 5G 7G15
 -20327696.53249 -15810541.75547  20920640.464    20920640.532    20920641.958
 -15767819.62049 -12259855.15347  21686176.324    21686177.242    21686179.231
  -3849104.22349  -2976538.79345  24053005.624    24053004.851    24053011.866
   3701625.85849   2938581.80844  25145869.280    25145868.368    25145878.251
 -16119564.12449 -12513182.15347  21619980.863    21619980.699    21619984.731
 -25813272.81749 -20062985.56148  20533673.806    20533674.363    20533676.484
  -4310384.45749  -3320716.46845  24533289.421    24533291.076    24533295.138
 -19987718.28349 -15545279.59647  21781228.447    21781229.199    21781231.976
 10  4 10  1 42 30.0000000  0  8G 2G29G 8G 4G10G 5G 7G15
 -20270310.64049 -15765825.50847  20931560.617    20931560.592    20931562.133
 -15782053.85649 -12270946.78047  21683467.687    21683468.047    21683470.384
  -3896904.23849  -3013785.52045  24043909.576    24043909.298    24043914.721
   3798496.71749   3014065.39244  25164303.575    25164304.524    25164312.118
 -16051347.32949 -12460026.23747  21632962.173    21632961.952    21632965.887
 -25788839.30749 -20043946.48048  20538323.371    20538323.994    20538326.206
  -4295166.33649  -3308858.22145  24536185.250    24536185.902    24536190.833
 -20073229.59549 -15611911.77347  21764956.189    21764956.884    21764959.113
 10  4 10  1 43  0.0000000  0  8G 2G29G 8G 4G10G 5G 7G15
 -20212520.03149 -15720793.89547  20942557.836    20942557.939    20942559.343
 -15795704.11849 -12281583.35547  21680870.122    21680870.436    21680872.949
  -3944292.67349  -3050711.54845  24034891.795    24034891.721    24034896.157
   3895456.03149   3089617.90744  25182754.392    25182755.971    25182762.173
 -15982968.73649 -12406744.24847  21645974.174    21645973.364    21645978.220
 -25764143.91549 -20024703.32948  20543022.759    20543023.271    20543025.419
  -4279412.04149  -3296582.15845  24539183.003    24539183.886    24539187.726
 -20158365.19149 -15678251.18047  21748755.451    21748755.710    21748758.281
 10  4 10  1 43 30.0000000  0  8G 2G29G 8G 4G10G 5G 7G15
 -20154325.35649 -15675447.42947  20953631.960    20953632.152    20953633.423
 -15808770.65049 -12291765.07447  21678383.632    21678384.047    21678386.828
  -3991267.32349  -3087315.14045  24025952.801    24025952.359    24025958.254
   3992502.54149   3165238.36544  25201221.776    25201222.886    25201231.732
 -15914430.07549 -12353337.52846  21659016.709    21659016.045    21659020.262
 -25739188.22749 -20005257.35448  20547771.665    20547772.163    20547774.484
  -4263122.17249  -3283888.77745  24542282.948    24542283.591    24542288.251
 -20243123.70049 -15744296.76047  21732626.355    21732626.366    21732629.059
 10  4 10  1 44  0.0000000  0  8G 2G29G 8G 4G10G 5G 7G15
 -20095728.19849 -15629787.33747  20964782.696    20964782.723    20964784.272
 -15821254.04649 -12301492.40647  21676008.094    21676008.432    21676010.967
  -4037827.35249  -3123595.65545  24017092.736    24017092.443    24017097.935
   4089634.22649   3240925.17444  25219705.647    25219706.920    25219712.791
 -15845733.86549 -12299808.04946  21672089.202    21672088.645    21672092.289
 -25713974.46849 -19985610.28148  20552569.637    20552570.162    20552572.426
  -4246298.08449  -3270779.09945  24545484.578    24545486.064    24545489.983
 -20327504.35049 -15810047.90647  21716569.132    21716568.972    21716571.998
 10  4 10  1 44 30.0000000  0  8G 2G29G 8G 4G10G 5G 7G15
 -20036728.24549 -15583813.38547  20976010.096    20976010.070    20976011.379
 -15833152.67649 -12310764.07247  21673743.924    21673744.189    21673746.811
  -4083969.10849  -3159550.25845  24008312.272    24008312.001    24008317.503
   4186851.05149   3316678.34844  25238205.466    25238206.903    25238215.003
 -15776880.06749 -12246155.76746  21685191.602    21685191.284    21685195.282
 -25688502.07149 -19965761.67448  20557416.870    20557417.506    20557419.734
  -4228938.74649  -3257252.33745  24548788.170    24548790.316    24548792.092
 -20411503.80749 -15875502.01147  21700584.453    21700584.638    21700588.139
 10  4 10  1 45  0.0000000  0  8G 2G29G 8G 4G10G 5G 7G15
 -19977325.64049 -15537525.67447  20987314.095    20987314.045    20987315.565
 -15844465.90149 -12319579.58947  21671591.128    21671591.230    21671594.096
  -4129689.99049  -3195176.89445  23999611.814    23999612.384    23999616.824
   4284152.67249   3392497.54744  25256721.420    25256721.605    25256729.791
 -15707869.21549 -12192381.11146  21698323.974    21698323.243    21698327.798
 -25662771.29549 -19945711.72848  20562313.253    20562313.806    20562316.128
  -4211044.03549  -3243308.40845  24552193.553    24552193.350    24552198.638
 -20495119.62649 -15940657.18247  21684672.850    21684673.423    21684676.302
 10  4 10  1 45 30.0000000  0  8G 2G29G 8G 4G10G 5G 7G15
 -19917520.62549 -15490924.39847  20998694.560    20998694.616    20998695.760
 -15855193.34549 -12327938.64447  21669549.640    21669549.733    21669552.619
  -4174987.68449  -3230473.78945  23990991.980    23990992.541    23990997.832
   4381537.95649   3468382.01044  25275253.452    25275254.056    25275261.855
 -15638702.16949 -12138484.74746  21711486.118    21711485.721    21711489.842
 -25636783.38549 -19925461.42448  20567258.549    20567259.123    20567261.453
  -4192613.87749  -3228947.23545  24555700.557    24555700.712    24555705.154
 -20578350.18349 -16005512.15247  21668834.640    21668835.357    21668837.693
 10  4 10  1 46  0.0000000  0  8G 2G29G 8G 4G10G 5G 7G15
 -19857313.85749 -15444010.06847  21010151.585    21010151.815    21010153.224
 -15865334.47949 -12335840.83047  21667619.853    21667620.119    21667622.900
  -4219859.44449  -3265438.78145  23982453.140    23982452.743    23982458.532
   4479006.18149   3544331.03044  25293801.330    25293800.416    25293809.011
 -15569380.70149 -12084468.05146  21724677.610    21724676.739    21724681.321
 -25610538.91449 -19905011.19848  20572252.718    20572253.275    20572255.637
  -4173648.75349  -3214169.24445  24559309.519    24559310.603    24559314.453
 -20661193.13349 -16070065.09047  21653070.126    21653070.531    21653073.837
 10  4 10  1 46 30.0000000  0  8G 2G29G 8G 4G10G 5G 7G15
 -19796706.43649 -15396783.53547  21021684.854    21021684.830    21021686.004
 -15874889.69349 -12343286.46047  21665801.573    21665801.518    21665804.191
  -4264304.19849  -3300071.04845  23973995.551    23973995.478    23974001.177
   4576555.58949   3620343.31144  25312364.410    25312364.375    25312373.816
 -15499906.25349 -12030332.15646  21737898.078    21737897.617    21737901.622
 -25584039.41949 -19884362.24648  20577295.388    20577296.114    20577298.389
  -4154149.39649  -3198974.94245  24563020.375    24563021.824    24563024.928
 -20743647.48749 -16134315.22947  21637379.559    21637380.323    21637382.940
 10  4 10  1 47  0.0000000  0  8G 2G29G 8G 4G10G 5G 7G15
 -19735699.00649 -15349245.31147  21033294.155    21033294.113    21033295.728
 -15883859.01149 -12350275.55247  21664094.709    21664095.039    21664097.538
  -4308319.10049  -3334368.34645  23965619.726    23965619.397    23965624.908
   4674185.14949   3696418.08944  25330943.021    25330945.811    25330951.068
 -15430279.94849 -11976077.93346  21751147.567    21751146.884    21751151.688
 -25557285.58049 -19863515.11148  20582386.514    20582387.160    20582389.451
  -4134116.02349  -3183364.50445  24566832.711    24566832.126    24566837.128
 -20825711.41749 -16198261.14147  21621763.392    21621764.074    21621766.654
 10  4 10  1 47 30.0000000  0  8G 2G29G 8G 4G10G 5G 7G15
 -19674291.08449 -15301395.01747  21044979.770    21044979.634    21044981.353
 -15892241.25149 -12356807.17747  21662499.533    21662499.873    21662502.665
  -4351901.01249  -3368328.27045  23957326.447    23957325.968    23957331.608
   4771894.85549   3772555.30744  25349536.829    25349536.811    25349546.090
 -15360501.97749 -11921705.52246  21764425.868    21764424.932    21764429.990
 -25530277.37049 -19842469.76548  20587525.998    20587526.562    20587529.036
  -4113548.05549  -3167337.50545  24570746.511    24570746.666    24570749.194
 -20907381.81949 -16261900.40847  21606222.013    21606222.623    21606225.237
 10  4 10  1 48  0.0000000  0  8G 2G29G 8G 4G10G 5G 7G15
 -19612484.12549 -15253233.78747  21056741.252    21056741.121    21056742.974
 -15900036.95449 -12362881.76247  21661016.122    21661016.081    21661019.377
  -4395048.79649  -3401949.91145  23949115.605    23949114.863    23949120.553
   4869683.00749   3848753.57744  25368145.332    25368146.428    25368153.490
 -15290574.68549 -11867216.76846  21777732.647    21777732.539    21777735.937
 -25503016.58749 -19821227.61248  20592713.602    20592714.231    20592716.508
  -4092446.68249  -3150894.86545  24574762.081    24574761.127    24574766.653
 -20988657.72749 -16325232.27347  21590755.776    21590756.270    21590758.709
 10  4 10  1 48 30.0000000  0  8G 2G29G 8G 4G10G 5G 7G15
 -19550278.56949 -15204761.96447  21068578.555    21068578.756    21068580.179
 -15907245.66949 -12368498.95647  21659644.354    21659644.560    21659647.339
  -4437759.43649  -3435230.91345  23940988.112    23940987.939    23940993.365
   4967548.93149   3925012.48744  25386768.905    25386771.544    25386776.507
 -15220498.44849 -11812611.94446  21791067.667    21791067.548    21791071.654
 -25475503.73949 -19799789.04048  20597949.123    20597949.626    20597951.933
  -4070811.92949  -3134036.61945  24578878.989    24578879.436    24578884.080
 -21069537.10849 -16388255.15247  21575364.870    21575365.195    21575368.280
 10  4 10  1 49  0.0000000  0  8G 2G29G 8G 4G10G 5G 7G15
 -19487675.68349 -15155980.52947  21080491.542    21080491.489    21080492.937
 -15913867.75849 -12373659.04147  21658384.208    21658384.802    21658387.406
  -4480031.52549  -3468170.18245  23932944.059    23932942.948    23932948.787
   5065490.75649   4001330.53644  25405406.999    25405405.354    25405416.067
 -15150275.41949 -11757892.73746  21804430.673    21804431.156    21804434.410
 -25447740.16849 -19778155.09748  20603232.336    20603232.959    20603235.212
  -4048644.82249  -3116763.53645  24583097.369    24583097.516    24583102.814
 -21150018.74449 -16450968.10047  21560049.695    21560049.758    21560052.750
 10  4 10  1 49 30.0000000  0  8G 2G29G 8G 4G10G 5G 7G15
 -19424674.48549 -15106888.72947  21092480.316    21092480.460    21092482.051
 -15919902.08349 -12378361.12447  21657235.904    21657235.788    21657238.885
  -4521861.51049  -3500764.95745  23924984.026    23924983.908    23924989.397
   5163508.94349   4077708.07844  25424059.455    25424059.190    25424067.115
 -15079904.92149 -11703058.62446  21817821.896    21817821.447    21817825.933
 -25419725.31649 -19756325.35547  20608563.360    20608563.898    20608566.224
  -4025944.38149  -3099074.86445  24587417.108    24587416.626    24587420.059
 -21230099.36949 -16513368.56947  21544810.796    21544811.068    21544814.222
 10  4 10  1 50  0.0000000  0  8G 2G29G 8G 4G10G 5G 7G15
 -19361277.13849 -15057488.23547  21104544.418    21104544.378    21104545.934
 -15925349.37549 -12382605.79147  21656199.255    21656199.465    21656202.562
  -4563248.54249  -3533014.56445  23917108.335    23917108.181    23917113.833
   5261601.32549   4154143.43244  25442726.049    25442725.078    25442733.424
 -15009389.38249 -11648111.48846  21831240.531    21831239.887    21831244.384
 -25391461.14449 -19734301.33947  20613941.862    20613942.355    20613944.768
  -4002712.28149  -3080971.92345  24591837.926    24591838.265    24591840.884
 -21309778.29049 -16575456.02647  21529648.376    21529648.914    21529651.769
 10  4 10  1 50 30.0000000  0  7G 2G29G 8G10G 5G 7G15
 -19297483.22349 -15007778.72447  21116683.988    21116683.934    21116685.582
 -15930208.64349 -12386392.25047  21655274.603    21655275.085    21655277.469
  -4604189.57849  -3564916.63945  23909317.324    23909317.384    23909322.812
 -14938729.28749 -11593051.71746  21844686.732    21844686.268    21844690.660
 -25362948.01149 -19712083.32547  20619367.708    20619368.328    20619370.797
  -3978947.95549  -3062454.25545  24596360.075    24596360.244    24596364.136
 -21389052.87349 -16637228.41147  21514562.938    21514563.538    21514566.184
 10  4 10  1 51  0.0000000  0  7G 2G29G 8G10G 5G 7G15
 -19233294.17649 -14957761.33147  21128898.829    21128898.828    21128900.441
 -15934480.63949 -12389721.09147  21654461.723    21654461.898    21654464.592
  -4644683.30249  -3596470.15745  23901611.597    23901611.429    23901616.436
 -14867925.84749 -11537880.24146  21858160.148    21858159.601    21858163.788
 -25334187.18849 -19689672.31247  20624840.728    20624841.429    20624843.818
  -3954652.57049  -3043522.76045  24600983.518    24600983.703    24600988.821
 -21467922.06449 -16698684.90647  21499554.628    21499554.998    21499557.884
 10  4 10  1 51 30.0000000  0  7G 2G29G 8G10G 5G 7G15
 -19168710.00349 -14907436.03347  21141188.864    21141188.760    21141190.322
 -15938164.98249 -12392592.02447  21653760.575    21653761.163    21653763.599
  -4684726.57249  -3627672.66945  23893991.762    23893991.784    23893997.561
 -14796979.81149 -11482597.66046  21871660.838    21871660.305    21871665.004
 -25305178.75849 -19667068.35947  20630360.916    20630361.598    20630363.912
  -3929826.05449  -3024177.43845  24605707.813    24605707.653    24605713.539
 -21546383.41849 -16759823.59947  21484623.882    21484624.134    21484627.210
 10  4 10  1 52  0.0000000  0  7G 2G29G 8G10G 5G 7G15
 -19103733.94349 -14856805.38047  21153553.433    21153553.460    21153555.073
 -15941263.84249 -12395006.74147  21653170.966    21653171.831    21653174.269
  -4724319.90849  -3658524.58445  23886457.331    23886456.111    23886462.877
 -14725894.68449 -11427206.68446  21885187.834    21885187.270    21885191.487
 -25275926.16249 -19644274.14047  20635927.455    20635928.144    20635930.427
  -3904471.15249  -3004420.37045  24610532.525    24610532.183    24610536.758
 -21624437.56649 -16820644.99947  21469770.649    21469771.516    21469774.016
 10  4 10  1 52 30.0000000  0  7G 2G29G 8G10G 5G 7G15
 -19038363.81649 -14805867.65247  21165992.972    21165992.778    21165994.862
 -15943774.13649 -12396962.84247  21652693.302    21652693.422    21652696.244
  -4763458.08849  -3689021.81945  23879009.589    23879009.656    23879014.629
 -14654668.50049 -11371705.80246  21898741.728    21898741.667    21898745.890
 -25246427.13349 -19621287.89847  20641540.991    20641541.428    20641544.111
  -3878585.90049  -2984250.03145  24615458.168    24615457.204    24615462.167
 -21702079.76749 -16881145.39847  21454995.852    21454996.395    21454999.199
 10  4 10  1 53  0.0000000  0  7G 2G29G 8G10G 5G 7G15
 -18972600.21149 -14754623.32147  21178507.316    21178507.284    21178508.805
 -15945696.30549 -12398460.65247  21652327.551    21652328.185    21652330.199
  -4802139.30749  -3719162.97745  23871648.849    23871648.402    23871654.069
 -14583302.44249 -11316095.92346  21912322.321    21912321.905    21912326.385
 -25216682.73849 -19598110.45747  20647201.161    20647201.750    20647204.238
  -3852170.66749  -2963666.72045  24620485.089    24620485.353    24620489.241
 -21779308.45149 -16941323.56847  21440299.722    21440300.029    21440302.886
 10  4 10  1 53 30.0000000  0  7G 2G29G 8G10G 5G 7G15
 -18906444.96749 -14703073.82347  21191096.289    21191096.349    21191097.977
 -15947031.42149 -12399501.02147  21652073.574    21652074.201    21652076.503
  -4840362.43349  -3748947.18245  23864375.170    23864375.257    23864380.126
 -14511798.39549 -11260378.51146  21925929.078    21925928.795    21925933.040
 -25186694.83149 -19574743.27547  20652907.681    20652908.179    20652910.658
  -3825227.03949  -2942671.69145  24625612.306    24625613.153    24625618.673
 -21856123.24749 -17001179.24047  21425682.383    21425682.748    21425685.432
 10  4 10  1 54  0.0000000  0  7G 2G29G 8G10G 5G 7G15
 -18839898.70849 -14651219.63147  21203759.658    21203759.673    21203761.287
 -15947779.09549 -12400083.64747  21651931.312    21651931.949    21651934.140
  -4878125.41449  -3778372.83545  23857189.151    23857188.962    23857193.762
 -14440157.16749 -11204554.21746  21939562.026    21939561.528    21939566.002
 -25156463.72849 -19551186.58747  20658660.478    20658661.376    20658663.483
  -3797755.42249  -2921265.25145  24630839.840    24630840.304    24630845.219
 -21932521.75549 -17060710.52447  21411144.213    21411144.523    21411147.446
 10  4 10  1 54 30.0000000  0  7G 2G29G 8G10G 5G 7G15
 -18772961.75949 -14599061.01347  21216497.346    21216497.554    21216499.269
 -15947939.40149 -12400208.58047  21651900.813    21651901.371    21651903.804
  -4915425.42249  -3807437.73245  23850091.104    23850091.076    23850096.011
 -14368379.52449 -11148623.61746  21953220.929    21953220.282    21953224.684
 -25125989.69249 -19527440.59747  20664459.576    20664460.142    20664462.502
  -3769755.87449  -2899447.40745  24636168.252    24636169.325    24636172.292
 -22008501.62249 -17119915.60347  21396685.751    21396685.983    21396689.323
 10  4 10  1 55  0.0000000  0  7G 2G29G 8G10G 5G 7G15
 -18705634.76149 -14546598.46147  21229309.327    21229309.425    21229310.814
 -15947511.98549 -12399875.55447  21651982.186    21651982.315    21651985.131
  -4952260.31149  -3836140.20245  23843081.591    23843081.928    23843087.039
 -14296466.48149 -11092587.51346  21966905.477    21966904.848    21966909.515
 -25095273.56349 -19503505.96547  20670304.674    20670305.225    20670307.739
  -3741228.81249  -2877218.50745  24641596.547    24641595.778    24641600.704
 -22084061.32549 -17178793.28047  21382307.204    21382307.696    21382310.437
 10  4 10  1 55 30.0000000  0  7G 2G29G 8G10G 5G 7G15
 -18637918.11249 -14493832.27347  21242195.405    21242195.524    21242197.115
 -15946497.10449 -12399084.75147  21652175.340    21652176.010    21652178.015
  -4988628.18849  -3864478.75245  23836161.036    23836160.889    23836165.434
 -14224419.22149 -11036446.82546  21980615.727    21980615.467    21980619.419
 -25064316.00349 -19479383.20447  20676195.757    20676196.477    20676198.765
  -3712174.85649  -2854579.05345  24647125.211    24647126.050    24647130.152
 -22159199.07449 -17237342.16247  21368008.895    21368009.245    21368012.103
 10  4 10  1 56  0.0000000  0  7G 2G29G 8G10G 5G 7G15
 -18569813.62149 -14440763.88047  21255155.314    21255155.252    21255157.121
 -15944895.91249 -12397837.09147  21652480.058    21652480.090    21652483.163
  -5024527.87949  -3892452.50645  23829329.438    23829329.578    23829333.928
 -14152239.07649 -10980202.58446  21994351.207    21994351.028    21994355.659
 -25033118.59949 -19455073.54847  20682132.451    20682133.057    20682135.352
  -3682595.86649  -2831530.50245  24652754.161    24652754.413    24652759.236
 -22233914.04149 -17295561.60547  21353791.043    21353791.408    21353794.604
 10  4 10  1 56 30.0000000  0  7G 2G29G 8G10G 5G 7G15
 -18501321.49049 -14387393.42947  21268188.926    21268188.759    21268190.814
 -15942707.56649 -12396131.90647  21652896.460    21652896.921    21652899.485
  -5059956.29549  -3920059.02945  23822587.660    23822587.606    23822592.144
 -14079926.68249 -10923855.30446  22008111.847    22008111.262    22008115.642
 -25001681.47249 -19430577.09647  20688114.720    20688115.326    20688117.504
  -3652491.68549  -2808072.69045  24658482.506    24658482.668    24658487.527
 -22308203.74749 -17353449.67647  21339654.195    21339654.635    21339657.273
 10  4 10  1 57  0.0000000  0  7G 2G29G 8G10G 5G 7G15
 -18432443.32849 -14333722.17147  21281296.037    21281295.835    21281297.750
 -15939933.52149 -12393970.32847  21653424.385    21653424.736    21653427.334
  -5094912.81949  -3947297.84445  23815935.629    23815934.821    23815941.479
 -14007483.61349 -10867406.18346  22021897.302    22021896.438    22021901.063
 -24970006.46849 -19405895.28447  20694142.261    20694142.803    20694145.163
  -3621863.99849  -2784206.95745  24664310.833    24664309.824    24664314.436
 -22382067.78249 -17411006.05647  21325598.319    21325598.595    21325601.551
 10  4 10  1 57 30.0000000  0  7G 2G29G 8G10G 5G 7G15
 -18363179.68449 -14279750.54347  21294476.505    21294476.780    21294478.110
 -15936573.68049 -12391352.28847  21654063.759    21654064.013    21654066.742
  -5129394.88349  -3974166.95645  23809374.027    23809373.054    23809378.401
 -13934910.61249 -10810855.81846  22035707.496    22035706.678    22035711.423
 -24938093.62349 -19381028.14947  20700215.100    20700215.669    20700218.195
  -3590712.99949  -2759933.45245  24670238.471    24670239.509    24670243.594
 -22455503.88349 -17468228.97647  21311623.909    21311624.339    21311627.216
 10  4 10  1 58  0.0000000  0  7G 2G29G 8G10G 5G 7G15
 -18293530.67949 -14225478.63447  21307730.269    21307730.035    21307732.116
 -15932627.46549 -12388277.33147  21654814.714    21654815.323    21654818.104
  -5163399.77149  -4000664.23445  23802903.037    23802901.854    23802907.783
 -13862207.92649 -10754204.40746  22049542.340    22049541.920    22049546.035
 -24905943.23349 -19355975.91447  20706333.090    20706333.773    20706336.072
  -3559038.65049  -2735252.15245  24676266.038    24676266.056    24676270.859
 -22528509.74249 -17525116.63947  21297731.336    21297731.837    21297734.381
 10  4 10  1 58 30.0000000  0  7G 2G29G 8G10G 5G 7G15
 -18223498.57549 -14170908.20447  21321056.980    21321056.770    21321058.751
 -15928096.39049 -12384746.64147  21655676.932    21655677.197    21655680.196
  -5196927.59949  -4026789.79645  23796522.811    23796522.330    23796527.181
 -13789377.79549 -10697453.68746  22063401.480    22063400.755    22063405.481
 -24873557.41249 -19330740.22247  20712495.958    20712496.667    20712498.966
  -3526843.11149  -2710164.72245  24682392.751    24682393.964    24682397.403
 -22601084.85549 -17581668.66447  21283920.781    21283921.418    21283923.976
 10  4 10  1 59  0.0000000  0  7G 2G29G 8G10G 5G 7G15
 -18153082.54649 -14116038.61747  21334456.703    21334456.833    21334458.554
 -15922979.81149 -12380759.71547  21656650.606    21656651.132    21656653.897
  -5229974.63149  -4052540.69945  23790234.134    23790233.734    23790238.969
 -13716420.21749 -10640603.65546  22077284.857    22077284.054    22077288.708
 -24840935.48149 -19305320.54747  20718703.705    20718704.200    20718706.693
  -3494126.10249  -2684670.95345  24688618.687    24688619.754    24688623.259
 -22673226.65449 -17637883.03547  21270192.659    21270193.202    21270195.495
 10  4 10  1 59 30.0000000  0  7G 2G29G 8G10G 5G 7G15
 -18082284.38749 -14060871.26647  21347929.227    21347928.936    21347931.068
 -15917278.72549 -12376317.33147  21657735.509    21657735.931    21657738.842
  -5262539.99149  -4077916.27945  23784037.037    23784035.975    23784041.647
 -13643336.67349 -10583655.46646  22091192.227    22091191.816    22091196.741
 -24808078.86049 -19279717.99947  20724956.127    20724956.581    20724959.030
  -3460889.13449  -2658772.06045  24694943.421    24694942.857    24694949.152
 -22744934.25249 -17693759.07447  21256547.152    21256547.518    21256550.156
 10  4 10  2  0  0.0000000  0  7G 2G29G 8G10G 5G 7G15
 -18011105.13249 -14005406.94847  21361474.234    21361473.560    21361475.981
 -15910993.58849 -12371419.83947  21658931.476    21658931.444    21658934.645
  -5294621.29249  -4102914.67745  23777932.102    23777931.720    23777935.780
 -13570127.98349 -10526609.77246  22105123.381    22105122.782    22105127.654
 -24774988.63149 -19253933.41947  20731253.021    20731253.632    20731256.027
  -3427133.05149  -2632468.63745  24701366.687    24701367.799    24701372.053
 -22816206.07049 -17749295.54247  21242984.578    21242985.087    21242987.714
 10  4 10  2  0 30.0000000  0  7G 2G29G 8G10G 5G 7G15
 -17939544.69149 -13949645.60347  21375091.767    21375091.812    21375093.423
 -15904123.96049 -12366066.90547  21660238.688    21660239.108    21660242.026
  -5326216.51249  -4127534.30745  23771919.718    23771919.443    23771924.527
 -13496794.38549 -10469466.73546  22119078.262    22119077.941    22119082.050
 -24741664.59649 -19227966.64847  20737594.407    20737595.082    20737597.187
  -3392857.86149  -2605760.68645  24707889.162    24707888.675    24707893.446
 -22887039.93249 -17804490.74647  21229505.348    21229505.669    21229508.217
 10  4 10  2  1  0.0000000  0  7G 2G29G 8G10G 5G 7G15
 -17867602.86149 -13893587.06347  21388781.857    21388781.984    21388783.545
 -15896669.29949 -12360258.09347  21661657.292    21661657.547    21661660.934
  -5357322.46149  -4151772.68745  23766000.393    23766000.610    23766004.885
 -13423335.49349 -10412226.06946  22133057.081    22133056.664    22133060.554
 -24708106.10249 -19201817.18947  20743980.371    20743980.961    20743983.347
  -3358063.18149  -2578647.96845  24714510.365    24714509.531    24714515.911
 -22957432.73849 -17859342.27147  21216110.052    21216110.612    21216113.355
 10  4 10  2  1 30.0000000  0  7G 2G29G 8G10G 5G 7G15
 -17795283.05249 -13837234.00347  21402543.861    21402543.837    21402545.837
 -15888632.20749 -12353995.44447  21663186.644    21663186.938    21663190.073
  -5387939.66149  -4175630.22545  23760174.014    23760173.454    23760179.468
 -13349755.13949 -10354890.75746  22147059.004    22147058.411    22147062.734
 -24674316.41149 -19175487.57747  20750410.342    20750410.999    20750413.313
  -3322752.33649  -2551133.05445  24721229.605    24721229.619    24721236.060
 -23027385.50949 -17913850.90647  21202798.434    21202798.808    21202801.672
 10  4 10  2  2  0.0000000  0  7G 2G29G 8G10G 5G 7G15
 -17722582.77949 -13780584.46747  21416378.345    21416378.750    21416379.873
 -15880009.96249 -12347276.82647  21664827.430    21664827.852    21664830.817
  -5418062.87649  -4199102.84945  23754441.805    23754441.992    23754446.855
 -13276050.64549 -10297458.71646  22161084.545    22161084.141    22161088.561
 -24640293.07049 -19148975.90047  20756884.796    20756885.467    20756887.693
  -3286923.16349  -2523214.24745  24728047.753    24728047.439    24728052.026
 -23096893.51049 -17968012.97447  21189571.462    21189571.935    21189574.695
 10  4 10  2  2 30.0000000  0  7G 2G29G 8G10G 5G 7G15
 -17649506.25749 -13723641.75247  21430284.289    21430284.053    21430286.441
 -15870806.47449 -12340105.29447  21666578.733    21666578.910    21666582.233
  -5447693.39549  -4222191.55145  23748803.389    23748802.536    23748808.850
 -13202225.97849 -10239933.03946  22175132.973    22175132.086    22175136.608
 -24606039.84549 -19122285.09347  20763403.001    20763403.645    20763405.977
  -3250579.83949  -2494894.76545  24734963.736    24734963.141    24734969.201
 -23165958.45349 -18021829.79747  21176428.847    21176429.183    21176431.828
 10  4 10  2  3  0.0000000  0  8G 2G29G 8G21G10G 5G 7G15
 -17576055.04049 -13666407.07747  21444261.475    21444261.607    21444263.876
 -15861022.47349 -12332481.40947  21668440.510    21668441.460    21668444.028
  -5476830.33749  -4244895.64745  23743258.708    23743258.294    23743263.778
  -1392001.59349  -1059915.18444                                  24877057.010
 -13128282.91249 -10182315.09746  22189203.916    22189203.564    22189207.939
 -24571558.02649 -19095416.16347  20769964.641    20769965.262    20769967.770
  -3213723.76249  -2466175.76345  24741977.415    24741977.715    24741983.752
 -23234579.29049 -18075300.56747  21163370.722    21163371.093    21163373.940
 10  4 10  2  3 30.0000000  0  8G 2G29G 8G21G10G 5G 7G15
 -17502231.61749 -13608882.36447  21458309.591    21458309.641    21458311.510
 -15850660.18949 -12324406.91547  21670412.459    21670412.925    21670415.721
  -5505473.63249  -4267215.07745  23737808.223    23737807.078    23737812.554
  -1491017.96049  -1137070.73744  24858211.215    24858210.519    24858215.040
 -13054223.64749 -10124606.61546  22203296.873    22203295.908    22203300.950
 -24536850.16849 -19068371.09847  20776569.335    20776569.900    20776572.387
  -3176357.56549  -2437059.27345  24749088.037    24749086.934    24749092.410
 -23302756.33449 -18128425.52047  21150397.017    21150397.125    21150400.251
 10  4 10  2  4  0.0000000  0  8G 2G29G 8G21G10G 5G 7G15
 -17428036.33549 -13551067.89547  21472428.503    21472428.757    21472430.406
 -15839719.59049 -12315881.79147  21672494.409    21672494.954    21672497.922
  -5533620.96849  -4289148.04845  23732451.968    23732451.076    23732457.240
  -1590060.13849  -1214246.42244  24839364.185    24839364.246    24839367.272
 -12980048.38749 -10066807.73546  22217411.851    22217411.246    22217416.160
 -24501915.86949 -19041149.58447  20783217.128    20783217.738    20783220.203
  -3138481.28049  -2407545.32245  24756295.443    24756296.912    24756300.434
 -23370487.33049 -18181202.90147  21137508.160    21137508.597    21137511.082
 10  4 10  2  4 30.0000000  0  8G 2G29G 8G21G10G 5G 7G15
 -17353467.44149 -13492962.29947  21486618.595    21486618.504    21486620.423
 -15828198.88949 -12306904.64247  21674686.778    21674687.486    21674690.240
  -5561267.76249  -4310691.00245  23727190.772    23727190.498    23727195.544
  -1689123.75349  -1291438.83744  24820513.282    24820514.825    24820518.057
 -12905755.40949 -10008917.13846  22231549.325    22231548.679    22231553.953
 -24466753.33249 -19013750.22247  20789908.357    20789909.105    20789911.529
  -3100093.56949  -2377632.83645  24763600.827    24763601.415    24763605.313
 -23437768.28749 -18233629.60647  21124705.005    21124705.211    21124708.353
 10  4 10  2  5  0.0000000  0  8G 2G29G 8G21G10G 5G 7G15
 -17278525.88849 -13434566.32247  21500879.476    21500879.331    21500881.806
 -15816098.55049 -12297475.83247  21676989.458    21676989.892    21676993.127
  -5588412.43049  -4331842.66945  23722025.311    23722025.374    23722030.163
  -1788207.17149  -1368646.67644  24801658.480    24801659.978    24801660.160
 -12831345.66349  -9950935.56246  22245709.074    22245708.417    22245712.942
 -24431363.40449 -18986173.67047  20796642.883    20796643.403    20796645.880
  -3061195.52149  -2347322.67745  24771002.925    24771002.302    24771007.710
 -23504597.68749 -18285704.45347  21111987.759    21111988.285    21111991.054
 10  4 10  2  5 30.0000000  0  8G 2G29G 8G21G10G 5G 7G15
 -17203212.44849 -13375880.55747  21515211.190    21515211.479    21515213.181
 -15803418.82249 -12287595.54347  21679402.423    21679402.982    21679405.594
  -5615052.75249  -4352601.34745  23716955.871    23716954.834    23716960.604
  -1887309.29249  -1445869.10045  24782800.039    24782799.585    24782802.130
 -12756819.94249  -9892863.60846  22259890.901    22259890.099    22259895.013
 -24395746.49249 -18958420.24147  20803420.585    20803421.021    20803423.303
  -3021787.98349  -2316615.53345  24778501.743    24778501.191    24778506.032
 -23570973.89849 -18337426.16247  21099356.831    21099357.309    21099359.895
 10  4 10  2  6  0.0000000  0  8G 2G29G 8G21G10G 5G 7G15
 -17127528.07849 -13316905.77447  21529613.557    21529613.779    21529615.524
 -15790160.40049 -12277264.32547  21681925.517    21681926.335    21681928.811
  -5641187.73249  -4372966.25345  23711982.295    23711982.086    23711987.561
  -1986428.20349  -1523104.57945  24763938.350    24763937.962    24763939.958
 -12682178.80349  -9834701.72446  22274094.731    22274093.786    22274098.802
 -24359903.30849 -18930490.51147  20810241.328    20810241.869    20810244.330
  -2981871.72649  -2285511.99545  24786097.405    24786098.711    24786102.260
 -23636895.29049 -18388793.46647  21086812.387    21086812.793    21086815.470
 10  4 10  2  6 30.0000000  0  8G 2G29G 8G21G10G 5G 7G15
 -17051473.83049 -13257642.77347  21544086.243    21544086.619    21544088.315
 -15776324.52049 -12266483.13947  21684558.361    21684558.632    21684561.794
  -5666815.66949  -4392936.05245  23707105.515    23707105.572    23707110.710
  -2085563.08949  -1600352.51345  24745073.752    24745073.582    24745076.589
 -12607423.05749  -9776450.52746  22288320.384    22288320.617    22288324.794
 -24323834.60449 -18902385.03947  20817104.967    20817105.498    20817107.849
  -2941448.20949  -2254013.17645  24793789.643    24793789.137    24793794.481
 -23702361.01749 -18439805.70947  21074354.641    21074355.158    21074357.639
 10  4 10  2  7  0.0000000  0  8G 2G29G 8G21G10G 5G 7G15
 -16975052.13049 -13198093.44347  21558628.835    21558628.862    21558630.810
 -15761912.63349 -12255253.12347  21687300.829    21687301.524    21687304.269
  -5691935.60949  -4412510.01045  23702325.434    23702325.531    23702330.870
  -2184712.65449  -1677611.87845  24726206.232    24726206.833    24726209.453
 -12532554.64149  -9718111.55346  22302567.470    22302567.114    22302571.331
 -24287542.00549 -18874105.10547  20824011.199    20824011.727    20824014.180
  -2900519.67049  -2222120.85345  24801577.927    24801578.015    24801583.255
 -23767370.52949 -18490462.46347  21061983.825    21061984.462    21061987.127
 10  4 10  2  7 30.0000000  0  8G 2G29G 8G21G10G 5G 7G15
 -16898264.94449 -13138259.32747  21573240.984    21573241.046    21573242.675
 -15746926.29949 -12243575.49047  21690152.682    21690153.479    21690155.961
  -5716547.78449  -4431688.32445  23697641.690    23697641.574    23697646.835
  -2283876.85649  -1754882.64645  24707335.991    24707334.928    24707338.678
 -12457575.79949  -9659686.51646  22316835.386    22316834.807    22316839.333
 -24251027.23049 -18845652.04647  20830959.741    20830960.256    20830962.758
  -2859087.98749  -2189836.45545  24809462.264    24809461.447    24809467.025
 -23831923.47849 -18540763.45047  21049699.799    21049700.076    21049703.043
 10  4 10  2  8  0.0000000  0  8G 2G29G 8G21G10G 5G 7G15
 -16821111.59049 -13078139.88247  21587922.897    21587922.902    21587924.725
 -15731364.78049 -12231449.64947  21693113.935    21693114.589    21693116.371
  -5740648.10149  -4450467.76345  23693055.525    23693055.499    23693060.799
  -2383052.57249  -1832162.39645  24688463.450    24688463.712    24688466.295
 -12382485.51649  -9601174.65846  22331124.660    22331124.354    22331128.807
 -24214289.41249 -18817025.18647  20837950.677    20837951.326    20837953.794
  -2817152.70548  -2157159.61245  24817442.277    24817442.912    24817445.981
 -23896016.89049 -18590706.35447  21037503.119    21037503.409    21037506.371
 10  4 10  2  8 30.0000000  0  8G 2G29G 8G21G10G 5G 7G15
 -16743592.51449 -13017735.46047  21602674.387    21602673.920    21602676.424
 -15715228.36249 -12218875.83447  21696184.663    21696185.034    21696187.882
  -5764234.62049  -4468846.86645  23688567.012    23688567.066    23688573.459
  -2482238.15449  -1909449.83245  24669588.946    24669589.079    24669591.127
 -12307283.68449  -9542575.86646  22345435.222    22345434.677    22345438.789
 -24177328.45549 -18788224.44947  20844984.105    20844984.368    20844987.115
  -2774714.95249  -2124091.29245  24825517.453    24825517.552    24825522.920
 -23959649.00549 -18640289.80347  21025394.359    21025395.062    21025397.569
 10  4 10  2  9  0.0000000  0  8G 2G29G 8G21G10G 5G 7G15
 -16665709.42249 -12957047.39347  21617495.039    21617495.239    21617496.920
 -15698518.81849 -12205855.43447  21699364.428    21699364.902    21699367.621
  -5787306.64649  -4486825.05245  23684176.741    23684176.606    23684182.855
  -2581432.36049  -1986743.98945  24650712.785    24650711.747    24650716.394
 -12231972.31049  -9483891.72346  22359766.447    22359765.956    22359771.106
 -24140145.72549 -18759250.90647  20852059.725    20852060.369    20852062.829
  -2731776.00849  -2090632.42245  24833688.857    24833689.894    24833694.250
 -24022818.99749 -18689513.15647  21013373.520    21013373.894    21013376.699
 10  4 10  2  9 30.0000000  0  8G 2G29G 8G21G10G 5G 7G15
 -16587463.11649 -12896076.29547  21632384.770    21632384.882    21632387.145
 -15681236.43249 -12192388.66047  21702653.150    21702653.416    21702656.241
  -5809862.65449  -4504401.13945  23679884.683    23679884.357    23679890.176
  -2680633.20649  -2064043.31745  24631835.376    24631835.165    24631839.082
 -12156551.87549  -9425122.59846  22374118.374    22374117.741    22374123.183
 -24102741.58849 -18730104.84547  20859177.530    20859178.131    20859180.417
  -2688336.97249  -2056783.83745  24841955.327    24841956.581    24841960.671
 -24085525.43849 -18738375.30547  21001440.924    21001441.405    21001444.266
 10  4 10  2 10  0.0000000  0  9G 2G29G 8G21G10G 5G18G 7G15
 -16508855.61149 -12834823.75046  21647343.382    21647343.536    21647345.351
 -15663382.75549 -12178476.72647  21706050.595    21706050.934    21706053.415
  -5831901.48549  -4521574.24645  23675690.799    23675690.770    23675695.769
  -2779840.17049  -2141347.42545  24612956.974    24612956.095    24612959.604
 -12081023.76649  -9366269.56946  22388490.886    22388490.511    22388495.674
 -24065117.86149 -18700787.66947  20866337.097    20866337.775    20866340.182
  -1009673.03559   -760235.13743
  -2644400.17949  -2022547.43545  24850316.141    24850316.294    24850322.683
 -24147767.79049 -18786875.82947  20989596.599    20989596.844    20989599.675
 10  4 10  2 10 30.0000000  0  8G 2G29G 8G21G10G 5G 7G15
 -16429887.83949 -12773290.47346  21662370.529    21662370.603    21662372.206
 -15644958.94149 -12164120.52947  21709556.506    21709556.887    21709559.542
  -5853422.09549  -4538343.54745  23671595.502    23671595.276    23671600.994
  -2879051.28549  -2218654.76545  24594077.715    24594076.725    24594081.035
 -12005388.78449  -9307333.26646  22402883.882    22402883.157    22402888.335
 -24027274.75049 -18671299.54747  20873538.449    20873538.910    20873541.486
  -2599966.70349  -1987924.01345  24858771.311    24858770.621    24858777.135
 -24209544.63749 -18835013.61847  20977840.758    20977840.963    20977844.171
 10  4 10  2 11  0.0000000  0  8G 2G29G 8G21G10G 5G 7G15
 -16350561.77449 -12711478.00946  21677465.773    21677465.393    21677467.674
 -15625966.34649 -12149321.12547  21713170.627    21713171.034    21713173.819
  -5874423.45149  -4554708.21145  23667599.262    23667598.892    23667604.628
  -2978265.91449  -2295964.84345  24575197.807    24575196.276    24575200.067
 -11929648.26149  -9248314.71646  22417296.857    22417296.309    22417300.916
 -23989213.42549 -18641641.38147  20880781.293    20880781.776    20880784.374
  -2555038.16449  -1952914.79145  24867321.117    24867322.801    24867325.894
 -24270855.23849 -18882788.09647  20966173.689    20966173.970    20966177.117
 10  4 10  2 11 30.0000000  0  8G 2G29G 8G21G10G 5G 7G15
 -16270876.80549 -12649385.87246  21692629.334    21692629.315    21692631.270
 -15606404.00649 -12134077.75847  21716893.190    21716893.797    21716896.621
  -5894902.89149  -4570666.20445  23663702.157    23663701.470    23663707.148
  -3077480.77549  -2373275.10945  24556317.818    24556316.336    24556320.354
 -11853801.28449  -9189213.22146  22431730.049    22431729.966    22431734.169
 -23950933.32849 -18611812.74747  20888065.810    20888066.492    20888068.953
  -2509614.19449  -1917519.54945  24875965.015    24875964.588    24875971.345
 -24331697.34249 -18930197.51947  20954595.800    20954596.345    20954599.163
 10  4 10  2 12  0.0000000  0  8G 2G29G 8G21G10G 5G 7G15
 -16190835.32849 -12587015.95146  21707860.736    21707861.530    21707862.528
 -15586274.50349 -12118392.45347  21720723.725    21720724.186    21720726.760
  -5914859.39949  -4586216.72245  23659904.408    23659904.059    23659909.397
  -3176695.28149  -2450585.09845  24537437.858    24537437.476    24537440.237
 -11777849.79149  -9130030.29346  22446183.208    22446182.961    22446187.469
 -23912435.88849 -18581814.76147  20895391.614    20895392.071    20895394.709
  -2463697.55649  -1881740.40445  24884702.831    24884703.598    24884706.379
 -24392070.55149 -18977241.56247  20943107.140    20943107.938    20943110.463
 10  4 10  2 12 30.0000000  0  8G 2G29G 8G21G10G 5G 7G15
 -16110437.78349 -12524368.56546  21723159.954    21723160.149    21723162.045
 -15565578.43149 -12102265.66847  21724661.991    21724662.499    21724665.444
  -5934291.90049  -4601358.90545  23656206.600    23656205.730    23656212.070
  -3275908.17649  -2527893.82445  24518558.188    24518556.397    24518561.268
 -11701794.19849  -9070766.23446  22460656.216    22460656.041    22460660.042
 -23873721.46249 -18551647.69147  20902758.778    20902759.351    20902761.754
  -2417289.11049  -1845577.99745  24893534.326    24893535.694    24893537.450
 -24451973.24149 -19023918.97847  20931708.065    20931708.720    20931711.409
 10  4 10  2 13  0.0000000  0  9G 2G29G 8G21G24G10G 5G 7G15
 -16029685.05949 -12461444.41746  21738526.686    21738527.001    21738528.800
 -15544316.21949 -12085697.73047  21728708.074    21728708.768    21728711.319
  -5953198.69749  -4616091.46945  23652608.463    23652607.561    23652613.482
  -3375117.13849  -2605199.48645  24499679.190    24499679.155    24499682.360
   -841369.71249   -630047.72743
 -11625635.01249  -9011421.45446  22475148.833    22475148.339    22475152.743
 -23834790.14349 -18521311.61247  20910167.097    20910167.702    20910170.324
  -2370389.82849  -1809033.12345  24902458.832    24902460.335    24902463.793
 -24511403.57649 -19070228.31647  20920398.804    20920399.409    20920402.099
 10  4 10  2 13 30.0000000  0  8G 2G29G 8G21G10G 5G 7G15
 -15948579.36849 -12398245.23346  21753960.592    21753960.586    21753963.121
 -15522489.78849 -12068690.14147  21732861.551    21732861.853    21732864.605
  -5971579.03449  -4630413.77745  23649110.863    23649110.841    23649116.447
  -3474320.96849  -2682501.14545  24480801.312    24480801.314    24480804.847
 -11549373.76949  -8951997.16246  22489660.839    22489660.272    22489665.480
 -23795643.50349 -18490807.76047  20917616.453    20917616.825    20917619.742
  -2323001.91749  -1772107.50645  24911476.280    24911476.414    24911483.283
 -24570361.58149 -19116169.60747  20909179.488    20909180.096    20909182.688
 10  4 10  2 14  0.0000000  0  9G 2G29G 8G21G24G10G 5G 7G15
 -15867121.77449 -12334771.83946  21769461.517    21769461.715    21769463.547
 -15500100.18849 -12051243.72847  21737122.115    21737122.743    21737125.523
  -5989431.02749  -4644324.40145  23645713.861    23645714.283    23645719.347
  -3573518.41949  -2759797.84445  24461924.741    24461924.282    24461927.844
   -405649.69449   -285565.59443
 -11473011.09549  -8892493.83446  22504192.161    22504192.262    22504196.654
 -23756282.23649 -18460136.66047  20925106.645    20925107.500    20925109.858
  -2275126.59949  -1734802.11145  24920586.685    24920587.137    24920590.743
 -24628846.06949 -19161741.92247  20898050.276    20898050.601    20898053.566
 10  4 10  2 14 30.0000000  0  9G 2G29G 8G21G24G10G 5G 7G15
 -15785313.49449 -12271025.19346  21785029.169    21785029.398    21785031.454
 -15477148.88949 -12033359.62047  21741489.682    21741490.120    21741493.077
  -6006754.33849  -4657823.04745  23642417.271    23642416.955    23642422.063
  -3672707.49349  -2837087.99545  24443049.714    24443049.229    24443053.002
   -501918.31949   -360580.81743
 -11396548.15749  -8832912.36946  22518742.644    22518741.759    22518746.897
 -23716707.23749 -18429299.01347  20932637.530    20932638.196    20932640.602
  -2226765.72749  -1697118.38045  24929789.453    24929790.705    24929795.250
 -24686856.16949 -19206944.58147  20887011.303    20887011.823    20887014.414
 10  4 10  2 15  0.0000000  0  9G 2G29G 8G21G24G10G 5G 7G15
 -15703157.44449 -12207007.55347  21800663.056    21800663.155    21800664.926
 -15453638.32949 -12015039.72247  21745963.639    21745964.312    21745967.122
  -6023549.31349  -4670910.01545  23639221.232    23639220.658    23639225.904
  -3771888.98049  -2914372.24545  24424176.181    24424175.225    24424178.707
  -2173573.87849  -1189334.44743
 -11319986.89149  -8773254.28946  22533311.825    22533310.624    22533316.038
 -23676920.21049 -18398296.15347  20940208.832    20940209.425    20940211.792
  -2177922.25449  -1659058.56345  24939084.220    24939084.391    24939089.712
 -24744392.13449 -19251777.78447  20876062.526    20876062.952    20876065.670
 10  4 10  2 15 30.0000000  0  9G 2G29G 8G21G24G10G 5G 7G15
 -15620653.31649 -12142718.68447  21816363.098    21816362.986    21816365.401
 -15429568.02449 -11996283.66547  21750544.089    21750544.421    21750547.736
  -6039812.77749  -4683582.81045  23636126.350    23636126.650    23636131.991
  -3871058.40549  -2991647.09945  24405304.881    24405304.399    24405307.438
  -2269773.56149  -1264294.99143
 -11243326.60449  -8713519.04946  22547899.731    22547899.724    22547904.372
 -23636920.30849 -18367127.41547  20947820.563    20947820.945    20947823.646
  -2128595.83449  -1620622.44445  24948470.725    24948471.732    24948474.356
 -24801451.27549 -19296239.43847  20865204.543    20865205.069    20865207.885
 10  4 10  2 16  0.0000000  0  9G 2G29G 8G21G24G10G 5G 7G15
 -15537802.79849 -12078159.90247  21832129.100    21832129.042    21832131.667
 -15404940.16249 -11977093.15047  21755230.674    21755230.927    21755234.157
  -6055544.73249  -4695841.43745  23633132.629    23633132.443    23633137.768
  -3970215.80249  -3068912.57945  24386435.851    24386435.282    24386437.844
  -2365936.37749  -1339227.08343
 -11166568.81949  -8653707.83646  22562506.394    22562505.672    22562510.006
 -23596709.32549 -18335794.19647  20955472.436    20955472.908    20955475.655
  -2078789.20249  -1581812.06745  24957948.964    24957950.720    24957954.068
 -24858033.48849 -19340329.45547  20854437.333    20854437.903    20854440.514
 10  4 10  2 16 30.0000000  0  9G 2G29G 8G21G24G10G 5G 7G15
 -15454604.81149 -12013330.37447  21847961.158    21847961.141    21847963.414
 -15379753.30249 -11957467.05347  21760023.575    21760023.859    21760027.131
  -6070740.89549  -4707682.56945  23630240.917    23630240.615    23630245.742
  -4069356.69749  -3146165.20845  24367569.960    24367569.673    24367571.865
  -2462058.20949  -1414127.21144                                  24260239.975
 -11089711.52949  -8593819.08046  22577131.969    22577131.497    22577135.947
 -23556284.59649 -18304294.42847  20963165.010    20963165.403    20963168.392
  -2028500.67749  -1542626.25745  24967518.306    24967517.547    24967524.427
 -24914135.07749 -19384044.95947  20843761.588    20843762.054    20843764.538
 10  4 10  2 17  0.0000000  0  9G 2G29G 8G21G24G10G 5G 7G15
 -15371061.61549 -11948231.84446  21863858.995    21863858.895    21863861.419
 -15354009.43949 -11937406.92847  21764922.526    21764923.127    21764925.821
  -6085401.10249  -4719106.07045  23627451.313    23627450.836    23627456.328
  -4168481.79449  -3223405.51345  24348706.982    24348705.982    24348709.176
  -2558138.49849  -1488994.89845  24241950.662    24241949.438    24241955.468
 -11012756.56149  -8533854.21546  22591775.984    22591775.729    22591780.953
 -23515648.38049 -18272629.85947  20970897.844    20970898.429    20970901.052
  -1977732.92649  -1503066.96745  24977179.151    24977180.248    24977182.853
 -24969755.83049 -19427385.79447  20833177.289    20833177.701    20833180.346
 10  4 10  2 17 30.0000000  0  9G 2G29G 8G21G24G10G 5G 7G15
 -15287173.79649 -11882864.77246  21879822.313    21879822.154    21879824.689
 -15327708.88849 -11916913.01847  21769927.397    21769927.893    21769930.766
  -6099523.95949  -4730110.85545  23624763.742    23624763.137    23624768.479
  -4267586.35649  -3300629.82345  24329847.989    24329847.417    24329850.678
  -2654174.95649  -1563828.47745  24223675.191    24223674.689    24223681.299
 -10935703.95349  -8473813.26746  22606438.537    22606438.338    22606442.830
 -23474800.33649 -18240800.23147  20978670.958    20978671.688    20978674.203
  -1926486.73149  -1463134.88545  24986930.818    24986930.638    24986938.404
 -25024894.27149 -19470350.79947  20822684.769    20822685.295    20822687.777
 10  4 10  2 18  0.0000000  0  9G 2G29G 8G21G24G10G 5G 7G15
 -15202943.71249 -11817230.99746  21895850.779    21895850.978    21895852.633
 -15300854.69949 -11895987.70347  21775037.597    21775038.425    21775041.154
  -6113109.06449  -4740696.62345  23622178.519    23622178.476    23622183.996
  -4366671.02849  -3377838.63645  24310992.892    24310992.570    24310995.692
  -2750167.36349  -1638627.73145  24205408.585    24205409.983    24205413.971
 -10858555.58849  -8413697.71146  22621119.515    22621119.265    22621122.821
 -23433742.15849 -18208806.86747  20986484.144    20986484.639    20986487.140
  -1874764.96249  -1422832.27045  24996773.202    24996775.702    24996777.204
 -25079550.43349 -19512940.00547  20812284.055    20812284.655    20812287.076
 10  4 10  2 18 30.0000000  0  9G 2G29G 8G21G24G10G 5G 7G15
 -15118372.97449 -11751331.78246  21911944.142    21911944.586    21911946.650
 -15273448.21349 -11874632.02247  21780252.996    21780253.135    21780256.116
  -6126155.90449  -4750862.95845  23619695.794    23619695.085    23619700.364
  -4465734.39849  -3455030.85945  24292141.768    24292142.250    24292144.163
  -2846114.19149  -1713391.47945  24187150.616    24187150.704    24187155.916
 -10781312.44349  -8353508.28846  22635818.428    22635818.119    22635822.988
 -23392474.65349 -18176650.39247  20994337.142    20994337.792    20994340.218
  -1822569.27949  -1382160.30745  25006705.798    25006707.647    25006710.039
 -25133723.62149 -19555152.86847  20801975.254    20801975.542    20801978.457
 10  4 10  2 19  0.0000000  0  9G 2G29G 8G21G24G10G 5G 7G15
 -15033463.05049 -11685168.26646  21928101.993    21928101.901    21928104.227
 -15245490.86449 -11852847.10547  21785573.080    21785573.371    21785576.397
  -6138663.59449  -4760609.17245  23617315.704    23617315.693    23617320.131
  -4564775.27049  -3532205.54845  24273294.886    24273293.878    24273297.702
  -2942013.93749  -1788118.52545  24168901.333    24168900.898    24168907.043
 -10703975.05549  -8293245.44246  22650535.240    22650534.571    22650539.365
 -23350998.62349 -18144331.42847  21002229.789    21002230.398    21002232.836
  -1769901.68749  -1341120.66745  25016728.018    25016729.049    25016734.814
 -25187413.08349 -19596988.79747  20791758.498    20791759.035    20791761.531
 10  4 10  2 19 30.0000000  0  9G 2G29G 8G21G24G10G 5G 7G15
 -14948214.05149 -11618740.54046  21944324.362    21944324.480    21944326.588
 -15216982.66849 -11830632.95047  21790998.038    21790998.566    21791001.638
  -6150629.89349  -4769933.52945  23615038.478    23615038.109    23615043.521
  -4663789.61549  -3609359.55245  24254452.942    24254452.552    24254456.593
  -3037863.68649  -1862806.59145  24150661.380    24150659.906    24150665.926
 -10626543.08349  -8232908.88346  22665270.043    22665269.520    22665274.199
 -23309313.61649 -18111849.61747  21010162.203    21010162.637    21010165.355
  -1716762.40749  -1299713.44145  25026840.497    25026840.449    25026844.585
 -25240616.78749 -19638446.21647  20781634.113    20781634.684    20781637.230
 10  4 10  2 20  0.0000000  0  9G 2G29G 8G21G24G10G 5G 7G15
 -14862627.89649 -11552050.09446  21960610.961    21960611.185    21960613.174
 -15187925.83349 -11807991.29047  21796527.416    21796527.518    21796531.257
  -6162054.37249  -4778835.69445  23612864.292    23612864.224    23612869.403
  -4762777.06049  -3686492.62445  24235616.263    24235617.251    24235618.633
  -3133662.85949  -1937455.28845  24132431.149    24132431.505    24132437.911
 -10549018.11949  -8172499.88046  22680022.657    22680022.907    22680026.516
 -23267420.62049 -18079205.74847  21018134.195    21018134.718    21018137.282
  -1663153.72649  -1257940.46845  25037041.462    25037042.986    25037045.480
 -25293334.09849 -19679524.62847  20771602.319    20771602.819    20771605.229
 10  4 10  2 20 30.0000000  0  9G 2G29G 8G21G24G10G 5G 7G15
 -14776706.88949 -11485098.72646  21976961.253    21976961.626    21976963.607
 -15158322.59449 -11784923.86347  21802160.641    21802160.678    21802164.243
  -6172936.49549  -4787315.23145  23610793.626    23610793.318    23610798.435
  -4861736.60849  -3763603.93245  24216785.018    24216783.929    24216786.771
  -3229410.50549  -2012063.82245  24114211.160    24114212.158    24114216.414
 -10471401.64449  -8112019.55346  22694792.653    22694792.152    22694796.217
 -23225321.27349 -18046401.08547  21026145.472    21026145.772    21026148.368
  -1609078.17249  -1215803.70445  25047331.879    25047333.032    25047337.833
 -25345565.32349 -19720224.26947  20761663.079    20761663.529    20761666.154
 10  4 10  2 21  0.0000000  0  9G 2G29G 8G21G24G10G 5G 7G15
 -14690452.12049 -11417887.27946  21993374.914    21993374.993    21993377.324
 -15128173.86049 -11761431.36947  21807897.750    21807898.076    21807901.117
  -6183275.30249  -4795371.41245  23608826.224    23608825.810    23608831.095
  -4960666.51649  -3840692.15245  24197959.234    24197959.331    24197960.800
  -3325104.77249  -2086630.76045  24096001.308    24096002.615    24096006.424
 -10393694.06149  -8051468.24446  22709579.981    22709579.505    22709584.283
 -23183015.78449 -18013435.79447  21034195.864    21034196.279    21034198.883
  -1554537.25149  -1173304.31045  25057710.738    25057710.768    25057713.425
 -25397309.43349 -19760544.34547  20751816.473    20751816.786    20751819.617
 10  4 10  2 21 30.0000000  0  9G 2G29G 8G21G24G10G 5G 7G15
 -14603864.46649 -11350416.44246  22009852.013    22009851.857    22009854.280
 -15097480.83349 -11737514.75447  21813738.427    21813738.903    21813741.886
  -6193069.81449  -4803003.49145  23606962.368    23606961.820    23606966.989
  -5059564.54249  -3917755.52245  24179139.456    24179138.691    24179142.221
  -3420743.55949  -2161154.45645  24077801.800    24077801.825    24077807.653
 -10315895.29449  -7990845.87246  22724384.629    22724384.516    22724389.620
 -23140504.01449 -17980309.76047  21042285.583    21042286.148    21042288.757
  -1499531.88749  -1130442.97845  25068178.109    25068178.021    25068181.556
 -25448565.02149 -19800483.76047  20742062.811    20742063.338    20742065.714
 10  4 10  2 22  0.0000000  0  9G 2G29G 8G21G24G10G 5G 7G15
 -14516945.21749 -11282687.22846  22026392.271    22026392.336    22026394.400
 -15066244.86249 -11713175.06347  21819682.440    21819683.098    21819686.147
  -6202318.64549  -4810210.35645  23605202.428    23605202.069    23605206.720
  -5158428.72249  -3994792.51545  24160326.306    24160325.305    24160328.176
  -3516325.01849  -2235633.48445  24059613.155    24059612.877    24059617.744
 -10238006.21849  -7930153.13846  22739206.454    22739206.075    22739210.363
 -23097786.76049 -17947023.61047  21050414.470    21050415.201    21050417.527
  -1444063.89449  -1087221.21445  25078733.207    25078735.423    25078737.774
 -25499330.87749 -19840041.55947  20732402.357    20732402.856    20732405.580
 10  4 10  2 22 30.0000000  0  9G 2G29G 8G21G24G10G 5G 7G15
 -14429695.65949 -11214700.62146  22042995.470    22042995.682    22042998.039
 -15034467.87549 -11688413.80347  21825729.352    21825729.972    21825732.909
  -6211021.12849  -4816991.48245  23603546.290    23603545.685    23603550.992
  -5257257.47949  -4071801.91045  24141519.706    24141518.784    24141522.594
  -3611847.89449  -2310066.86645  24041435.733    24041435.770    24041440.972
 -10160027.56849  -7869390.60046  22754045.302    22754045.442    22754050.066
 -23054864.96349 -17913578.07447  21058582.206    21058582.597    21058585.329
  -1388135.53049  -1043640.64245  25089376.341    25089375.747    25089381.427
 -25549606.60649 -19879217.43947  20722835.179    20722835.460    20722838.137
 10  4 10  2 23  0.0000000  0  9G 2G29G 8G21G24G10G 5G 7G15
 -14342119.30149 -11146459.36546  22059660.798    22059661.084    22059663.522
 -15002152.65149 -11663233.13547  21831878.804    21831879.554    21831882.270
  -6219178.01449  -4823347.49945  23601994.001    23601994.079    23601998.963
  -5356050.63149  -4148783.56245  24122719.977    24122719.819    24122722.562
  -3707312.31749  -2384454.70945  24023269.568    24023269.876    24023274.698
 -10081961.80049  -7808560.18446  22768900.743    22768901.118    22768904.829
 -23011740.61049 -17879974.70947  21066788.490    21066788.965    21066791.759
  -1331749.52049   -999703.51045  25100105.888    25100106.128    25100110.684
 -25599392.63649 -19918011.73447  20713361.183    20713361.508    20713364.100
 10  4 10  2 23 30.0000000  0  9G 2G29G 8G21G24G10G 5G 7G15
 -14254215.11449 -11077962.67146  22076388.489    22076388.574    22076391.586
 -14969298.46149 -11637632.49247  21838130.815    21838131.306    21838134.374
  -6226786.34449  -4829276.06245  23600546.213    23600546.382    23600551.091
  -5454804.89349  -4225734.91245  24103927.612    24103927.568    24103930.162
  -3802714.10849  -2458793.74945  24005115.252    24005115.494    24005120.854
 -10003807.47949  -7747660.75946  22783773.139    22783772.443    22783777.201
 -22968412.04549 -17846212.20947  21075033.649    21075034.187    21075036.901
  -1274905.90549   -955409.79145  25110922.767    25110923.180    25110927.276
 -25648686.84249 -19956422.79247  20703980.791    20703981.332    20703983.880
 10  4 10  2 24  0.0000000  0  9G 2G29G 8G21G24G10G 5G 7G15
 -14165984.65049 -11009211.71146  22093178.258    22093178.631    22093180.969
 -14935907.03749 -11611613.23347  21844485.028    21844485.647    21844488.381
  -6233845.55849  -4834776.73345  23599202.960    23599202.622    23599207.214
  -5553517.29249  -4302653.64045  24085143.205    24085142.633    24085146.988
  -3898051.54549  -2533082.63145  23986973.098    23986972.894    23986978.537
  -9925564.85949  -7686692.53146  22798662.207    22798662.115    22798666.779
 -22924879.75649 -17812290.96747  21083317.603    21083318.173    21083320.877
  -1217605.89849   -910760.41845  25121826.584    25121826.571    25121832.563
 -25697487.97749 -19994449.64247  20694694.277    20694694.811    20694697.394
 10  4 10  2 24 30.0000000  0  9G 2G29G 8G21G24G10G 5G 7G15
 -14077429.30749 -10940207.62046  22110029.712    22110029.305    22110031.829
 -14901980.09449 -11585176.67647  21850941.151    21850941.588    21850944.843
  -6240354.27649  -4839848.46845  23597964.320    23597964.599    23597969.286
  -5652186.70449  -4379538.85945  24066366.996    24066366.511    24066370.179
  -3993323.01749  -2607320.10945  23968843.434    23968843.845    23968849.211
  -9847234.66149  -7625656.06046  22813567.981    22813567.256    22813572.681
 -22881144.39449 -17778211.49147  21091640.216    21091640.771    21091643.358
  -1159851.80349   -865757.26545  25132816.917    25132818.852    25132821.599
 -25745795.13849 -20032091.57747  20685501.716    20685502.305    20685504.842
 10  4 10  2 25  0.0000000  0  9G 2G29G 8G21G24G10G 5G 7G15
 -13988550.42849 -10870951.41046  22126942.907    22126942.786    22126945.234
 -14867519.04749 -11558323.94647  21857498.933    21857499.848    21857502.424
  -6246312.33949  -4844491.11845  23596830.515    23596830.514    23596835.356
  -5750811.36149  -4456389.20445  24047599.234    24047599.144    24047602.713
  -4088526.97649  -2681504.97245  23950726.704    23950726.187    23950732.368
  -9768817.61149  -7564551.92746  22828490.303    22828489.905    22828494.457
 -22837206.65949 -17743974.32047  21100001.324    21100001.923    21100004.454
  -1101645.40449   -820401.65045  25143893.017    25143894.054    25143897.847
 -25793607.79649 -20069348.19047  20676403.316    20676403.843    20676406.457
 10  4 10  2 25 30.0000000  0  9G 2G29G 8G21G24G10G 5G 7G15
 -13899350.20849 -10801444.81346  22143917.185    22143917.155    22143919.242
 -14832526.40549 -11531056.97547  21864157.925    21864158.748    21864161.089
  -6251719.49749  -4848704.48045  23595801.688    23595801.417    23595805.767
  -5849390.18949  -4533203.85445  24028840.319    24028840.680    24028843.112
  -4183662.41449  -2755636.44545  23932622.959    23932623.070    23932628.260
  -9690315.22449  -7503381.29346  22843428.858    22843428.833    22843433.203
 -22793067.53049 -17709580.21847  21108400.671    21108401.298    21108404.006
  -1042988.91849   -774695.27645  25155054.795    25155054.248    25155061.244
 -25840925.94749 -20106219.46647  20667398.944    20667399.337    20667402.027
 10  4 10  2 26  0.0000000  0  9G 2G29G 8G21G24G10G 5G 7G15
 -13809830.17849 -10731689.01146  22160952.338    22160952.292    22160955.150
 -14797003.73349 -11503376.99947  21870917.733    21870918.408    21870921.297
  -6256575.15349  -4852488.12145  23594877.779    23594878.116    23594882.946
  -5947921.43649  -4609981.41345  24010090.456    24010089.711    24010093.619
  -4278727.32449  -2829712.97445  23914532.798    23914533.533    23914536.793
  -9611728.02749  -7442144.56146  22858383.610    22858383.560    22858387.696
 -22748727.78549 -17675029.78847  21116838.323    21116838.987    21116841.659
   -983884.38349   -728639.79645  25166302.333    25166301.652    25166307.940
 -25887748.81449 -20142704.81247  20658488.858    20658489.325    20658491.900
 10  4 10  2 26 30.0000000  0  9G 2G29G 8G21G24G10G 5G 7G15
 -13719990.89549 -10661684.44846  22178048.199    22178048.437    22178050.326
 -14760951.73149 -11475284.56247  21877778.249    21877778.829    21877781.718
  -6260877.51149  -4855840.60845  23594059.112    23594058.513    23594064.049
  -6046402.49249  -4686719.86345  23991350.030    23991349.235    23991352.773
  -4373719.27749  -2903732.65445  23896456.504    23896457.127    23896461.675
  -9533055.94249  -7380841.68846  22873354.572    22873354.146    22873359.335
 -22704186.80849 -17640322.55347  21125314.319    21125315.019    21125317.751
   -924332.74349   -682235.92845  25177634.781    25177635.276    25177639.925
 -25934075.02749 -20178803.14647  20649673.319    20649673.838    20649676.349
 10  4 10  2 27  0.0000000  0  9G 2G29G 8G21G24G10G 5G 7G15
 -13629834.38849 -10591432.68146  22195204.453    22195203.610    22195206.831
 -14724372.58949 -11446781.35847  21884738.982    21884739.470    21884742.234
  -6264626.52349  -4858761.91345  23593345.379    23593344.677    23593350.443
  -6144831.65249  -4763417.88545  23972619.426    23972618.861    23972622.270
  -4468637.35749  -2977694.75345  23878394.168    23878393.942    23878399.510
  -9454300.05549  -7319473.50946  22888341.277    22888340.502    22888345.578
 -22659446.10249 -17605459.68847  21133828.214    21133828.615    21133831.332
   -864336.48849   -635485.59945  25189051.680    25189052.722    25189056.930
 -25979904.43449 -20214514.36847  20640952.283    20640952.696    20640955.312
 10  4 10  2 27 30.0000000  0  9G 2G29G 8G21G24G10G 5G 7G15
 -13539361.97749 -10520934.76046  22212420.820    22212420.511    22212423.132
 -14687268.02449 -11417868.73847  21891799.725    21891800.062    21891803.203
  -6267821.25849  -4861251.31845  23592737.396    23592737.088    23592742.767
  -6243207.06349  -4840074.01945  23953899.048    23953898.921    23953901.932
  -4563479.46549  -3051597.68145  23860346.347    23860346.136    23860351.863
  -9375460.55249  -7258040.17446  22903343.865    22903342.776    22903347.604
 -22614505.68349 -17570441.20247  21142380.015    21142380.465    21142383.000
   -803897.07849   -588389.98145  25200552.896    25200553.000    25200558.099
 -26025236.13049 -20249837.75947  20632325.919    20632326.258    20632328.904
 10  4 10  2 28  0.0000000  0  9G 2G29G 8G21G24G10G 5G 7G15
 -13448575.22549 -10450191.90046  22229696.875    22229696.561    22229699.639
 -14649639.50849 -11388547.84147  21898960.199    21898960.605    21898963.412
  -6270461.21549  -4863308.42445  23592235.157    23592234.126    23592240.213
  -6341526.75549  -4916686.73845  23935189.535    23935188.874    23935192.608
  -4658243.91949  -3125440.07245  23842313.400    23842313.590    23842318.473
  -9296538.15849  -7196542.25646  22918362.343    22918361.988    22918366.414
 -22569366.01949 -17535267.46047  21150969.822    21150970.538    21150973.010
   -743016.53649   -540950.59145  25212137.990    25212139.439    25212142.966
 -26070069.40549 -20284772.76847  20623794.390    20623794.734    20623797.437
 10  4 10  2 28 30.0000000  0  9G 2G29G 8G21G24G10G 5G 7G15
 -13357476.74749 -10379206.13646  22247032.477    22247032.750    22247034.840
 -14611490.12249 -11358821.07747  21906219.857    21906220.589    21906223.578
  -6272546.94549  -4864933.65745  23591838.188    23591837.771    23591843.283
  -6439790.17149  -4993255.60945  23916490.791    23916490.698    23916494.138
  -4752929.96749  -3199221.37945  23824295.164    23824295.284    23824300.486
  -9217534.46949  -7134980.99746  22933396.374    22933395.471    22933400.904
 -22524029.21349 -17499940.10247  21159597.123    21159597.575    21159600.346
   -681697.76749   -493169.77345  25223806.452    25223807.212    25223812.331
 -26114405.02949 -20319320.00347  20615357.598    20615357.945    20615360.668
 10  4 10  2 29  0.0000000  0  8G 2G29G 8G21G24G10G 5G15
 -13266067.01449 -10307977.83546  22264427.207    22264427.548    22264429.344
 -14572820.46049 -11328688.89947  21913578.445    21913578.815    21913581.775
  -6274076.57549  -4866125.56245  23591547.138    23591546.822    23591552.031
  -6537994.39949  -5069778.35945  23897803.230    23897802.416    23897806.197
  -4847534.81749  -3272939.41145  23806292.321    23806292.027    23806298.638
  -9138449.23949  -7073356.19346  22948445.873    22948445.352    22948450.194
 -22478494.66649 -17464458.65647  21168262.112    21168262.897    21168265.280
 -26158240.99849 -20353477.89047  20607015.821    20607016.100    20607018.906
 10  4 10  2 29 30.0000000  0  8G 2G29G 8G21G24G10G 5G15
 -13174347.06949 -10236507.80146  22281880.979    22281881.135    22281883.097
 -14533632.16549 -11298152.59847  21921035.687    21921035.973    21921038.567
  -6275049.69349  -4866883.83745  23591361.863    23591361.700    23591366.888
  -6636137.09449  -5146253.15345  23879127.153    23879125.855    23879130.229
  -4942056.32649  -3346592.48745  23788305.305    23788305.349    23788311.300
  -9059282.77049  -7011668.07446  22963510.865    22963510.433    22963515.035
 -22432762.02949 -17428822.85747  21176964.765    21176965.272    21176967.669
 -26201576.78849 -20387246.03447  20598769.269    20598769.469    20598772.124
 10  4 10  2 30  0.0000000  0  8G 2G29G 8G21G24G10G 5G15
 -13082318.67449 -10164797.42446  22299393.412    22299393.511    22299395.998
 -14493927.24049 -11267213.72347  21928591.224    21928591.162    21928594.547
  -6275465.52849  -4867207.84245  23591282.800    23591282.495    23591287.766
  -6734216.58449  -5222678.69345  23860463.066    23860463.325    23860465.778
  -5036493.16849  -3420179.60745  23770334.500    23770333.960    23770340.054
  -8980035.74249  -6949917.20245  22978591.060    22978590.683    22978595.863
 -22386832.35649 -17393033.52347  21185704.979    21185705.661    21185708.298
 -26244411.82449 -20420623.97947  20590618.015    20590618.501    20590621.307
 10  4 10  2 30 30.0000000  0  8G 2G29G 8G21G24G10G 5G15
 -12989984.94649 -10092849.12746  22316964.020    22316964.047    22316966.961
 -14453708.87449 -11235874.76447  21936244.529    21936244.624    21936248.394
  -6275325.25349  -4867098.51445  23591309.419    23591309.266    23591313.779
  -6832232.83749  -5299054.95245  23841811.205    23841810.628    23841813.243
  -5130845.07749  -3493700.54245  23752379.953    23752379.930    23752385.235
  -8900710.23149  -6888105.17445  22993686.215    22993685.353    22993690.620
 -22340707.55749 -17357092.13947  21194482.314    21194482.775    21194485.281
 -26286747.21049 -20453612.58648  20582561.850    20582562.359    20582565.005
 10  4 10  2 31  0.0000000  0  8G 2G29G 8G21G24G10G 5G15
 -12897345.22249 -10020662.39246  22334592.800    22334593.133    22334596.033
 -14412976.67349 -11204135.41647  21943995.695    21943995.998    21943999.057
  -6274626.57349  -4866554.08145  23591442.371    23591442.254    23591447.811
  -6930181.38949  -5375378.46245  23823172.110    23823172.081    23823175.271
  -5225108.01849  -3567152.14345  23734442.268    23734442.088    23734448.257
  -8821304.77549  -6826230.85045  23008796.680    23008795.612    23008801.462
 -22294386.02849 -17320997.46547  21203297.013    21203297.513    21203300.127
 -26328580.40649 -20486209.87948  20574601.308    20574601.969    20574604.342
 10  4 10  2 31 30.0000000  0  8G 2G29G 8G21G24G10G 5G15
 -12804402.19349  -9948239.31246  22352279.383    22352279.509    22352281.707
 -14371733.85549 -11171998.19047  21951843.940    21951844.444    21951847.356
  -6273369.67649  -4865574.66845  23591681.567    23591681.789    23591686.408
  -7028061.55149  -5451648.67745  23804546.100    23804545.556    23804549.434
  -5319281.45349  -3640534.01645  23716521.571    23716520.794    23716526.203
  -8741821.04949  -6764295.52845  23023921.914    23023920.981    23023925.876
 -22247869.31149 -17284750.68947  21212148.805    21212149.544    21212152.100
 -26369911.92549 -20518416.24748  20566736.256    20566736.914    20566739.304
 10  4 10  2 32  0.0000000  0  8G 2G29G 8G21G24G10G 5G15
 -12711157.02449  -9875580.81046  22370023.360    22370024.075    22370025.462
 -14329981.74849 -11139464.10647  21959789.131    21959789.424    21959792.878
  -6271553.54849  -4864159.48445  23592027.192    23592026.550    23592032.396
  -7125870.99549  -5527863.78745  23785933.591    23785933.721    23785936.482
  -5413362.78849  -3713844.09845  23698618.310    23698618.058    23698622.919
  -8662258.71949  -6702298.97045  23039062.143    23039061.789    23039065.977
 -22201157.49549 -17248351.89447  21221037.829    21221038.211    21221041.116
 -26410740.73449 -20550230.89748  20558966.827    20558967.553    20558969.715
 10  4 10  2 32 30.0000000  0  8G 2G29G 8G21G24G10G 5G15
 -12617610.59749  -9802687.53746  22387824.724    22387824.791    22387827.066
 -14287721.57149 -11106534.12847  21967830.995    21967831.177    21967834.353
  -6269177.19249  -4862307.76245  23592479.411    23592479.536    23592483.451
  -7223606.77249  -5604021.48845  23767335.119    23767335.376    23767338.597
  -5507349.46849  -3787080.43945  23680733.185    23680733.130    23680739.042
  -8582617.76549  -6640241.13345  23054217.261    23054216.478    23054221.632
 -22154250.45749 -17211800.97747  21229963.927    21229964.262    21229966.959
 -26451065.84349 -20581653.05048  20551293.210    20551293.645    20551295.916
 10  4 10  2 33  0.0000000  0  8G 2G29G 8G21G24G10G 5G15
 -12523765.44949  -9729561.51946  22405682.915    22405683.158    22405684.389
 -14244956.47249 -11073210.71747  21975968.888    21975969.163    21975972.445
  -6266241.70049  -4860020.36045  23593037.736    23593037.660    23593042.221
  -7321268.40849  -5680121.43945  23748750.827    23748750.492    23748753.660
  -5601240.97649  -3860242.61945  23662866.407    23662866.608    23662872.914
  -8502900.42349  -6578123.79345  23069386.942    23069386.036    23069391.623
 -22107149.47349 -17175098.93547  21238926.905    21238927.397    21238930.032
 -26490887.81749 -20612683.15648  20543715.354    20543715.792    20543718.505
 10  4 10  2 33 30.0000000  0  8G 2G29G 8G21G24G10G 5G15
 -12429623.82849  -9656204.46846  22423597.565    22423598.036    22423600.117
 -14201688.33849 -11039495.32047  21984202.605    21984203.203    21984205.882
  -6262746.81049  -4857297.05745  23593702.825    23593703.079    23593708.096
  -7418854.01149  -5756162.12945  23730180.901    23730180.808    23730183.082
  -5695035.72949  -3933329.39045  23645017.805    23645017.685    23645022.788
  -8423106.97249  -6515947.13345  23084571.149    23084570.614    23084576.096
 -22059855.61549 -17138246.60547  21247926.644    21247927.316    21247930.016
 -26530206.57149 -20643321.13748  20536233.248    20536233.601    20536236.053
 10  4 10  2 34  0.0000000  0  9G 2G29G 8G21G24G10G 5G18G15
 -12335185.71849  -9582616.39246  22441568.542    22441568.765    22441571.128
 -14157917.81849 -11005388.45247  21992531.959    21992532.846    21992535.389
  -6258691.23149  -4854136.85945  23594474.596    23594474.355    23594479.162
  -7516360.47949  -5832141.17145  23711626.073    23711625.513    23711628.892
  -5788730.61449  -4006338.37045  23627188.399    23627188.188    23627194.220
  -8343237.22549  -6453711.02945  23099769.817    23099769.822    23099774.363
 -22012368.12149 -17101243.38547  21256963.234    21256963.510    21256966.401
   -823326.02949   -600234.63043
 -26569020.30849 -20673565.60048  20528847.205    20528847.704    20528850.168
 10  4 10  2 34 30.0000000  0  9G 2G29G 8G21G24G10G 5G18G15
 -12240454.49049  -9508799.90546  22459595.352    22459595.256    22459598.078
 -14113649.02249 -10970893.32147  22000956.067    22000956.745    22000959.622
  -6254076.08349  -4850540.61445  23595352.716    23595353.227    23595357.930
  -7613787.73049  -5908058.47745  23693086.270    23693085.808    23693090.031
  -5882325.86149  -4079269.67045  23609377.786    23609376.799    23609383.111
  -8263293.14549  -6391417.00545  23114982.668    23114982.700    23114987.501
 -21964689.29249 -17064091.08147  21266036.203    21266036.819    21266039.383
   -900469.25049   -660346.46443
 -26607330.61449 -20703417.78048  20521557.041    20521557.561    20521560.016
 10  4 10  2 35  0.0000000  0  9G 2G29G 8G21G24G10G 5G18G15
 -12145429.41149  -9434754.45346  22477678.040    22477677.658    22477680.417
 -14068881.60449 -10936009.65047  22009475.062    22009475.617    22009478.533
  -6248898.53649  -4846506.17045  23596338.100    23596337.446    23596343.252
  -7711131.47649  -5983910.71945  23674562.334    23674562.202    23674564.198
  -5975817.09849  -4152119.96345  23591586.908    23591587.534    23591592.020
  -8183273.09849  -6329063.78145  23130210.085    23130209.309    23130214.842
 -21916817.02349 -17026788.03747  21275145.972    21275146.583    21275149.077
   -977577.12949   -720431.18443
 -26645134.58649 -20732875.41048  20514363.175    20514363.592    20514366.057
 10  4 10  2 35 30.0000000  0  9G 2G29G 8G21G24G10G 5G18G15
 -12050114.68449  -9360483.29646  22495815.880    22495815.791    22495818.635
 -14023619.98449 -10900740.88447  22018088.070    22018088.804    22018091.401
  -6243161.46349  -4842035.71445  23597429.774    23597429.559    23597434.917
  -7808391.79949  -6059697.95945  23656054.320    23656053.525    23656056.614
  -6069204.97749  -4224889.70545  23573815.794    23573816.077    23573821.113
  -8103179.77549  -6266653.46345  23145451.361    23145451.208    23145456.277
 -21868754.31049 -16989336.60247  21284292.067    21284292.711    21284295.352
  -1054651.92349   -780489.65444                                  24678668.961
 -26682434.53049 -20761940.30148  20507265.266    20507265.585    20507268.081
 10  4 10  2 36  0.0000000  0  9G 2G29G 8G21G24G10G 5G18G15
 -11954512.25949  -9285987.95846  22514008.512    22514008.246    22514011.011
 -13977866.28849 -10865088.68947  22026794.812    22026795.227    22026798.486
  -6236863.92849  -4837128.53345  23598628.242    23598627.500    23598632.947
  -7905567.07149  -6135418.92645  23637562.511    23637562.776    23637565.075
  -6162487.65449  -4297577.45845  23556064.672    23556064.946    23556070.242
  -8023014.07649  -6204186.75145  23160706.373    23160706.836    23160711.221
 -21820501.69249 -16951737.18147  21293474.313    21293474.664    21293477.648
  -1131693.61149   -840521.98244  24664008.017    24664006.883    24664012.939
 -26719230.06049 -20790612.13548  20500263.272    20500263.873    20500266.223
 10  4 10  2 36 30.0000000  0 10G 2G29G 8G21G24G26G10G 5G18G15
 -11858623.44149  -9211269.45546  22532255.609    22532256.433    22532258.730
 -13931622.19749 -10829054.36647  22035594.798    22035595.155    22035598.360
  -6230006.21549  -4831784.85545  23599933.297    23599932.497    23599938.424
  -8002655.08949  -6211071.91445  23619087.372    23619086.627    23619088.614
  -6255663.21849  -4370181.76545  23538333.991    23538334.830    23538339.324
   -301670.34149   -212047.88243
  -7942775.95349  -6141663.59945  23175975.293    23175974.607    23175980.596
 -21772059.54449 -16913990.07547  21302692.556    21302692.833    21302695.783
  -1208702.05249   -900528.56445  24649353.549    24649353.718    24649356.402
 -26755520.86549 -20818890.68048  20493357.315    20493357.554    20493360.100
 10  4 10  2 37  0.0000000  0 10G 2G29G 8G21G24G26G10G 5G18G15
 -11762449.92349  -9136329.10746  22550556.874    22550556.784    22550559.566
 -13884890.03349 -10792639.72847  22044487.710    22044488.108    22044491.251
  -6222587.28049  -4826003.87445  23601345.044    23601344.789    23601349.528
  -8099653.76749  -6286655.26945  23600628.993    23600628.105    23600631.195
  -6348729.11849  -4442700.61645  23520624.163    23520623.811    23520629.508
   -422237.01749   -305993.49843
  -7862466.05649  -6079084.52845  23191257.840    23191257.007    23191262.489
 -21723428.12349 -16876095.48347  21311946.773    21311947.276    21311949.936
  -1285677.21549   -960509.18345  24634705.556    24634704.689    24634709.783
 -26791306.36749 -20846775.48548  20486547.552    20486548.008    20486550.623
 10  4 10  2 37 30.0000000  0 10G 2G29G 8G21G24G26G10G 5G18G15
 -11665990.47649  -9061165.96146  22568912.452    22568911.997    22568914.905
 -13837669.06849 -10755844.20347  22053473.587    22053473.728    22053477.328
  -6214604.84749  -4819783.78945  23602864.207    23602864.527    23602869.009
  -8196558.36649  -6362165.31945  23582188.467    23582188.021    23582190.417
  -6441681.32149  -4515130.86045  23502935.789    23502935.576    23502941.154
   -542657.67449   -399822.23743
  -7782082.18649  -6016447.79845  23206554.348    23206553.797    23206559.182
 -21674605.17849 -16838051.65647  21321237.468    21321237.814    21321240.881
  -1362616.68549  -1020461.98645  24620064.404    24620063.155    24620069.046
 -26826583.92849 -20874264.48248  20479834.465    20479834.935    20479837.410
 10  4 10  2 38  0.0000000  0 10G 2G29G 8G21G24G26G10G 5G18G15
 -11569246.18549  -8985780.86446  22587322.213    22587322.852    22587325.138
 -13789960.95349 -10718669.08447  22062552.137    22062552.313    22062555.184
  -6206058.20649  -4813124.06245  23604490.689    23604490.571    23604495.274
  -8293366.25649  -6437600.00145  23563766.417    23563766.074    23563769.039
  -6534517.57649  -4587470.76845  23485269.553    23485269.346    23485275.345
   -662929.42149     40922.00943
  -7701624.52749  -5953753.58945  23221864.991    23221865.487    23221870.402
 -21625590.80049 -16799858.65347  21330564.567    21330565.197    21330567.828
  -1439519.34449  -1080386.10345  24605430.184    24605429.236    24605434.651
 -26861352.54949 -20901356.91448  20473218.222    20473218.696    20473221.199
 10  4 10  2 38 30.0000000  0 10G 2G29G 8G21G24G26G10G 5G18G15
 -11472223.48549  -8910178.82546  22605785.207    22605785.660    22605787.919
 -13741772.62749 -10681119.76547  22071722.057    22071722.754    22071725.765
  -6196951.85749  -4806028.21645  23606223.429    23606223.462    23606228.233
  -8390080.17149  -6512961.46545  23545362.435    23545362.265    23545365.501
  -6627240.63049  -4659722.46045  23467625.054    23467626.081    23467629.422
   -783054.59049    -52681.45643
  -7621098.10449  -5891005.77945  23237188.788    23237188.149    23237193.570
 -21576390.03649 -16761520.41347  21339927.207    21339927.865    21339930.572
  -1516389.82949  -1140285.16545  24590802.047    24590803.261    24590805.025
 -26895616.71749 -20928056.25648  20466697.975    20466698.390    20466700.741
 10  4 10  2 39  0.0000000  0 10G 2G29G 8G21G24G26G10G 5G18G15
 -11374920.33849  -8834358.27146  22624301.422    22624301.742    22624304.442
 -13693102.25849 -10643194.84347  22080983.754    22080984.003    22080987.502
  -6187282.03949  -4798493.28245  23608063.695    23608063.857    23608068.471
  -8486694.55049  -6588245.36945  23526977.504    23526977.013    23526979.983
  -6719844.59349  -4731881.35345  23450003.291    23450002.781    23450007.439
   -903027.52449   -146166.91543
  -7540499.50149  -5828201.74845  23252526.259    23252526.011    23252530.809
 -21526999.52249 -16723034.31947  21349325.886    21349326.599    21349329.435
  -1593224.56149  -1200156.35445  24576180.864    24576181.633    24576183.809
 -26929372.68949 -20954359.60748  20460274.432    20460274.856    20460277.257
 10  4 10  2 39 30.0000000  0 10G 2G29G 8G21G24G26G10G 5G18G15
 -11277339.67749  -8758321.46046  22642870.480    22642870.227    22642873.286
 -13643953.37049 -10604897.03947  22090336.459    22090336.748    22090340.382
  -6177049.93649  -4790520.22745  23610010.731    23610009.990    23610015.733
  -8583208.32249  -6663450.88645  23508611.624    23508611.457    23508614.481
  -6812328.90549  -4803947.01545  23432404.205    23432404.334    23432408.284
  -1022847.05949   -239532.79144                                  23928022.923
  -7459830.67449  -5765342.98745  23267877.093    23267876.644    23267881.814
 -21477420.98449 -16684401.71447  21358760.417    21358761.187    21358763.858
  -1670024.75149  -1260000.63045  24561566.239    24561563.783    24561570.589
 -26962621.05649 -20980267.42548  20453947.494    20453947.917    20453950.367
 10  4 10  2 40  0.0000000  0 10G 2G29G 8G21G24G26G10G 5G18G15
 -11179481.98049  -8682068.78146  22661492.251    22661492.105    22661495.120
 -13594326.48849 -10566226.78147  22099780.122    22099780.390    22099784.341
  -6166253.88149  -4782107.72645  23612065.129    23612064.768    23612069.834
  -8679617.96349  -6738575.25645  23490265.492    23490265.388    23490268.204
  -6904690.14149  -4875916.77245  23414828.474    23414828.402    23414833.511
  -1142509.27449   -332775.99845  23905248.779    23905249.050    23905253.113
  -7379090.32549  -5702428.49745  23283241.486    23283241.098    23283246.755
 -21427653.00449 -16645621.48347  21368231.052    21368231.571    21368234.379
  -1746788.75149  -1319816.69445  24546958.417    24546957.235    24546964.061
 -26995360.36549 -21005778.57048  20447717.347    20447717.660    20447720.262
 10  4 10  2 40 30.0000000  0 10G 2G29G 8G21G24G26G10G 5G18G15
 -11081349.36049  -8605601.87946  22680166.294    22680166.507    22680169.258
 -13544224.57249 -10527186.35147  22109314.168    22109314.690    22109318.117
  -6154894.39549  -4773256.18345  23614226.748    23614226.331    23614231.272
  -8775921.99049  -6813617.32345  23471939.377    23471937.726    23471941.983
  -6996926.83349  -4947789.47545  23397276.307    23397275.943    23397281.464
  -1262012.77449   -425895.54945  23882508.068    23882508.294    23882513.390
  -7298279.57949  -5639459.14845  23298619.299    23298619.371    23298623.974
 -21377696.80149 -16606694.60047  21377737.384    21377737.900    21377740.631
  -1823517.24349  -1379605.07645  24532357.415    24532357.642    24532362.670
 -27027591.34249 -21030893.61148  20441583.969    20441584.266    20441586.913
 10  4 10  2 41  0.0000000  0 11G 2G29G 8G21G27G24G26G10G 5G18G15
 -10982943.98549  -8528922.43846  22698892.280    22698892.264    22698895.862
 -13493650.72649 -10487778.19447  22118938.124    22118938.867    22118941.750
  -6142972.41349  -4763966.33245  23616495.418    23616495.490    23616500.443
  -8872118.98849  -6888575.98945  23453633.543    23453633.148    23453636.095
  -1350295.49049  -1003051.44543
  -7089037.99149  -5019564.37145  23379748.023    23379747.677    23379753.322
  -1381356.04849   -518890.24645  23859797.814    23859797.396    23859802.808
  -7217400.11449  -5576436.25245  23314010.253    23314009.637    23314015.370
 -21327554.05349 -16567622.35347  21387279.256    21387280.084    21387282.541
  -1900210.74749  -1439366.24445  24517763.091    24517763.476    24517767.367
 -27059314.35949 -21055612.84148  20435547.260    20435547.825    20435550.119
 10  4 10  2 41 30.0000000  0 10G 2G29G 8G21G24G26G10G 5G18G15
 -10884267.71549  -8452031.92146  22717669.739    22717669.255    22717672.649
 -13442606.87749 -10448003.79547  22128651.464    22128651.663    22128655.433
  -6130488.12849  -4754238.33745  23618871.064    23618869.757    23618874.907
  -8968206.75649  -6963449.53845  23435348.483    23435348.266    23435350.751
  -7181021.72149  -5091239.96545  23362243.926    23362243.186    23362248.888
  -1500537.05649   -611758.52345  23837118.422    23837118.666    23837123.149
  -7136452.09349  -5513359.95145  23329414.072    23329413.483    23329419.357
 -21277224.80349 -16528404.77747  21396856.614    21396857.194    21396859.698
  -1976869.30649  -1499100.15945  24503175.408    24503176.024    24503179.049
 -27090529.32549 -21079936.18348  20429607.273    20429607.737    20429610.201
 10  4 10  2 42  0.0000000  0 10G 2G29G 8G21G24G26G10G 5G18G15
 -10785321.80249  -8374931.29046  22736498.539    22736499.249    22736501.883
 -13391094.63749 -10407864.42547  22138453.849    22138454.217    22138457.279
  -6117440.46049  -4744071.33545  23621353.831    23621353.537    23621358.848
  -9064182.78749  -7038236.02445  23417084.702    23417084.010    23417087.832
  -7272874.99849  -5162813.89745  23344764.590    23344764.566    23344769.571
  -1619552.58949   -704497.83445  23814470.561    23814470.845    23814475.213
  -7055435.38049  -5450230.11245  23344831.073    23344830.580    23344836.599
 -21226708.67649 -16489041.58647  21406469.482    21406469.829    21406472.859
  -2053491.90749  -1558806.05045  24488594.588    24488594.119    24488599.146
 -27121234.91449 -21103862.61048  20423764.188    20423764.602    20423767.070
 10  4 10  2 42 30.0000000  0 10G 2G29G 8G21G24G26G10G 5G18G15
 -10686108.88449  -8297622.60546  22755378.232    22755378.559    22755381.165
 -13339117.47849 -10367362.77947  22148344.858    22148345.659    22148348.989
  -6103830.76449  -4733466.38445  23623943.720    23623942.905    23623948.998
  -9160045.90449  -7112934.53445  23398842.643    23398842.748    23398845.471
  -7364597.21449  -5234285.71745  23327310.341    23327309.899    23327315.645
  -1738401.51749   -797107.34945  23791854.284    23791853.812    23791858.926
  -6974351.59649  -5387048.00845  23360260.966    23360261.138    23360265.631
 -21176007.30749 -16449534.03747  21416117.552    21416118.110    21416120.926
  -2130079.89049  -1618484.92945  24474020.376    24474020.308    24474023.315
 -27151432.78549 -21127393.41048  20418017.745    20418018.090    20418020.584
 10  4 10  2 43  0.0000000  0 11G 2G29G 8G21G27G24G26G10G 5G18G15
 -10586631.32349  -8220107.70346  22774308.338    22774309.134    22774311.504
 -13286678.10949 -10326500.97347  22158323.884    22158324.281    22158327.855
  -6089659.65049  -4722423.96145  23626640.441    23626639.448    23626645.158
  -9255794.41249  -7187543.72745  23380622.370    23380622.202    23380625.512
  -1749363.14649   -831617.13344                                  23921421.624
  -7456186.90649  -5305654.26845  23309881.477    23309881.765    23309886.828
  -1857082.35049   -889585.87045  23769269.919    23769270.027    23769274.984
  -6893201.40549  -5323814.17145  23375703.444    23375702.908    23375708.794
 -21125121.39749 -16409882.71047  21425800.861    21425801.736    21425804.214
  -2206633.60849  -1678137.16545  24459452.745    24459452.553    24459455.859
 -27181123.31749 -21150528.88448  20412367.802    20412368.142    20412370.557
 10  4 10  2 43 30.0000000  0 11G 2G29G 8G21G27G24G26G10G 5G18G15
 -10486890.40049  -8142387.58646  22793288.631    22793288.005    22793291.678
 -13233778.31749 -10285280.39447  22168390.418    22168391.102    22168394.421
  -6074926.77449  -4710943.81945  23629443.901    23629443.707    23629448.980
  -9351426.23449  -7262062.00546  23362424.310    23362423.781    23362426.918
  -1849006.06049   -909260.85045  23902453.412    23902452.886    23902459.456
  -7547641.51749  -5376917.56945  23292478.124    23292478.093    23292482.833
  -1975592.33249   -981931.23545  23746718.074    23746718.289    23746723.390
  -6811985.02449  -5260528.75945  23391158.469    23391158.348    23391162.877
 -21074050.83649 -16370087.49247  21435519.275    21435520.108    21435522.549
  -2283152.52849  -1737762.27245  24444891.757    24444891.094    24444895.032
 -27210305.86249 -21173268.52548  20406814.551    20406814.996    20406817.334
 10  4 10  2 44  0.0000000  0 11G 2G29G 8G21G27G24G26G10G 5G18G15
 -10386887.37849  -8064463.24346  22812318.531    22812318.740    22812321.168
 -13180419.87849 -10243702.42547  22178544.195    22178544.503    22178547.956
  -6059631.68049  -4699025.56945  23632354.463    23632353.672    23632359.013
  -9446938.20349  -7336486.88146  23344249.044    23344248.563    23344251.940
  -1948593.11549   -986861.06245  23883502.582    23883501.926    23883508.442
  -7638958.60849  -5448073.70145  23275101.021    23275101.313    23275106.172
  -2093928.56249  -1074141.23445  23724199.454    23724200.278    23724204.601
  -6730702.03349  -5197191.43245  23406626.180    23406625.271    23406631.009
 -21022795.71449 -16330148.45747  21445272.848    21445273.256    21445276.302
  -2359635.96449  -1797359.72045  24430337.551    24430338.209    24430341.735
 -27238979.72149 -21195611.78248  20401358.084    20401358.413    20401360.911
 10  4 10  2 44 30.0000000  0 11G 2G29G 8G21G27G24G26G10G 5G18G15
 -10286623.79749  -7986335.85646  22831398.103    22831398.732    22831401.269
 -13126605.17149 -10201768.93747  22188784.853    22188785.294    22188788.346
  -6043774.46949  -4686669.30245  23635371.981    23635371.443    23635377.176
  -9542328.34249  -7410816.83246  23326096.903    23326096.519    23326099.974
  -2048121.50649  -1064415.56745  23864562.863    23864562.327    23864569.061
  -7730136.45049  -5519121.33945  23257750.483    23257750.285    23257755.196
  -2212089.20949  -1166214.42345  23701714.294    23701714.075    23701719.096
  -6649352.87949  -5133802.55545  23422106.461    23422105.384    23422111.863
 -20971356.28049 -16290065.80547  21455061.447    21455062.110    21455064.970
  -2436083.73549  -1856929.33945  24415790.055    24415788.861    24415793.674
 -27267145.12449 -21217558.84348  20395998.412    20395998.874    20396001.274
 10  4 10  2 45  0.0000000  0 11G 2G29G 8G21G27G24G26G10G 5G18G15
 -10186101.21449  -7908006.64446  22850526.900    22850527.169    22850530.304
 -13072336.56549 -10159481.74647  22199111.945    22199112.065    22199115.644
  -6027355.71049  -4673875.47545  23638496.313    23638495.370    23638501.488
  -9637594.18049  -7485049.91646  23307968.262    23307967.530    23307970.672
  -2147588.22049  -1141922.00845  23845635.111    23845634.661    23845640.191
  -7821172.93849  -5590058.82745  23240426.918    23240426.178    23240432.232
  -2330071.65749  -1258148.73945  23679263.104    23679263.277    23679267.752
  -6567938.22449  -5070362.63945  23437599.139    23437598.748    23437605.307
 -20919732.92049 -16249839.83747  21464885.097    21464886.039    21464888.569
  -2512495.93549  -1916471.25345  24401249.224    24401249.287    24401252.299
 -27294801.88849 -21239109.55948  20390735.510    20390735.897    20390738.307
 10  4 10  2 45 30.0000000  0 11G 2G29G 8G21G27G24G26G10G 5G18G15
 -10085321.37849  -7829476.99946  22869704.626    22869704.623    22869707.815
 -13017615.99749 -10116842.37847  22209524.944    22209525.086    22209528.371
  -6010374.99549  -4660643.76145  23641727.682    23641727.972    23641732.473
  -9732733.33449  -7559184.29845  23289863.818    23289863.963    23289866.794
  -2246989.80149  -1219377.72745  23826719.746    23826719.645    23826725.222
  -7912065.37049  -5660884.06545  23223130.662    23223130.251    23223136.009
  -2447873.47749  -1349942.30545  23656846.111    23656846.266    23656850.289
  -6486458.05749  -5006871.66945  23453104.318    23453103.504    23453109.141
 -20867925.66749 -16209470.57347  21474743.733    21474744.264    21474747.119
  -2588871.94749  -1975985.02345  24386715.349    24386714.929    24386718.141
 -27321949.68249 -21260263.68248  20385569.467    20385569.904    20385572.280
 10  4 10  2 46  0.0000000  0 11G 2G29G 8G21G27G24G26G10G 5G18G15
  -9984287.87749  -7750749.68646  22888930.676    22888931.662    22888933.687
 -12962447.58549 -10073854.04346  22220023.296    22220023.608    22220026.949
  -5992834.29749  -4646975.69345  23645065.821    23645065.112    23645070.794
  -9827745.59249  -7633219.79146  23271783.630    23271783.030    23271785.751
  -2346325.15549  -1296781.80945  23807816.623    23807815.572    23807821.932
  -8002813.64049  -5731596.95845  23205861.771    23205862.176    23205866.709
  -2565494.30149  -1441594.86045  23634463.554    23634463.971    23634468.881
  -6404914.44449  -4943331.25645  23468621.397    23468621.661    23468626.645
 -20815936.66949 -16168959.69247  21484636.961    21484637.535    21484640.262
  -2665213.66249  -2035472.03545  24372188.005    24372187.885    24372190.583
 -27348590.30349 -21281022.60548  20380499.950    20380500.383    20380502.728
 10  4 10  2 46 30.0000000  0 11G 2G29G 8G21G27G24G26G10G 5G18G15
  -9882999.87249  -7671824.04246  22908205.174    22908205.260    22908208.978
 -12906831.60349 -10030516.95246  22230606.591    22230606.401    22230609.818
  -5974731.59749  -4632869.70345  23648510.667    23648510.507    23648515.447
  -9922626.19849  -7707152.69945  23253728.487    23253727.519    23253730.622
  -2445589.00949  -1374130.15845  23788927.173    23788926.249    23788932.199
  -8093413.41349  -5802194.16345  23188621.136    23188621.232    23188626.229
  -2682929.51649  -1533102.77645  23612116.267    23612116.122    23612120.954
  -6323305.46749  -4879739.92245  23484151.119    23484151.120    23484156.272
 -20763763.99349 -16128305.68947  21494565.113    21494565.822    21494568.517
  -2741518.70449  -2094930.45545  24357667.567    24357666.688    24357669.697
 -27374721.57449 -21301384.62848  20375527.338    20375527.816    20375530.183
 10  4 10  2 47  0.0000000  0 11G 2G29G 8G21G27G24G26G10G 5G18G15
  -9781460.41949  -7592702.47746  22927527.544    22927528.113    22927530.813
 -12850771.02649  -9986833.42346  22241274.529    22241274.816    22241278.390
  -5956068.31049  -4618326.90445  23652062.053    23652062.208    23652066.495
 -10017373.99449  -7780982.12145  23235698.523    23235697.192    23235700.719
  -2544779.42849  -1451421.29145  23770052.023    23770051.586    23770056.223
  -8183863.77649  -5872674.93245  23171409.030    23171409.367    23171413.485
  -2800177.87349  -1624465.08445  23589804.479    23589804.548    23589808.771
  -6241632.98049  -4816099.08745  23499693.141    23499692.871    23499698.332
 -20711408.81049 -16087509.47347  21504527.983    21504528.495    21504531.378
  -2817787.90949  -2154360.96145  24343153.859    24343152.956    24343157.735
 -27400344.46149 -21321350.51048  20370651.503    20370651.961    20370654.284
 10  4 10  2 47 30.0000000  0 11G 2G29G 8G21G27G24G26G10G 5G18G15
  -9679670.95449  -7513386.09346  22946897.561    22946897.793    22946901.938
 -12794268.12149  -9942805.23346  22252026.670    22252027.202    22252030.488
  -5936844.54249  -4603347.36045  23655720.060    23655720.246    23655724.835
 -10111986.89549  -7854706.43146  23217694.270    23217693.695    23217696.692
  -2643893.40949  -1528652.86445  23751191.031    23751189.724    23751196.216
  -8274162.36049  -5943037.42845  23154225.758    23154225.054    23154229.980
  -2917237.05249  -1715679.97445  23567528.710    23567528.889    23567534.149
  -6159896.76149  -4752408.61145  23515247.038    23515247.453    23515252.795
 -20658871.37049 -16046571.22647  21514525.471    21514526.094    21514529.236
  -2894020.85049  -2213763.22645  24328647.186    24328646.059    24328650.362
 -27425458.82749 -21340920.13748  20365872.380    20365872.790    20365875.188
 10  4 10  2 48  0.0000000  0 11G 2G29G 8G21G27G24G26G10G 5G18G15
  -9577633.32349  -7433876.34146  22966314.738    22966314.721    22966318.368
 -12737325.36249  -9898434.28646  22262862.454    22262862.631    22262866.253
  -5917060.03749  -4587930.86845  23659484.936    23659485.579    23659489.993
 -10206462.19749  -7928323.52046  23199716.207    23199716.520    23199718.684
  -2742927.72949  -1605822.36745  23732345.065    23732344.440    23732351.231
  -8364306.91449  -6013279.90745  23137071.759    23137071.769    23137076.958
  -3034104.66649  -1806745.61245  23545289.374    23545288.456    23545294.583
  -6078097.26149  -4688668.81145  23530813.086    23530812.647    23530818.404
 -20606151.93049 -16005491.17547  21524557.687    21524558.408    21524560.931
  -2970217.28449  -2273137.05345  24314147.483    24314147.076    24314151.454
 -27450064.45649 -21360093.35348  20361190.101    20361190.481    20361192.882
 10  4 10  2 48 30.0000000  0 11G 2G29G 8G21G27G24G26G10G 5G18G15
  -9475349.52849  -7354174.76446  22985778.700    22985778.627    22985782.573
 -12679945.43649  -9853722.68246  22273781.412    22273781.312    22273784.932
  -5896715.71249  -4572078.15645  23663356.358    23663356.229    23663361.508
 -10300798.15849  -8001832.02746  23181764.601    23181764.199    23181766.166
  -2841879.85849  -1682927.79445  23713514.975    23713514.625    23713521.805
  -8454295.72249  -6083401.02645  23119947.504    23119947.174    23119952.359
  -3150778.69049  -1897660.40345  23523086.947    23523086.726    23523092.081
  -5996235.02549  -4624880.12945  23546391.037    23546390.163    23546396.095
 -20553251.26549 -15964269.91347  21534624.411    21534625.319    21534628.129
  -3046377.29649  -2332482.47445  24299654.727    24299654.419    24299658.990
 -27474161.93549 -21378870.60348  20356604.470    20356605.006    20356607.330
 10  4 10  2 49  0.0000000  0 11G 2G29G 8G21G27G24G26G10G 5G18G15
  -9372821.80649  -7274283.12546  23005288.968    23005289.390    23005293.176
 -12622131.31749  -9808672.76046  22284783.048    22284783.575    22284786.568
  -5875812.07449  -4555789.62045  23667334.259    23667333.516    23667339.073
 -10394992.87849  -8075230.47746  23163839.766    23163838.858    23163841.880
  -2940747.30349  -1759967.25245  23694701.052    23694700.880    23694707.848
  -8544127.33049  -6153399.64646  23102853.134    23102852.678    23102858.502
  -3267257.84349  -1988423.35045  23500921.591    23500921.720    23500926.927
  -5914310.90349  -4561043.22245  23561980.706    23561980.630    23561985.543
 -20500169.83949 -15922907.79247  21544725.536    21544726.077    21544728.809
  -3122501.54549  -2391800.02945  24285168.738    24285167.638    24285172.233
 -27497752.03349 -21397252.49848  20352115.436    20352115.793    20352118.161
 10  4 10  2 49 30.0000000  0 11G 2G29G 8G21G27G24G26G10G 5G18G15
  -9270051.52849  -7194202.48646  23024845.530    23024845.571    23024848.558
 -12563884.88549  -9763285.97146  22295866.935    22295867.172    22295870.827
  -5854349.82349  -4539065.79845  23671418.466    23671418.098    23671423.475
 -10489043.73049  -8148516.81646  23145942.297    23145941.488    23145944.553
  -3039526.88649  -1836938.23545  23675903.991    23675903.653    23675910.665
  -8633799.36649  -6223273.92246  23085789.181    23085788.761    23085794.303
  -3383539.03849  -2079032.03445  23478794.055    23478794.519    23478799.943
  -5832324.92149  -4497158.11245  23577582.218    23577582.070    23577587.163
 -20446908.05349 -15881405.12947  21554860.901    21554861.430    21554864.423
  -3198589.23249  -2451089.08645  24270689.813    24270689.671    24270694.051
 -27520834.57249 -21415238.88348  20347722.968    20347723.414    20347725.820
 10  4 10  2 50  0.0000000  0 11G 2G29G 8G21G27G24G26G10G 5G18G15
  -9167040.98249  -7113934.62746  23044447.847    23044449.000    23044451.547
 -12505209.33849  -9717564.80546  22307032.479    22307032.853    22307036.458
  -5832329.48549  -4521907.10945  23675608.854    23675608.387    23675613.804
 -10582949.07349  -8221689.78345  23128072.683    23128072.119    23128075.177
  -3138215.68949  -1913838.46945  23657123.977    23657123.005    23657130.021
  -8723309.68349  -6293022.18846  23068755.981    23068756.562    23068760.555
  -3499620.56849  -2169485.13545  23456704.504    23456704.761    23456710.138
  -5750277.78849  -4433225.35545  23593195.323    23593194.571    23593201.079
 -20393466.35549 -15839762.27647  21565030.504    21565030.780    21565034.230
  -3274640.89549  -2510350.08945  24256217.484    24256216.711    24256219.815
 -27543409.81049 -21432829.97448  20343427.025    20343427.508    20343429.760
 10  4 10  2 50 30.0000000  0 11G 2G29G 8G21G27G24G26G10G 5G18G15
  -9063791.65549  -7033480.70846  23064095.771    23064096.258    23064099.527
 -12446106.69649  -9671510.83746  22318279.319    22318279.926    22318284.490
  -5809751.03149  -4504313.51245  23679905.301    23679905.313    23679910.036
 -10676706.05349  -8294747.15246  23110231.394    23110231.350    23110233.547
  -3236810.68149  -1990665.62745  23638361.893    23638361.513    23638367.736
  -8812656.39349  -6362642.96646  23051753.867    23051753.533    23051757.934
  -3615500.40049  -2259781.06745  23434653.239    23434652.807    23434659.110
  -5668169.82349  -4369245.20045  23608819.995    23608820.174    23608826.260
 -20339844.81049 -15797979.28347  21575234.329    21575234.696    21575237.988
  -3350656.22149  -2569582.76645  24241752.006    24241751.125    24241754.820
 -27565477.78949 -21450025.79548  20339227.651    20339227.955    20339230.452
 10  4 10  2 51  0.0000000  0 11G 2G29G 8G21G27G24G26G10G 5G18G15
  -8960305.50349  -6952842.24846  23083788.671    23083788.786    23083792.089
 -12386579.67949  -9625126.17246  22329607.050    22329607.434    22329611.280
  -5786615.48749  -4486285.82345  23684307.894    23684308.065    23684312.562
 -10770312.85949  -8367687.49446  23092418.687    23092418.252    23092421.103
  -3335309.09649  -2067417.52845  23619618.161    23619617.889    23619623.910
  -8901837.45649  -6432134.66246  23034783.163    23034782.312    23034787.726
  -3731175.99849  -2349917.87645  23412640.852    23412641.296    23412646.690
  -5586001.20149  -4305217.76845  23624456.311    23624455.430    23624461.638
 -20286043.84249 -15756056.48447  21585472.429    21585472.668    21585475.973
  -3426635.03149  -2628786.99645  24227293.721    24227293.004    24227296.870
 -27587038.81549 -21466826.58648  20335124.721    20335125.176    20335127.503
 10  4 10  2 51 30.0000000  0 11G 2G29G 8G21G27G24G26G10G 5G18G15
  -8856584.64049  -6872020.90246  23103526.246    23103526.162    23103529.797
 -12326630.76749  -9578412.77446  22341015.040    22341015.647    22341019.155
  -5762923.02249  -4467824.16545  23688816.404    23688815.714    23688821.555
 -10863767.58449  -8440509.32546  23074634.810    23074634.473    23074637.816
  -3433708.14349  -2144092.01945  23600893.409    23600893.032    23600898.798
  -8990850.84749  -6501495.71446  23017844.372    23017844.008    23017848.422
  -3846645.44849  -2439894.05545  23390667.818    23390668.187    23390673.488
  -5503772.46649  -4241143.51845  23640103.966    23640103.397    23640109.532
 -20232063.97349 -15713994.28047  21595744.458    21595744.937    21595747.774
  -3502577.26049  -2687962.70145  24212842.372    24212841.569    24212846.549
 -27608093.36349 -21483232.72048  20331118.134    20331118.450    20331120.963
 10  4 10  2 52  0.0000000  0 11G 2G29G 8G21G27G24G26G10G 5G18G15
  -8752630.56849  -6791017.83945  23123308.091    23123308.177    23123312.655
 -12266262.47649  -9531372.59846  22352502.824    22352503.574    22352507.272
  -5738674.30549  -4448929.06345  23693430.821    23693431.109    23693435.921
 -10957066.99949  -8513210.14146  23056880.606    23056880.644    23056882.726
  -3532004.59849  -2220686.57145  23582188.130    23582188.171    23582194.346
  -9079694.05149  -6570724.15746  23000938.127    23000937.632    23000942.886
  -3961906.31049  -2529707.68945  23368734.495    23368734.921    23368739.601
  -5421484.01849  -4177022.73045  23655762.905    23655762.576    23655768.783
 -20177905.06049 -15671792.56047  21606050.578    21606051.112    21606054.108
  -3578482.60149  -2747109.66645  24198398.034    24198397.838    24198402.125
 -27628641.23149 -21499244.03548  20327208.012    20327208.526    20327210.821
 10  4 10  2 52 30.0000000  0 11G 2G29G 8G21G27G24G26G10G 5G18G15
  -8648444.60149  -6709834.07345  23143134.085    23143134.951    23143137.460
 -12205476.76649  -9484007.15546  22364070.052    22364071.186    22364074.297
  -5713869.21449  -4429600.42245  23698151.178    23698151.071    23698156.428
 -11050208.79649  -8585788.14746  23039156.315    23039155.475    23039159.514
  -3630195.00249  -2297198.48945  23563502.987    23563502.227    23563508.542
  -9168364.64349  -6639818.08846  22984064.633    22984063.994    22984069.107
  -4076956.14249  -2619356.87845  23346841.173    23346841.768    23346846.462
  -5339135.74749  -4112855.31245  23671433.418    23671432.608    23671438.692
 -20123567.15649 -15629451.36847  21616390.785    21616391.643    21616394.205
  -3654350.68349  -2806227.62445  24183960.866    24183959.413    24183964.485
 -27648682.26449 -21514860.41748  20323394.319    20323394.747    20323396.994
 10  4 10  2 53  0.0000000  0 11G 2G29G 8G21G27G24G26G10G 5G18G15
  -8544029.66049  -6628471.88545  23163003.615    23163003.217    23163007.731
 -12144277.24149  -9436319.24446  22375716.060    22375716.714    22375719.724
  -5688508.95649  -4409839.18545  23702977.110    23702976.561    23702982.281
 -11143192.25649  -8658242.76746  23021462.097    23021461.334    23021464.670
  -3728277.58449  -2373626.37545  23544838.393    23544838.288    23544844.726
  -9256861.65249  -6708776.76346  22967224.089    22967223.422    22967228.516
  -4191793.77849  -2708840.73145  23324988.275    23324988.277    23324992.993
  -5256728.84249  -4048642.23245  23687114.933    23687113.822    23687120.379
 -20069052.00149 -15586972.05147  21626764.684    21626765.422    21626768.032
  -3730182.12149  -2865317.01945  24169530.597    24169530.432    24169533.138
 -27668217.93649 -21530083.01048  20319676.778    20319677.200    20319679.527
 10  4 10  2 53 30.0000000  0 11G 2G29G 8G21G27G24G26G10G 5G18G15
  -8439388.37049  -6546933.33245  23182916.237    23182916.931    23182919.963
 -12082666.84549  -9388311.18246  22387440.160    22387440.757    22387443.759
  -5662595.40649  -4389646.81745  23707908.109    23707907.247    23707913.511
 -11236014.99649  -8730572.13846  23003798.359    23003798.012    23003801.062
  -3826249.95349  -2449968.39145  23526195.000    23526194.285    23526200.114
  -9345183.61149  -6777599.03446  22950416.887    22950417.147    22950421.572
  -4306417.42749  -2798157.84345  23303176.068    23303176.067    23303181.088
  -5174264.32149  -3984384.24145  23702807.515    23702807.148    23702813.181
 -20014360.14549 -15544355.05247  21637172.166    21637172.747    21637175.535
  -3805977.55349  -2924378.33945  24155107.155    24155105.918    24155110.378
 -27687248.99649 -21544912.40348  20316055.283    20316055.827    20316058.025
 10  4 10  2 54  0.0000000  0 11G 2G29G 8G21G27G24G26G10G 5G18G15
  -8334520.82949  -6465218.46345  23202872.119    23202872.136    23202875.580
 -12020646.91549  -9339984.01146  22399242.253    22399243.317    22399246.348
  -5636127.15149  -4369022.21145  23712944.885    23712944.480    23712950.377
 -11328672.97349  -8802773.14446  22986166.094    22986165.928    22986169.010
  -3924107.24549  -2526220.72345  23507573.192    23507572.826    23507578.595
  -9433326.58849  -6846281.84146  22933643.840    22933643.879    22933648.704
  -4420823.34049  -2887305.27145  23281405.261    23281405.528    23281410.875
  -5091740.58849  -3920080.11945  23718511.373    23718511.206    23718517.161
 -19959490.02649 -15501599.14547  21647613.617    21647614.308    21647617.242
  -3881735.07049  -2983410.12545  24140690.898    24140690.458    24140694.780
 -27705774.04249 -21559347.49948  20312530.100    20312530.598    20312532.882
 10  4 10  2 54 30.0000000  0 11G 2G29G 8G21G27G24G26G10G 5G18G15
  -8229429.19549  -6383329.00845  23222870.552    23222870.661    23222874.005
 -11958220.22849  -9291339.87746  22411121.761    22411122.443    22411125.484
  -5609104.80949  -4347965.83345  23718087.049    23718087.330    23718092.262
 -11421164.21149  -8874844.21746  22968565.687    22968566.252    22968568.234
  -4021846.78449  -2602381.32245  23488973.762    23488973.462    23488980.707
  -9521288.79649  -6914823.77946  22916905.102    22916905.776    22916909.584
  -4535009.72749  -2976281.64445  23259676.328    23259676.781    23259682.001
  -5009158.49849  -3855730.50945  23734226.398    23734225.787    23734231.649
 -19904442.39049 -15458704.91347  21658088.885    21658089.657    21658092.632
  -3957454.85249  -3042412.50345  24126281.930    24126281.113    24126285.302
 -27723793.88449 -21573388.93048  20309101.021    20309101.512    20309103.812
 10  4 10  2 55  0.0000000  0 11G 2G29G 8G21G27G24G26G10G 5G18G15
  -8124115.83349  -6301266.75145  23242911.304    23242911.817    23242914.067
 -11895389.53349  -9242380.93246  22423078.089    22423078.736    22423081.934
  -5581530.12449  -4326479.06245  23723334.416    23723333.788    23723339.289
 -11513486.99449  -8946784.02946  22950997.329    22950996.945    22950999.493
  -4119466.00049  -2678448.16645  23470397.376    23470397.062    23470403.236
  -9609068.66949  -6983223.65446  22900201.110    22900200.951    22900205.845
  -4648974.82949  -3065085.59445  23237989.629    23237990.184    23237994.613
  -4926519.00049  -3791336.17845  23749952.188    23749951.401    23749957.668
 -19849217.96449 -15415672.91047  21668597.717    21668598.371    21668601.449
  -4033137.03949  -3101385.60145  24111880.131    24111880.133    24111882.792
 -27741309.02249 -21587037.08048  20305767.989    20305768.329    20305770.667
 10  4 10  2 55 30.0000000  0 11G 2G29G 8G21G27G24G26G10G 5G18G15
  -8018582.41849  -6219033.03145  23262993.704    23262993.625    23262996.990
 -11832157.48649  -9193109.25046  22435110.733    22435110.546    22435114.550
  -5553403.54649  -4304562.25145  23728686.421    23728685.983    23728690.869
 -11605638.82149  -9018590.62646  22933461.441    22933461.095    22933463.991
  -4216961.96149  -2754418.98345  23451844.657    23451844.226    23451850.569
  -9696663.83749  -7051479.58946  22883532.250    22883532.010    22883537.585
  -4762716.24449  -3153715.23745  23216345.343    23216345.618    23216350.615
  -4843822.08949  -3726897.10245  23765688.724    23765687.957    23765694.396
 -19793816.89449 -15372503.27647  21679140.161    21679140.663    21679143.744
  -4108781.72349  -3160329.47945  24097485.378    24097484.669    24097488.765
 -27758319.81749 -21600292.23448  20302530.958    20302531.200    20302533.690
 10  4 10  2 56  0.0000000  0 11G 2G29G 8G21G27G24G26G10G 5G18G15
  -7912830.17149  -6136628.80145  23283117.910    23283118.003    23283121.527
 -11768526.17349  -9143526.45246  22447219.348    22447219.763    22447223.397
  -5524724.69749  -4282215.10145  23734143.802    23734143.794    23734149.231
 -11697616.91149  -9090261.84546  22915958.526    22915958.492    22915960.338
  -4314331.09749  -2830290.94845  23433315.819    23433316.453    23433321.626
  -9784071.50649  -7119589.43246  22866899.146    22866899.255    22866902.974
  -4876231.31349  -3242168.50045  23194744.201    23194744.103    23194749.176
  -4761067.55249  -3662413.13545  23781436.517    23781436.504    23781442.259
 -19738238.97049 -15329195.82847  21689716.311    21689716.951    21689720.073
  -4184387.84749  -3219243.27745  24083098.011    24083097.778    24083101.486
 -27774826.17049 -21613154.32148  20299389.886    20299390.245    20299392.614
 10  4 10  2 56 30.0000000  0 11G 2G29G 8G21G27G24G26G10G 5G18G15
  -7806862.22849  -6054056.49045  23303282.974    23303282.553    23303287.147
 -11704499.57849  -9093635.64646  22459403.196    22459403.838    22459406.972
  -5495496.49449  -4259439.87745  23739706.043    23739705.604    23739710.633
 -11789420.12849  -9161796.79046  22898488.988    22898488.177    22898492.107
  -4411571.63549  -2906062.70645  23414811.622    23414811.823    23414817.724
  -9871291.02449  -7187552.66246  22850301.741    22850301.515    22850306.139
  -4989519.34749  -3330444.86145  23173186.212    23173186.237    23173191.185
  -4678256.98549  -3597885.49645  23797194.888    23797194.285    23797200.012
 -19682485.76049 -15285751.79447  21700325.896    21700326.786    21700329.342
  -4259957.00949  -3278128.30445  24068717.699    24068717.004    24068720.442
 -27790829.92149 -21625624.77048  20296344.503    20296344.983    20296347.222
 10  4 10  2 57  0.0000000  0 11G 2G29G 8G21G27G24G26G10G 5G18G15
  -7700679.67049  -5971316.95745  23323488.767    23323488.745    23323492.161
 -11640079.34849  -9043438.10146  22471661.995    22471662.112    22471665.861
  -5465717.74449  -4236235.66345  23745372.766    23745372.820    23745377.953
 -11881045.19149  -9233192.90946  22881053.307    22881052.997    22881056.337
  -4508679.47649  -2981731.05645  23396332.602    23396332.166    23396338.313
  -9958318.90349  -7255366.57546  22833740.789    22833740.440    22833745.976
  -5102576.96149  -3418541.67045  23151672.113    23151671.751    23151677.608
  -4595389.88949  -3533313.82245  23812963.982    23812963.189    23812969.592
 -19626556.49149 -15242170.56947  21710968.937    21710969.119    21710972.428
  -4335487.48949  -3336983.17545  24054344.698    24054343.694    24054347.798
 -27806330.17149 -21637702.88348  20293394.885    20293395.265    20293397.619
 10  4 10  2 57 30.0000000  0 11G 2G29G 8G21G27G24G26G10G 5G18G15
  -7594284.24249  -5888411.54645  23343735.224    23343735.708    23343738.629
 -11575268.16349  -8992935.92546  22483995.131    22483995.004    22483999.326
  -5435389.24049  -4212603.05145  23751144.031    23751144.065    23751149.201
 -11972489.71049  -9304448.36146  22863652.005    22863651.873    22863654.030
  -4605651.79249  -3057293.81245  23377879.205    23377879.221    23377884.862
 -10045153.02849  -7323029.49246  22817216.650    22817216.510    22817221.815
  -5215402.26949  -3506457.45445  23130201.994    23130202.114    23130207.455
  -4512466.50149  -3468698.28345  23828743.839    23828743.814    23828750.240
 -19570451.48549 -15198452.41447  21721645.325    21721645.328    21721648.798
  -4410979.81449  -3395808.31445  24039978.707    24039977.790    24039980.645
 -27821327.18549 -21649388.86548  20290541.034    20290541.510    20290543.781
 10  4 10  2 58  0.0000000  0 11G 2G29G 8G21G27G24G26G10G 5G18G15
  -7487678.34549  -5805342.13845  23364021.807    23364022.184    23364025.951
 -11510068.87649  -8942131.33046  22496402.016    22496401.825    22496406.049
  -5404512.70649  -4188543.40545  23757019.647    23757019.578    23757024.746
 -12063751.59549  -9375561.48546  22846285.517    22846285.166    22846287.949
  -4702486.10049  -3132749.01245  23359452.097    23359451.458    23359458.087
 -10131791.96949  -7390540.33646  22800729.694    22800729.663    22800735.020
  -5327993.34949  -3594190.72845  23108776.627    23108777.027    23108781.378
  -4429487.31349  -3404039.26045  23844534.260    23844533.763    23844539.309
 -19514171.04749 -15154597.55447  21732355.122    21732355.773    21732358.854
  -4486433.65649  -3454603.48445  24025620.310    24025620.219    24025623.635
 -27835822.14249 -21660683.63548  20287782.773    20287783.240    20287785.412
 10  4 10  2 58 30.0000000  0 11G 2G29G 8G21G27G24G26G10G 5G18G15
  -7380864.58549  -5722110.75645  23384347.876    23384347.903    23384351.640
 -11444484.93549  -8891027.00046  22508882.155    22508882.455    22508886.493
  -5373089.43549  -4164057.75345  23762999.303    23762998.099    23763003.996
 -12154829.11949  -9446530.96446  22828953.932    22828953.235    22828956.220
  -4799179.90649  -3208094.73145  23341051.838    23341051.906    23341057.458
 -10218234.09949  -7457897.80446  22784280.375    22784280.531    22784284.614
  -5440348.65949  -3681740.27845  23087396.231    23087396.848    23087401.192
  -4346453.12949  -3339337.38945  23860335.344    23860334.804    23860341.623
 -19457716.62549 -15110607.12047  21743098.085    21743098.746    21743101.438
  -4561849.43949  -3513368.98145  24011269.077    24011267.685    24011271.991
 -27849815.77049 -21671587.75648  20285119.853    20285120.333    20285122.648
 10  4 10  2 59  0.0000000  0 11G 2G29G 8G21G27G24G26G10G 5G18G15
  -7273844.51149  -5638718.61245  23404713.133    23404712.894    23404716.600
 -11378518.66149  -8839624.74946  22521435.163    22521435.605    22521438.984
  -5341119.68849  -4139146.26045  23769083.020    23769082.656    23769088.520
 -12245719.43849  -9517354.56546  22811658.021    22811657.698    22811659.991
  -4895730.10049  -3283328.56045  23322678.960    23322678.735    23322683.953
 -10304476.64049  -7525099.75246  22767869.008    22767869.562    22767874.323
  -5552465.82249  -3769104.25545  23066061.144    23066061.038    23066065.585
  -4263364.46549  -3274593.05745  23876146.543    23876146.128    23876152.655
 -19401088.05549 -15066480.98847  21753874.204    21753874.726    21753877.132
  -4637226.62049  -3572104.38245  23996925.069    23996925.074    23996928.951
 -27863308.50349 -21682101.57348  20282552.293    20282552.761    20282554.860
 10  4 10  2 59 30.0000000  0 11G 2G29G 8G21G27G24G26G10G 5G18G15
  -7166619.02849  -5555166.40745  23425117.438    23425117.219    23425121.618
 -11312171.85649  -8787925.98846  22534060.551    22534061.484    22534064.766
  -5308603.64849  -4113809.08945  23775270.660    23775270.733    23775275.364
 -12336419.80149  -9588030.14446  22794398.320    22794398.286    22794401.101
  -4992132.83049  -3358447.46245  23304333.983    23304334.345    23304339.022
 -10390516.79449  -7592144.00646  22751496.222    22751496.637    22751501.672
  -5664341.80949  -3856280.29545  23044771.802    23044771.756    23044776.435
  -4180220.69949  -3209805.79645  23891968.388    23891968.095    23891974.286
 -19344284.58849 -15022218.57547  21764683.523    21764684.343    21764687.114
  -4712564.38249  -3630809.08545  23982588.697    23982588.010    23982591.000
 -27876300.05649 -21692224.86048  20280080.107    20280080.672    20280082.714
 10  4 10  3  0  0.0000000  0 11G 2G29G 8G21G27G24G26G10G 5G18G15
  -7059191.08249  -5471456.44145  23445560.467    23445560.726    23445564.747
 -11245448.05549  -8735933.46146  22546757.681    22546757.964    22546761.704
  -5275542.71649  -4088047.34145  23781561.955    23781562.057    23781566.872
 -12426928.22649  -9658556.17146  22777175.128    22777175.510    22777176.969
  -5088385.93849  -3433449.79345  23286017.637    23286017.805    23286023.193
 -10476353.19449  -7659029.47846  22735162.197    22735162.175    22735167.275
  -5775975.55449  -3943267.58945  23023528.418    23023528.793    23023533.015
  -4097022.68049  -3144976.24445  23907800.469    23907799.835    23907805.789
 -19287307.41749 -14977820.81247  21775526.048    21775526.427    21775529.470
  -4787863.48449  -3689483.66845  23968259.810    23968259.639    23968263.785
 -27888791.74549 -21701958.64348  20277703.004    20277703.438    20277705.777
 10  4 10  3  0 30.0000000  0 11G 2G29G 8G21G27G24G26G10G 5G18G15
  -6951562.78149  -5387590.35745  23466041.529    23466041.408    23466045.461
 -11178350.33749  -8683649.57346  22559526.009    22559526.785    22559530.352
  -5241938.40749  -4061862.18845  23787956.479    23787956.540    23787961.588
 -12517242.60049  -9728930.99746  22759988.855    22759988.318    22759991.021
  -5184486.50149  -3508333.23345  23267730.290    23267729.296    23267735.337
 -10561983.79049  -7725754.60246  22718867.303    22718867.435    22718871.964
  -5887364.89049  -4030064.43445  23002331.635    23002331.457    23002336.520
  -4013770.85449  -3080104.78445  23923642.855    23923642.247    23923648.474
 -19230157.03649 -14933288.07747  21786401.433    21786401.818    21786404.796
  -4863123.72149  -3748127.94245  23953938.282    23953938.224    23953942.042
 -27900784.26649 -21711303.46148  20275420.902    20275421.268    20275423.621
 10  4 10  3  1  0.0000000  0 11G 2G29G 8G21G27G24G26G10G 5G18G15
  -6843735.66149  -5303569.35145  23486560.451    23486560.313    23486564.841
 -11110881.27749  -8631076.31446  22572364.981    22572365.427    22572369.496
  -5207791.30649  -4035254.05845  23794454.506    23794454.512    23794459.589
 -12607360.27849  -9799152.54646  22742839.988    22742839.590    22742841.762
  -5280431.37249  -3583095.35645  23249472.347    23249472.385    23249477.963
 -10647406.08549  -7792317.40246  22702612.042    22702612.448    22702615.962
  -5998507.59249  -4116669.09345  22981181.797    22981181.999    22981186.741
  -3930465.30049  -3015191.45045  23939495.530    23939495.032    23939501.234
 -19172833.36749 -14888620.31147  21797309.802    21797310.456    21797313.344
  -4938344.82949  -3806741.72945  23939624.164    23939624.423    23939628.131
 -27912277.44849 -21720259.18848  20273233.823    20273234.312    20273236.531
 10  4 10  3  1 30.0000000  0 11G 2G29G 8G21G27G24G26G10G 5G18G15
  -6735713.27249  -5219396.18745  23507116.566    23507116.362    23507120.671
 -11043044.86149  -8578216.81546  22585273.843    22585274.490    22585278.152
  -5173103.44549  -4008224.57245  23801055.464    23801054.863    23801060.341
 -12697280.35849  -9869220.12246  22725728.757    22725727.916    22725731.408
  -5376219.15949  -3657735.08045  23231244.414    23231244.584    23231250.257
 -10732619.45949  -7858717.40146  22686396.466    22686395.955    22686400.711
  -6109402.92749  -4203081.00845  22960079.028    22960079.608    22960084.130
  -3847107.91549  -2950237.73445  23955357.998    23955357.831    23955364.193
 -19115338.21049 -14843818.92647  21808250.836    21808251.352    21808254.379
  -5013528.04649  -3865326.03645  23925317.404    23925317.158    23925321.175
 -27923273.98049 -21728827.91248  20271141.297    20271141.880    20271143.746
 10  4 10  3  2  0.0000000  0 11G 2G29G 8G21G27G24G26G10G 5G18G15
  -6627494.88349  -5135070.29945  23527709.985    23527710.455    23527713.779
 -10974841.30349  -8525071.23346  22598252.677    22598253.734    22598256.839
  -5137873.58949  -3980772.75745  23807759.338    23807758.822    23807764.012
 -12786997.98249  -9939129.93146  22708655.949    22708654.735    22708658.465
  -5471844.07749  -3732247.90345  23213047.526    23213047.002    23213053.072
 -10817619.09149  -7924950.85346  22670221.472    22670221.432    22670225.767
  -6220046.30849  -4289296.58545  22939024.195    22939024.704    22939029.084
  -3763696.10749  -2885241.61245  23971230.761    23971230.492    23971236.182
 -19057669.02549 -14798881.92847  21819224.970    21819225.824    21819228.658
  -5088670.45549  -3923878.49645  23911018.155    23911017.417    23911021.633
 -27933771.55349 -21737007.83648  20269143.671    20269144.064    20269146.176
 10  4 10  3  2 30.0000000  0 11G 2G29G 8G21G27G24G26G10G 5G18G15
  -6519083.78149  -5050594.25545  23548340.010    23548340.193    23548344.610
 -10906274.75949  -8471642.79846  22611300.605    22611301.182    22611305.073
  -5102103.70349  -3952900.12745  23814566.270    23814566.419    23814570.502
 -12876512.19449 -10008881.24446  22691621.826    22691621.457    22691624.062
  -5567304.45249  -3806632.52945  23194882.049    23194881.438    23194887.402
 -10902404.11349  -7991017.07846  22654087.423    22654087.262    22654092.700
  -6330436.75049  -4375315.06745  22918017.521    22918017.107    22918022.745
  -3680231.64549  -2820204.44045  23987113.467    23987112.597    23987119.133
 -18999827.32149 -14753810.50047  21830231.915    21830232.764    21830235.192
  -5163773.28149  -3982400.12045  23896726.466    23896726.041    23896729.593
 -27943772.23349 -21744800.57248  20267240.570    20267241.011    20267243.266
 10  4 10  3  3  0.0000000  0 11G 2G29G 8G21G27G24G26G10G 5G18G15
  -6410481.70349  -4965969.39145  23569006.372    23569007.136    23569010.671
 -10837347.51249  -8417933.30346  22624417.097    22624418.241    22624421.279
  -5065794.88549  -3924607.57045  23821475.648    23821475.226    23821480.453
 -12965820.15049 -10078471.83246  22674627.039    22674626.103    22674629.907
  -5662597.34649  -3880886.63145  23176748.271    23176747.082    23176753.875
 -10986972.47849  -8056914.47146  22637994.569    22637994.193    22637999.347
  -6440572.33249  -4461134.94945  22897059.316    22897059.695    22897064.857
  -3596714.96249  -2755126.61245  24003006.464    24003005.765    24003012.077
 -18941813.66549 -14708605.08847  21841271.589    21841271.902    21841275.110
  -5238836.26949  -4040890.72145  23882442.442    23882442.159    23882445.696
 -27953276.40749 -21752206.41348  20265431.986    20265432.393    20265434.667
 10  4 10  3  3 30.0000000  0 11G 2G29G 8G21G27G24G26G10G 5G18G15
  -6301690.25849  -4881196.97145  23589708.966    23589709.454    23589713.029
 -10768062.33049  -8363944.90146  22637601.715    22637602.514    22637606.399
  -5028948.13349  -3895895.83845  23828487.274    23828487.401    23828491.836
 -13054918.79249 -10147899.32246  22657672.104    22657671.670    22657674.432
  -5757719.15849  -3955007.43845  23158647.103    23158646.782    23158652.737
 -11071321.08149  -8122640.63446  22621943.549    22621943.125    22621947.819
  -6550450.34349  -4546754.14045  22876150.262    22876151.090    22876155.566
  -3513145.82549  -2690007.89545  24018909.201    24018908.466    24018915.120
 -18883627.33449 -14663265.12147  21852344.101    21852344.916    21852348.040
  -5313858.45549  -4099349.52845  23868166.142    23868165.473    23868170.295
 -27962283.94449 -21759225.27348  20263717.943    20263718.360    20263720.629
 10  4 10  3  4  0.0000000  0 11G 2G29G 8G21G27G24G26G10G 5G18G15
  -6192711.73949  -4796278.79645  23610446.881    23610446.998    23610450.357
 -10698422.40449  -8309680.07346  22650853.789    22650854.180    22650859.028
  -4991564.35849  -3866765.66045  23835601.149    23835601.596    23835606.170
 -13143807.00849 -10217162.84446  22640757.238    22640756.750    22640759.894
  -5852667.53449  -4028993.08345  23140578.909    23140577.841    23140584.442
 -11155448.23449  -8188194.23846  22605934.606    22605934.267    22605939.590
  -6660069.24849  -4632171.42545  22855290.550    22855289.822    22855295.365
  -3429524.56749  -2624848.55545  24034821.756    24034821.419    24034827.682
 -18825269.37649 -14617791.42147  21863449.261    21863449.979    21863452.941
  -5388840.43849  -4157776.98045  23853897.432    23853896.971    23853900.398
 -27970796.31949 -21765858.29048  20262098.014    20262098.461    20262100.687
 10  4 10  3  4 30.0000000  0 11G 2G29G 8G21G27G24G26G10G 5G18G15
  -6083548.30049  -4711216.51345  23631220.099    23631220.516    23631223.996
 -10628430.66449  -8255141.09346  22664172.794    22664173.509    22664176.953
  -4953645.26249  -3837218.33945  23842816.933    23842816.851    23842822.322
 -13232481.51349 -10286259.82446  22623883.018    22623883.052    22623885.973
  -5947439.98849  -4102841.64345  23122544.073    23122543.017    23122550.051
 -11239351.91949  -8253573.69946  22589968.145    22589967.681    22589972.574
  -6769427.12849  -4717385.31245  22834480.326    22834479.879    22834484.922
  -3345852.15549  -2559649.37245  24050744.216    24050744.356    24050749.222
 -18766739.97449 -14572184.11647  21874586.948    21874587.388    21874590.462
  -5463782.18149  -4216173.12945  23839636.613    23839636.293    23839639.752
 -27978814.31649 -21772106.07248  20260572.269    20260572.727    20260575.049
 10  4 10  3  5  0.0000000  0 11G 2G29G 8G21G27G24G26G10G 5G18G15
  -5974201.25249  -4626011.15445  23652028.309    23652028.601    23652032.547
 -10558089.12649  -8200329.55346  22677558.348    22677558.313    22677562.763
  -4915190.67549  -3807253.74745  23850134.692    23850135.445    23850139.934
 -13320939.61949 -10355188.18846  22607049.949    22607049.495    22607052.756
  -6042032.38349  -4176549.90445  23104543.599    23104543.447    23104549.543
 -11323029.05649  -8318776.63646  22574044.838    22574043.815    22574050.028
  -6878520.96849  -4802393.44546  22813720.400    22813720.690    22813725.284
  -3262127.70949  -2494409.61845  24066676.677    24066676.107    24066682.821
 -18708038.87949 -14526443.03847  21885757.488    21885758.075    21885761.100
  -5538682.72449  -4274537.13545  23825383.475    23825382.751    23825386.489
 -27986337.33249 -21777968.15648  20259140.677    20259141.098    20259143.317
 10  4 10  3  5 30.0000000  0 11G 2G29G 8G21G27G24G26G10G 5G18G15
  -5864674.15149  -4540665.52145  23672870.655    23672871.132    23672875.253
 -10487402.00949  -8145248.72346  22691009.804    22691010.900    22691014.471
  -4876203.14649  -3776873.87845  23857553.832    23857553.030    23857558.338
 -13409179.72949 -10423946.68446  22590258.464    22590259.049    22590260.632
  -6136443.01049  -4250116.54145  23086577.566    23086577.125    23086583.536
 -11406478.98849  -8383802.52446  22558164.758    22558164.078    22558170.149
  -6987350.27549  -4887195.47046  22793010.899    22793011.117    22793015.681
  -3178352.79549  -2429130.56345  24082618.754    24082619.010    24082624.381
 -18649167.50849 -14480569.26647  21896960.350    21896961.019    21896964.226
  -5613542.90049  -4332869.68245  23811137.912    23811137.243    23811141.588
 -27993368.03749 -21783446.61748  20257802.758    20257803.185    20257805.394
 10  4 10  3  6  0.0000000  0 11G 2G29G 8G21G27G24G26G10G 5G18G15
  -5754967.70449  -4455180.13845  23693747.228    23693747.840    23693751.698
 -10416371.15349  -8089900.05646  22704526.688    22704527.253    22704530.720
  -4836683.28349  -3746079.20345  23865074.107    23865073.204    23865078.201
 -13497199.37849 -10492533.39946  22573508.947    22573507.696    22573510.813
  -6230668.19749  -4323538.68645  23068647.252    23068647.258    23068653.012
 -11489698.56649  -8448648.92146  22542328.481    22542327.931    22542333.269
  -7095912.28849  -4971789.20446  22772352.237    22772352.388    22772357.277
  -3094527.12649  -2363811.95145  24098570.178    24098569.048    24098575.414
 -18590125.23349 -14434562.32847  21908195.769    21908196.401    21908199.267
  -5688361.97649  -4391170.23345  23796900.402    23796900.848    23796903.308
 -27999906.35949 -21788541.40748  20256558.567    20256558.956    20256561.294
 10  4 10  3  6 30.0000000  0 11G 2G29G 8G21G27G24G26G10G 5G18G15
  -5645084.11949  -4369556.71345  23714657.563    23714657.344    23714661.408
 -10344999.61949  -8034285.91846  22718108.268    22718108.721    22718112.204
  -4796632.03049  -3714870.46145  23872695.693    23872695.037    23872701.040
 -13584995.80349 -10560946.17246  22556801.845    22556801.851    22556804.326
  -6324705.19949  -4396814.18245  23050752.458    23050752.106    23050758.153
 -11572685.42549  -8513313.97546  22526536.520    22526536.603    22526541.072
  -7204204.71549  -5056172.87546  22751744.943    22751745.165    22751749.668
  -3010650.98249  -2298454.00745  24114531.140    24114530.868    24114536.717
 -18530912.12949 -14388422.27147  21919463.611    21919463.951    21919467.173
  -5763139.56449  -4449438.44245  23782670.702    23782669.880    23782674.196
 -28005952.68649 -21793252.82848  20255407.963    20255408.443    20255410.668
 10  4 10  3  7  0.0000000  0 11G 2G29G 8G21G27G24G26G10G 5G18G15
  -5535025.79749  -4283797.15745  23735600.816    23735600.845    23735605.783
 -10273290.88449  -7978409.02646  22731753.913    22731754.014    22731757.661
  -4756051.30349  -3683249.13945  23880417.831    23880416.761    23880422.946
 -13672566.64149 -10629183.16346  22540137.613    22540137.108    22540139.696
  -6418551.63049  -4469941.18645  23032893.965    23032894.489    23032899.868
 -11655437.93449  -8577796.41746  22510789.207    22510789.075    22510793.102
  -7312226.15949  -5140345.38146  22731189.189    22731189.445    22731194.107
  -2926724.87349  -2233057.13245  24130501.764    24130501.052    24130507.903
 -18471529.37249 -14342150.01847  21930763.763    21930764.328    21930767.508
  -5837876.11249  -4507674.66445  23768448.695    23768447.936    23768451.664
 -28011508.40149 -21797581.95548  20254350.770    20254351.075    20254353.478
 10  4 10  3  7 30.0000000  0 11G 2G29G 8G21G27G24G26G10G 5G18G15
  -5424794.39549  -4197902.72745  23756577.165    23756577.504    23756582.333
 -10201246.69049  -7922270.73546  22745463.538    22745464.333    22745467.099
  -4714941.40749  -3651215.49445  23888240.677    23888240.385    23888245.547
 -13759909.09549 -10697242.19046  22523516.986    22523516.884    22523519.356
  -6512203.53549  -4542916.60445  23015072.495    23015072.067    23015078.345
 -11737953.00549  -8642093.84046  22495087.127    22495086.875    22495092.112
  -7419973.68449  -5224304.44946  22710685.522    22710685.320    22710690.485
  -2842748.15749  -2167620.83345  24146482.016    24146481.429    24146488.306
 -18411976.15849 -14295744.94747  21942096.424    21942097.322    21942100.116
  -5912570.06949  -4565877.72645  23754234.956    23754235.195    23754237.900
 -28016573.49649 -21801528.77348  20253386.905    20253387.452    20253389.538
 10  4 10  3  8  0.0000000  0 11G 2G29G 8G21G27G24G26G10G 5G18G15
  -5314392.27149  -4111875.26145  23777586.162    23777587.379    23777590.785
 -10128871.05849  -7865874.19246  22759236.199    22759236.079    22759240.560
  -4673304.31649  -3618771.02645  23896164.035    23896164.410    23896169.744
 -13847021.85349 -10765122.24346  22506940.045    22506940.249    22506942.025
  -6605659.15149  -4615739.08645  22997288.516    22997289.008    22997294.212
 -11820229.72149  -8706205.53346  22479430.380    22479430.544    22479434.974
  -7527446.59549  -5308049.55046  22690234.016    22690233.898    22690238.769
  -2758722.57049  -2102146.43145  24162471.482    24162471.129    24162477.790
 -18352253.85449 -14249208.11547  21953461.257    21953462.154    21953464.626
  -5987222.99849  -4624048.79445  23740028.847    23740027.611    23740032.497
 -28021149.82049 -21805094.73948  20252516.113    20252516.525    20252518.651
 10  4 10  3  8 30.0000000  0 11G 2G29G 8G21G27G24G26G10G 5G18G15
  -5203820.69449  -4025715.76045  23798627.463    23798627.593    23798631.954
 -10056165.97749  -7809220.91546  22773071.483    22773071.591    22773075.339
  -4631140.69449  -3585916.28745  23904187.672    23904186.796    23904192.950
 -13933901.57549 -10832820.69646  22490407.361    22490406.605    22490409.349
  -6698914.64949  -4688405.62845  22979542.764    22979542.824    22979547.774
 -11902264.88749  -8770129.01646  22463819.671    22463819.871    22463824.250
  -7634641.83749  -5391578.25846  22669835.387    22669835.180    22669840.808
  -2674647.56549  -2036633.52245  24178470.415    24178469.974    24178476.846
 -18292361.77449 -14202538.98547  21964858.354    21964858.795    21964862.032
  -6061833.52449  -4682186.83345  23725830.764    23725831.029    23725833.976
 -28025237.11249 -21808279.63348  20251738.321    20251738.953    20251740.877
 10  4 10  3  9  0.0000000  0 11G 2G29G 8G21G27G24G26G10G 5G18G15
  -5093084.28549  -3939427.83945  23819700.092    23819700.335    23819704.605
  -9983136.75849  -7752315.07446  22786968.478    22786968.770    22786972.822
  -4588454.08749  -3552654.03345  23912310.746    23912310.392    23912315.796
 -14020547.67549 -10900337.12546  22473919.209    22473918.530    22473920.830
  -6791969.30349  -4760915.66845  22961835.114    22961834.323    22961840.471
 -11984058.44249  -8833864.22346  22448254.892    22448255.516    22448259.554
  -7741559.57549  -5474890.73946  22649489.654    22649490.124    22649494.273
  -2590525.43449  -1971083.91645  24194478.220    24194478.291    24194483.771
 -18232302.27549 -14155739.40247  21976287.367    21976287.872    21976291.091
  -6136403.55949  -4740293.32745  23711640.533    23711640.353    23711643.776
 -28028838.57749 -21811085.96248  20251053.016    20251053.387    20251055.460
 10  4 10  3  9 30.0000000  0 11G 2G29G 8G21G27G24G26G10G 5G18G15
  -4982182.20449  -3853010.80745  23840804.170    23840804.165    23840809.249
  -9909783.87749  -7695157.04446  22800927.114    22800927.736    22800931.158
  -4545243.25549  -3518983.27545  23920533.554    23920532.920    23920538.112
 -14106955.53449 -10967667.90146  22457476.306    22457475.543    22457477.711
  -6884817.71249  -4833265.00045  22944166.576    22944166.684    22944171.787
 -12065605.76049  -8897407.57246  22432736.954    22432737.059    22432741.426
  -7848195.56249  -5557983.68246  22629197.581    22629198.432    22629201.917
  -2506353.92649  -1905495.79945  24210495.770    24210496.142    24210502.525
 -18172073.22649 -14108807.71247  21987748.610    21987748.578    21987752.349
  -6210930.51449  -4798366.23545  23697458.533    23697458.281    23697461.759
 -28031952.69649 -21813512.54848  20250460.442    20250461.058    20250462.826
 10  4 10  3 10  0.0000000  0 11G 2G29G 8G21G27G24G26G10G 5G18G15
  -4871116.97949  -3766466.64945  23861939.260    23861939.953    23861944.629
  -9836110.07949  -7637748.93946  22814946.832    22814946.991    22814950.972
  -4501509.59649  -3484905.13545  23928855.805    23928855.458    23928860.814
 -14193122.88949 -11034811.26446  22441079.115    22441079.294    22441081.207
  -6977457.03949  -4905451.42145  22926537.832    22926537.628    22926542.334
 -12146904.60449  -8960757.28546  22417266.301    22417266.419    22417270.887
  -7954547.75649  -5640855.46546  22608959.447    22608958.843    22608964.104
  -2422133.47549  -1839869.58345  24226522.570    24226521.818    24226529.503
 -18111675.05849 -14061744.22747  21999242.003    21999242.891    21999245.217
  -6285414.30649  -4856405.51545  23683284.759    23683285.083    23683287.768
 -28034580.44449 -21815560.13648  20249960.420    20249960.764    20249962.875
 10  4 10  3 10 30.0000000  0 11G 2G29G 8G21G27G24G26G10G 5G18G15
  -4759891.01649  -3679797.25945  23883104.975    23883104.701    23883109.585
  -9762118.75249  -7580093.40846  22829026.896    22829026.654    22829030.861
  -4457255.48149  -3450421.44145  23937277.127    23937277.078    23937282.543
 -14279046.73749 -11101764.89646  22424728.383    22424727.834    22424730.171
  -7069884.59949  -4977472.82345  22908949.471    22908948.745    22908954.521
 -12227953.44249  -9023912.19346  22401843.289    22401843.387    22401847.662
  -8060614.59349  -5723504.89946  22588775.529    22588775.586    22588780.083
  -2337864.89649  -1774205.84245  24242558.685    24242558.916    24242564.092
 -18051108.49449 -14014549.53747  22010767.524    22010768.202    22010771.186
  -6359854.89749  -4914411.13545  23669119.371    23669119.080    23669121.907
 -28036722.63249 -21817229.37348  20249552.816    20249553.376    20249555.309
 10  4 10  3 11  0.0000000  0 11G 2G29G 8G21G27G24G26G10G 5G18G15
  -4648505.77449  -3593003.74045  23904300.967    23904301.017    23904306.475
  -9687812.59949  -7522192.56446  22843166.825    22843167.234    22843170.856
  -4412481.57649  -3415532.70845  23945797.198    23945796.970    23945801.980
 -14364725.31549 -11168527.40446  22408424.301    22408423.891    22408426.708
  -7162097.18949  -5049326.72245  22891401.801    22891401.832    22891406.789
 -12308749.34949  -9086870.01846  22386468.363    22386468.290    22386472.482
  -8166393.89749  -5805930.27646  22568646.363    22568646.891    22568650.829
  -2253548.04949  -1708504.49145  24258603.585    24258602.849    24258608.827
 -17990373.00949 -13967223.21347  22022325.084    22022325.172    22022328.478
  -6434251.89549  -4972382.76945  23654962.055    23654962.280    23654964.834
 -28038379.96549 -21818520.80248  20249237.437    20249237.874    20249239.825
 10  4 10  3 11 30.0000000  0 11G 2G29G 8G21G27G24G26G10G 5G18G15
  -4536963.48849  -3506087.87945  23925526.894    23925526.023    23925532.075
  -9613194.74249  -7464048.82246  22857366.207    22857366.125    22857370.396
  -4367189.39149  -3380240.13745  23954416.235    23954416.363    23954421.244
 -14450155.65849 -11235096.47646  22392167.393    22392166.746    22392169.562
  -7254092.30349  -5121011.15445  22873895.551    22873895.212    22873900.843
 -12389290.43549  -9149629.27546  22371141.872    22371142.270    22371146.823
  -8271883.67649  -5888130.06046  22548572.115    22548572.428    22548576.686
  -2169183.55849  -1642766.02745  24274657.401    24274656.255    24274664.719
 -17929469.46449 -13919765.94247  22033914.657    22033914.968    22033918.653
  -6508605.49349  -5030320.60345  23640813.176    23640813.096    23640816.396
 -28039553.93049 -21819435.58048  20249014.031    20249014.439    20249016.436
 10  4 10  3 12  0.0000000  0 11G 2G29G 8G21G27G24G26G10G 5G18G15
  -4425266.05149  -3419051.12145  23946782.307    23946783.167    23946787.468
  -9538267.87949  -7405664.30546  22871624.371    22871625.303    22871628.827
  -4321379.93949  -3344544.48145  23963133.783    23963132.469    23963139.015
 -14535336.32649 -11301471.00446  22375957.936    22375957.357    22375959.836
  -7345866.77749  -5192523.66045  22856431.363    22856430.532    22856436.212
 -12469574.29249  -9212188.10046  22355864.330    22355863.977    22355869.166
  -8377082.01249  -5970102.73746  22528553.346    22528553.187    22528558.384
  -2084771.30649  -1576990.35945  24290720.555    24290721.443    24290726.392
 -17868397.87949 -13872177.73247  22045536.110    22045536.633    22045540.068
  -6582915.05649  -5088224.10645  23626672.476    23626671.885    23626675.481
 -28040245.14649 -21819974.18648  20248882.468    20248882.740    20248884.913
 10  4 10  3 12 30.0000000  0 11G 2G29G 8G21G27G24G26G10G 5G18G15
  -4313415.74049  -3331895.23645  23968067.052    23968066.063    23968071.740
  -9463035.20249  -7347041.49246  22885940.778    22885941.742    22885944.407
  -4275054.91549  -3308447.11845  23971948.878    23971948.525    23971953.497
 -14620264.39549 -11367648.69946  22359796.586    22359795.815    22359798.818
  -7437417.73249  -5263861.99745  22839009.779    22839009.593    22839014.463
 -12549598.81149  -9274544.83346  22340636.134    22340636.289    22340640.280
  -8481986.99149  -6051846.81746  22508590.488    22508591.147    22508595.722
  -2000311.75849  -1511177.80345  24306792.879    24306792.448    24306799.029
 -17807158.30049 -13824458.61747  22057189.585    22057190.165    22057193.265
  -6657180.03649  -5146092.87745  23612540.385    23612540.119    23612542.459
 -28040454.42449 -21820137.26348  20248842.662    20248843.078    20248845.181
 10  4 10  3 13  0.0000000  0 11G 2G29G 8G21G27G24G26G10G 5G18G15
  -4201416.05449  -3244622.96445  23989380.131    23989380.288    23989385.894
  -9387500.93449  -7288183.66146  22900314.533    22900315.561    22900318.821
  -4228216.78949  -3271949.89645  23980861.814    23980861.805    23980867.480
 -14704938.43949 -11433628.45446  22343683.623    22343683.710    22343685.652
  -7528743.63649  -5335024.96845  22821631.006    22821630.654    22821635.980
 -12629362.85549  -9336698.61146  22325457.553    22325458.277    22325462.505
  -8586597.98049  -6133361.83946  22488683.734    22488683.698    22488688.286
  -1915806.34449  -1445329.52645  24322873.845    24322874.604    24322880.695
 -17745752.39049 -13776609.89147  22068874.764    22068875.445    22068879.172
  -6731401.94749  -5203928.08945  23598416.325    23598415.757    23598419.060
 -28040184.07249 -21819926.59448  20248894.044    20248894.312    20248896.588
 10  4 10  3 13 30.0000000  0 11G 2G29G 8G21G27G24G26G10G 5G18G15
  -4089267.63949  -3157234.80245  24010721.352    24010721.314    24010726.624
  -9311666.84749  -7229092.21546  22914745.379    22914746.251    22914750.164
  -4180866.04349  -3235053.24245  23989872.415    23989871.258    23989877.993
 -14789354.06349 -11499406.84746  22327619.825    22327619.121    22327621.737
  -7619840.44749  -5406009.43145  22804295.809    22804295.964    22804300.974
 -12708863.05049  -9398646.79046  22310329.218    22310329.310    22310334.351
  -8690912.04149  -6214645.47446  22468833.372    22468833.270    22468838.021
  -1831253.87649  -1379444.57745  24338963.690    24338963.596    24338969.736
 -17684179.39249 -13728630.96147  22080591.741    22080592.804    22080595.436
  -6805579.43749  -5261728.68545  23584300.740    23584299.669    23584303.887
 -28039433.88649 -21819342.03748  20249036.820    20249037.133    20249039.361
 10  4 10  3 14  0.0000000  0 11G 2G29G 8G21G27G24G26G10G 5G18G15
  -3976972.04349  -3069731.96145  24032090.742    24032091.329    24032095.164
  -9235535.54749  -7169769.18146  22929232.716    22929233.092    22929237.255
  -4133004.04349  -3197758.22245  23998980.143    23998980.452    23998985.661
 -14873509.21849 -11564982.26946  22311605.533    22311604.508    22311607.344
  -7710704.96449  -5476812.88046  22787004.812    22787005.105    22787009.897
 -12788097.20249  -9460387.66746  22295251.510    22295251.399    22295256.332
  -8794926.71949  -6295695.81846  22449039.925    22449039.953    22449044.602
  -1746654.47849  -1313523.07345  24355062.400    24355062.811    24355069.208
 -17622439.09449 -13680521.66347  22092340.553    22092340.861    22092344.553
  -6879711.74349  -5319494.07845  23570193.748    23570192.905    23570196.200
 -28038204.61749 -21818384.16148  20249270.713    20249271.091    20249273.201
 10  4 10  3 14 30.0000000  0 11G 2G29G 8G21G27G24G26G10G 5G18G15
  -3864532.51249  -2982116.97845  24053487.418    24053488.446    24053492.545
  -9159110.58949  -7110217.31946  22943775.863    22943775.874    22943779.561
  -4084632.57349  -3160066.18245  24008185.068    24008184.859    24008190.479
 -14957402.23749 -11630353.43546  22295641.091    22295640.829    22295643.132
  -7801334.94249  -5547433.58246  22769758.487    22769758.554    22769763.227
 -12867063.43649  -9521919.76246  22280224.782    22280224.032    22280229.428
  -8898640.85749  -6376511.99046  22429303.774    22429303.866    22429308.504
  -1662009.34349  -1247565.92745  24371169.903    24371169.011    24371175.925
 -17560532.41049 -13632282.72447  22104121.058    22104121.775    22104124.836
  -6953799.20849  -5377224.54345  23556095.315    23556094.595    23556098.154
 -28036497.87249 -21817054.23248  20249595.506    20249595.886    20249598.065
 10  4 10  3 15  0.0000000  0 11G 2G29G 8G21G27G24G26G10G 5G18G15
  -3751949.99549  -2894390.56945  24074911.235    24074911.825    24074916.307
  -9082394.34449  -7050438.46846  22958374.477    22958375.108    22958378.315
  -4035753.03949  -3121978.27545  24017486.519    24017486.370    24017492.645
 -15041029.91749 -11695517.84346  22279727.320    22279727.096    22279729.602
  -7891726.80149  -5617868.73746  22752557.491    22752557.332    22752562.607
 -12945758.85249  -9583240.83846  22265249.494    22265249.189    22265253.882
  -9002051.80149  -6457091.90346  22409625.249    22409625.579    22409630.325
  -1577318.14949  -1181572.89445  24387286.263    24387285.733    24387291.601
 -17498458.76049 -13583913.67947  22115933.284    22115933.418    22115937.017
  -7027840.98349  -5434919.40345  23542005.479    23542004.230    23542008.903
 -28034313.70449 -21815352.28048  20250011.107    20250011.399    20250013.589
 10  4 10  3 15 30.0000000  0 11G 2G29G 8G21G27G24G26G10G 5G18G15
  -3639227.16749  -2806554.84345  24096361.734    24096361.676    24096368.056
  -9005390.43749  -6990435.47546  22973027.916    22973029.203    22973032.322
  -3986367.00249  -3083495.69845  24026884.261    24026884.084    24026889.594
 -15124390.85349 -11760474.40346  22263864.291    22263863.998    22263866.000
  -7981878.23849  -5688116.53446  22735402.101    22735402.219    22735407.443
 -13024181.72849  -9644349.55746  22250326.048    22250326.599    22250330.798
  -9105158.23849  -6537434.52646  22390004.787    22390005.722    22390009.287
  -1492581.34049  -1115544.31645  24403411.199    24403411.540    24403417.363
 -17436218.69749 -13535414.96247  22127777.176    22127778.008    22127781.040
  -7101837.42149  -5492578.93045  23527924.279    23527923.547    23527927.632
 -28031653.93649 -21813279.73348  20250517.238    20250517.718    20250519.783
 10  4 10  3 16  0.0000000  0 11G 2G29G 8G21G27G24G26G10G 5G18G15
  -3526366.17049  -2718611.47945  24117838.458    24117838.928    24117843.713
  -8928101.60749  -6930210.47246  22987735.582    22987736.331    22987739.981
  -3936475.96549  -3044619.60145  24036378.183    24036378.961    24036383.347
 -15207481.03649 -11825219.98146  22248052.743    22248052.314    22248054.572
  -8071786.35149  -5758174.74746  22718293.168    22718293.393    22718298.442
 -13102329.89149  -9705244.20446  22235454.949    22235454.825    22235459.793
  -9207958.16549  -6617538.32646  22370442.620    22370442.585    22370447.180
  -1407799.11749  -1049480.34245  24419544.824    24419545.440    24419552.048
 -17373812.85849 -13486787.05947  22139652.706    22139653.207    22139656.239
  -7175788.02749  -5550202.75745  23513851.948    23513851.379    23513855.280
 -28028519.52949 -21810837.33348  20251113.687    20251114.185    20251116.238
 10  4 10  3 16 30.0000000  0 11G 2G29G 8G21G27G24G26G10G 5G18G15
  -3413369.22549  -2630562.16645  24139341.382    24139342.981    24139347.598
  -8850531.31849  -6869766.13746  23002496.761    23002496.553    23002501.042
  -3886082.26149  -3005351.79945  24045967.925    24045967.643    24045973.629
 -15290298.79949 -11889753.29046  22232293.034    22232292.704    22232294.979
  -8161448.45649  -5828041.25946  22701231.074    22701231.005    22701236.219
 -13180200.95949  -9765922.93246  22220636.618    22220636.533    22220641.378
  -9310450.04249  -6697402.08646  22350939.028    22350939.856    22350943.463
  -1322971.94049   -983381.35345  24435687.003    24435686.476    24435693.899
 -17311241.43549 -13438030.13947  22151559.688    22151560.214    22151563.234
  -7249692.88349  -5607790.93545  23499788.426    23499787.815    23499790.894
 -28024911.60649 -21808025.96448  20251800.276    20251800.650    20251802.864
 10  4 10  3 17  0.0000000  0 11G 2G29G 8G21G27G24G26G10G 5G18G15
  -3300239.49749  -2542409.37445  24160869.498    24160869.818    24160875.034
  -8772683.49549  -6809105.55046  23017310.670    23017311.427    23017315.192
  -3835188.05249  -2965694.03145  24055652.632    24055653.218    24055656.928
 -15372843.09849 -11954073.50346  22216585.265    22216584.808    22216587.592
  -8250862.83349  -5897714.75446  22684215.996    22684215.564    22684220.754
 -13257793.77849  -9826384.84846  22205871.166    22205870.915    22205875.748
  -9412632.85749  -6777025.01746  22331494.342    22331494.748    22331498.789
  -1238101.33949   -917248.54645  24451837.450    24451837.825    24451844.801
 -17248505.42849 -13389144.97447  22163497.968    22163498.489    22163501.836
  -7323552.70649  -5665344.01545  23485733.433    23485732.766    23485737.089
 -28020832.32949 -21804847.30548  20252576.504    20252576.963    20252579.098
