     2.11           OBSERVATION DATA    M (MIXED)           RINEX VERSION / TYPE
teqc  2011Oct11                         20140401 01:30:34UTCPGM / RUN BY / DATE
MSXP|IAx86-PII|bcc32 5.0|MSWin95->XP|486/DX+                COMMENT
teqc  2013Mar15                         20140310 00:05:09UTCCOMMENT
Linux 2.4.21-27.ELsmp|Opteron|gcc -static|Linux x86_64|=+   COMMENT
teqc  2013Mar15                         20140309 01:02:05UTCCOMMENT
teqc  2013Mar15     IGN-RGP             20140309 01:02:02UTCCOMMENT
   0.000      (antenna height)                              COMMENT
 +16.26230440 (latitude)                                    COMMENT
 -61.52753102 (longitude)                                   COMMENT
-025.112      (elevation)                                   COMMENT
BIT 2 OF LLI FLAGS DATA COLLECTED UNDER A/S CONDITION       COMMENT
97103M001 (COGO code)                                       COMMENT
ABMF                                                        MARKER NAME
97103M001                                                   MARKER NUMBER
Automatic           Institut Geographique National          OBSERVER / AGENCY
5118K75539          TRIMBLE NETR9       4.81                REC # / TYPE / VERS
1441112501          TRM57971.00     NONE                    ANT # / TYPE
  2919786.4480 -5383745.1780  1774604.7340                  APPROX POSITION XYZ
        0.0000        0.0000        0.0000                  ANTENNA: DELTA H/E/N
     1     1                                                WAVELENGTH FACT L1/2
    21    L1    L2    C1    P1    P2    D1    D2    S1    S2# / TYPES OF OBSERV
          L5    C5    D5    S5    L7    C7    D7    S7    L8# / TYPES OF OBSERV
          C8    D8    S8                                    # / TYPES OF OBSERV
    30.0000                                                 INTERVAL
    16                                                      LEAP SECONDS
 SNR is mapped to RINEX snr flag value [0-9]                COMMENT
  L1 & L2: min(max(int(snr_dBHz/6), 0), 9)                  COMMENT
Forced Modulo Decimation to 30 seconds                      COMMENT
Forced Modulo Decimation to 30 seconds                      COMMENT
  2014     3     9     0     0    0.0000000     GPS         TIME OF FIRST OBS
                                                            END OF HEADER
 14  3  9  0  0  0.0000000  0 23G32R24G31R14G03R13R18R17G16R15G23R04
                                G13G27G11G20G19R05E19S33S38S35S20
 130842274.526 6 101955064.74943  24898491.016                    24898522.914
                                        37.000          19.300



 117804037.964 7  91625425.732 7  22029867.906    22029867.613    22029876.441
                                        42.000          43.100



 119485846.501 7  93105953.17945  22737400.336                    22737425.031
                                        44.600          32.400



 112248527.495 6  87304592.575 6  21057490.461    21057489.414    21057501.129
                                        41.000          38.900



 105062734.458 8  81867315.90946  19992695.773                    19992706.117
                                        50.900          40.500



 124823123.994 5  97084656.951 6  23375362.180    23375359.813    23375382.766
                                        34.300          38.800



 102529037.729 7  79745015.007 7  19227360.391    19227358.551    19227367.129
                                        45.800          44.400



 102777221.708 7  79938024.698 8  19206320.336    19206319.398    19206326.879
                                        47.800          49.500



 116199322.345 7  90545120.49845  22111933.680                    22111943.141
                                        45.700          33.600



 118534236.612 6  92193387.529 7  22182049.148    22182048.172    22182058.809
                                        40.400          42.100



 110908018.404 8  86421919.10846  21105071.961                    21105081.363
                                        48.700          39.100



 124488568.204 6  96824492.163 6  23247376.141    23247374.102    23247393.121
                                        40.200          40.600



 120465483.104 7  93869290.07944  22923807.258                    22923817.918
                                        45.200          27.900



 106748460.769 8  83180895.38647  20313471.242                    20313482.836
                                        50.700          44.000    79714999.078 9
  20313482.578                          55.400


 126900876.486 7  98883936.14644  24148422.008                    24148446.418
                                        42.400          24.700



 132211369.820 6 103021879.93743  25159012.594                    25159038.383
                                        37.600          18.300



 108535506.174 7  84573351.26346  20653546.500                    20653555.977
                                        47.800          41.300



 125520029.665 6  97626712.730 6  23481114.695    23481113.887    23481127.102
                                        40.500          38.900



 141858631.355 7                  26994814.195
                                        44.000                   105933423.901 7
  26994840.313                          43.000   108696902.383 7  26994836.891
                        42.900   107315174.247 7  26994838.570
        46.700
 196199050.160 7                  37335434.031
                                        43.400                   146512178.056 7
  37335436.094                          45.200


 200637459.319 7                  38180034.703
                                        44.100                   149826631.708 7
  38180035.359                          47.300


 213735742.102 6                  40672538.016
                                        37.100                   159607843.752 6
  40672539.305                          38.700


 200905125.019 6                  38230984.594
                                        38.900



 14  3  9  0  0 30.0000000  0 22G32R24G31R14G03R18R17G16R15G23R04G13
                                G27G11G20G19R05E19S33S38S35S20
 130875634.571 6 101981060.31342  24904838.852                    24904870.121
     -1107.896        -863.326          37.700          17.800



 117912351.007 7  91709669.142 7  22050123.133    22050123.191    22050131.441
     -3616.641       -2812.952          42.700          43.300



 119527363.214 7  93138303.24845  22745301.234                    22745325.691
     -1388.985       -1082.309          45.000          33.500



 112227073.684 6  87287906.228 6  21053465.359    21053464.664    21053476.844
       711.897         553.707          40.600          39.400



 105052212.513 8  81859117.01546  19990693.641                    19990703.781
       342.250         266.682          51.100          40.400



 102535479.243 7  79750025.098 7  19228568.180    19228566.813    19228575.199
      -227.898        -177.255          45.700          44.900



 102778514.519 7  79939030.260 8  19206561.930    19206561.109    19206568.949
       -56.119         -43.651          47.600          50.000



 116233922.491 7  90572081.64845  22118517.531                    22118527.602
     -1152.820        -898.299          46.100          32.800



 118466561.310 6  92140751.240 6  22169384.156    22169383.648    22169393.852
      2257.772        1756.049          40.400          41.400



 110887240.356 8  86405728.42246  21101118.313                    21101127.469
       683.301         532.438          49.600          39.000



 124565463.416 6  96884298.968 6  23261736.938    23261735.488    23261753.723
     -2562.538       -1993.083          40.400          40.200



 120389242.173 7  93809881.63645  22909299.227                    22909310.641
      2534.620        1975.025          45.600          30.000



 106777103.744 8  83203214.59747  20318921.852                    20318932.984
      -962.883        -750.301          51.100          44.400    79736388.322 9
  20318933.137        -719.033          55.300


 126800744.106 7  98805911.60043  24129367.742                    24129390.941
      3338.745        2601.596          42.600          22.600



 132240129.130 6 103044289.15043  25164484.992                    25164511.086
      -956.076        -744.975          36.700          18.600



 108482405.936 7  84531974.52946  20643441.477                    20643450.910
      1761.280        1372.423          47.500          41.500



 125553581.419 6  97652808.502 6  23487392.203    23487390.219    23487404.582
     -1124.741        -874.796          39.000          39.600



 141913569.162 7                  27005268.539
     -1829.048                          43.100                   105974448.295 7
  27005294.617       -1365.830          42.500   108738997.051 7  27005291.102
     -1401.463          42.400   107356733.779 7  27005293.469       -1383.644
        46.400
 196198924.892 7                  37335410.219
         4.133                          44.300                   146512085.065 7
  37335411.391           3.066          45.400


 200637564.136 7                  38180054.234
        -3.537                          44.700                   149826709.739 7
  38180054.703          -2.569          47.200


 213735786.252 6                  40672545.609
        -1.578                          36.900                   159607876.068 6
  40672548.398          -1.161          39.300


 200905093.067 6                  38230984.594
         1.114                          38.300



 14  3  9  0  1  0.0000000  0 24G32R24G31R14G03R13R18R17G16R15G23R04
                                G13G27G11G20G19R05E19S33S38S35S20S36
 130908737.442 6 102006855.51043  24911138.250                    24911169.258
     -1099.268        -856.602          38.200          18.600



 118021046.574 7  91794210.105 7  22070450.961    22070450.902    22070458.180
     -3629.316       -2822.798          43.900          43.600



 119569195.813 7  93170899.46045  22753262.008                    22753286.633
     -1399.494       -1090.490          45.000          32.400



 112205820.577 6  87271375.961 6  21049479.570    21049477.820    21049489.523
       705.163         548.497          40.600          39.300



 105042215.563 8  81851327.20846  19988791.078                    19988801.152
       324.805         253.097          50.200          40.600



 124900765.079 6  97145042.224 6  23389901.570    23389900.023    23389919.508
     -1304.219       -1014.407          36.900          36.000



 102542739.121 7  79755671.711 7  19229929.484    19229927.645    19229936.246
      -255.158        -198.453          45.500          44.500



 102780613.627 7  79940662.952 8  19206953.977    19206953.156    19206960.473
       -82.946         -64.523          47.700          49.200



 116268489.203 7  90599016.74245  22125095.492                    22125105.449
     -1151.639        -897.376          47.100          34.000



 118398765.852 6  92088021.542 7  22156697.344    22156696.133    22156707.047
      2261.808        1759.181          39.700          42.400



 110867039.213 8  86389987.25346  21097273.688                    21097283.410
       664.091         517.476          48.800          39.700



 124642318.739 6  96944074.800 6  23276088.563    23276086.762    23276106.078
     -2561.125       -1991.972          39.400          40.100



 120313420.445 7  93750799.82944  22894871.172                    22894882.105
      2520.642        1964.134          46.200          29.400



 106806247.884 8  83225924.31947  20324468.000                    20324478.715
      -979.501        -763.249          51.200          43.900    79758151.812 9
  20324479.102        -731.443          55.300


 126700549.268 6  98727838.36543  24110299.734                    24110324.383
      3340.840        2603.230          41.900          23.600



 132268727.056 6 103066572.49443  25169927.578                    25169953.586
      -950.603        -740.730          37.700          18.300



 108429847.037 8  84491019.63546  20633440.078                    20633449.277
      1743.231        1358.355          48.000          41.100



 125587525.969 6  97679209.765 6  23493741.289    23493740.012    23493754.285
     -1137.752        -884.893          38.400          40.000



 141968368.214 7                  27015696.500
     -1824.366                          42.400                   106015369.012 7
  27015723.008       -1362.327          42.700   108780985.359 7  27015720.102
     -1397.870          43.000   107398188.294 7  27015722.043       -1380.102
        46.600
 196198801.011 7                  37335386.984
         4.185                          43.700                   146511992.225 7
  37335387.430           3.177          45.400


 200637669.817 7                  38180074.094
        -3.700                          44.100                   149826788.767 7
  38180074.703          -2.879          47.200


 213735831.304 5                  40672553.609
        -1.634                          35.700                   159607910.418 6
  40672556.727          -1.345          39.200


 200905057.710 6                  38230975.266
         1.414                          39.500



 211081528.571 6                  40167471.766
         1.872                          39.000



 14  3  9  0  1 30.0000000  0 23G32R24G31R14G03R13R18R17G16R15G23R04
                                G13G27G11G20G19R05E19S33S38S35S20
 130941582.332 6 102032449.66843  24917388.648                    24917418.270
     -1090.687        -849.887          38.100          19.000



 118130120.457 7  91879045.275 7  22090848.688    22090848.043    22090855.102
     -3641.911       -2832.597          43.700          43.100



 119611345.127 7  93203742.45245  22761283.953                    22761308.105
     -1410.103       -1098.759          44.900          33.700



 112184771.103 6  87255004.119 6  21045530.773    21045529.023    21045540.844
       698.296         543.107          41.200          39.600



 105032743.259 8  81843946.21746  19986988.516                    19986998.598
       307.252         239.414          49.900          41.300



 124940061.710 6                  23397259.891    23397257.992
     -1315.277                          36.000



 102550816.866 7  79761954.446 7  19231444.000    19231442.867    19231451.438
      -282.461        -219.689          45.600          44.800



 102783518.681 7  79942922.469 8  19207497.133    19207495.844    19207503.352
      -109.885         -85.457          47.900          49.300



 116303021.492 7  90625925.01645  22131666.898                    22131675.852
     -1150.552        -896.538          47.400          33.600



 118330852.026 6  92035199.788 7  22143987.023    22143986.750    22143998.059
      2265.639        1762.182          39.600          42.200



 110847415.213 8  86374695.81346  21093539.813                    21093549.008
       644.801         502.443          50.000          39.100



 124719130.683 6  97003816.815 6  23290433.797    23290431.875    23290451.410
     -2559.738       -1990.859          38.900          40.200



 120238020.145 7  93692046.40544  22880521.984                    22880533.715
      2506.489        1953.101          45.200          28.600



 106835891.620 8  83249023.34347  20330109.102                    20330119.727
      -996.197        -776.256          50.000          44.000    79780288.382 9
  20330120.113        -743.916          55.400


 126600294.293 7  98649718.28743  24091221.914                    24091245.918
      3342.737        2604.712          42.600          23.800



 132297161.975 5 103088728.85843  25175339.172                    25175365.379
      -945.267        -736.547          33.000          20.100



 108377831.209 8  84450487.89346  20623541.836                    20623550.844
      1725.052        1344.193          48.900          41.300



 125621860.142 6  97705914.049 6  23500164.438    23500162.805    23500177.008
     -1150.754        -895.012          39.900          39.400



 142023027.042 7                  27026098.531
     -1819.739                          42.100                   106056185.038 7
  27026125.535       -1358.872          42.100   108822866.224 7  27026121.828
     -1394.323          42.400   107439536.745 7  27026123.926       -1376.602
        46.600
 196198679.879 7                  37335363.219
         4.077                          43.100                   146511902.139 7
  37335363.875           3.005          45.700


 200637774.996 7                  38180093.672
        -3.526                          43.700                   149826867.824 7
  38180095.359          -2.666          47.500


 213735875.936 6                  40672562.813
        -1.476                          37.200                   159607944.148 6
  40672565.227          -1.037          39.300


 200905022.388 6                  38230970.234
         0.982                          38.900



 14  3  9  0  2  0.0000000  0 22G32R24G31R14G03R18R17G16R15G23R04G13
                                G27G11G20G19R05E19S33S38S35S20
 130974168.313 6 102057842.07843  24923588.758                    24923619.375
     -1081.992        -843.123          37.200          19.000



 118239569.088 7  91964171.962 7  22111315.703    22111314.352    22111322.523
     -3654.244       -2842.202          42.100          43.300



 119653811.844 7  93236832.78245  22769365.352                    22769389.547
     -1420.670       -1106.994          44.900          33.200



 112163928.702 6  87238793.283 6  21041620.539    21041618.672    21041631.445
       691.374         537.737          40.800          39.800



 105023795.094 8  81836973.66046  19985285.797                    19985295.984
       289.845         225.851          49.200          40.600



 102559712.624 7  79768873.423 7  19233113.336    19233110.910    19233119.383
      -309.696        -240.890          45.200          44.200



 102787229.541 7  79945808.745 8  19208190.398    19208189.461    19208197.387
      -136.649        -106.294          47.100          49.700



 116337518.836 7  90652806.05945  22138231.578                    22138240.957
     -1149.338        -895.592          46.300          33.600



 118262822.170 6  91982287.789 7  22131256.430    22131255.570    22131267.832
      2269.504        1765.161          40.000          42.600



 110828369.128 8  86359854.70446  21089915.375                    21089924.793
       625.547         487.435          48.900          39.000



 124795895.643 6  97063522.301 6  23304768.422    23304766.973    23304786.391
     -2558.049       -1989.626          36.900          38.700



 120163043.553 7  93633623.14544  22866254.648                    22866266.383
      2492.353        1942.087          44.800          28.400



 106866033.570 8  83272510.59147  20335845.094                    20335855.629
     -1012.739        -789.149          50.600          43.600    79802796.991 9
  20335855.844        -756.267          55.500


 126499981.856 7  98571553.43344  24072132.773                    24072156.305
      3344.638        2606.189          43.400          24.900



 132325432.325 6 103110756.96943  25180719.602                    25180747.070
      -939.680        -732.191          37.700          18.600



 108326359.865 7  84410380.42746  20613746.992                    20613755.645
      1706.923        1330.072          47.600          40.800



 125656581.023 6  97732919.124 6  23506658.656    23506658.551    23506673.277
     -1163.512        -904.961          39.300          40.000



 142077544.662 7                  27036473.398
     -1814.987                          43.200                   106096895.627 7
  27036500.266       -1355.329          42.400   108864638.890 7  27036496.746
     -1390.683          42.800   107480778.364 7  27036498.613       -1373.004
        46.600
 196198560.692 7                  37335340.563
         4.110                          42.400                   146511812.790 7
  37335342.813           3.136          45.200


 200637880.885 7                  38180114.297
        -3.760                          43.900                   149826946.248 7
  38180115.680          -2.826          47.600


 213735920.800 5                  40672572.625
        -1.679                          35.900                   159607977.085 6
  40672573.914          -1.400          39.900


 200904987.695 6                  38230960.531
         1.087                          39.000



 14  3  9  0  2 30.0000000  0 23G32R24G31R14G03R13R18R17G16R15G23R04
                                G13G27G11G20G19R05E19S33S38S35S20
 131006493.762 6 102083031.46343  24929739.016                    24929769.203
     -1073.295        -836.365          39.000          19.600



 118349387.837 6  92049586.493 7  22131851.977    22131851.566    22131859.457
     -3666.522       -2851.736          41.300          43.100



 119696595.726 7  93270170.24445  22777507.211                    22777532.191
     -1431.212       -1115.210          45.100          33.700



 112143295.647 6  87222745.293 6  21037749.977    21037748.578    21037760.457
       684.355         532.290          41.100          39.400



 105015369.996 8  81830408.67346  19983682.586                    19983692.781
       272.413         212.273          49.900          40.300



 125019527.399 6                  23412155.328    23412153.078
     -1336.474                          37.400



 102569425.349 7  79776427.784 7  19234933.984    19234932.496    19234940.797
      -336.860        -262.016          45.800          44.500



 102791745.329 7  79949321.051 8  19209034.102    19209032.813    19209040.211
      -163.464        -127.127          47.700          49.200



 116371980.054 7  90679658.94345  22144789.313                    22144798.461
     -1148.111        -894.634          46.700          34.200



 118194677.795 6  91929286.733 7  22118504.516    22118504.008    22118515.191
      2273.341        1768.150          40.400          42.100



 110809900.742 8  86345463.73546  21086401.305                    21086410.191
       606.313         472.457          49.000          39.100



 124872609.322 6  97123187.846 6  23319093.898    23319093.504    23319112.098
     -2556.218       -1988.185          38.200          38.700



 120088493.371 7  93575532.14544  22852068.570                    22852079.152
      2478.137        1931.010          44.600          28.000



 106896671.534 8  83296384.33547  20341675.195                    20341686.258
     -1029.217        -801.989          51.700          44.400    79825675.995 9
  20341686.410        -768.573          55.400


 126399614.197 7  98493345.53143  24053033.234                    24053055.742
      3346.488        2607.627          43.800          23.200



 132353535.729 5 103132654.97842  25186067.781                    25186095.656
      -934.088        -727.810          33.200          15.600



 108275434.304 7  84370698.24746  20604055.906                    20604065.039
      1688.709        1315.876          47.600          41.000



 125691685.116 6  97760222.237 6  23513227.203    23513225.688    23513238.973
     -1176.214        -914.818          40.200          38.800



 142131918.963 7                  27046821.023
     -1810.126                          43.400                   106137499.194 7
  27046847.801       -1351.699          43.000   108906301.749 7  27046844.051
     -1386.958          42.100   107521911.584 7  27046846.281       -1369.332
        46.700
 196198444.509 7                  37335319.578
         3.855                          42.900                   146511725.887 7
  37335320.398           2.838          45.800


 200637987.630 7                  38180134.172
        -3.587                          44.100                   149827025.624 7
  38180135.859          -2.801          47.300


 213735967.117 6                  40672579.563
        -1.399                          36.900                   159608012.778 6
  40672581.977          -1.063          39.000


 200904953.209 6                  38230954.016
         0.910                          38.800



 14  3  9  0  3  0.0000000  0 23G32R24G31R14G03R13R18R17G16R15G23R04
                                G13G27G11G20G19R05E19S33S38S35S20
 131038557.437 6 102108016.89143  24935840.227                    24935869.223
     -1064.585        -829.567          36.400          20.400



 118459572.484 7  92135285.651 7  22152457.672    22152457.379    22152464.922
     -3678.685       -2861.220          42.700          43.000



 119739697.740 7  93303755.58745  22785709.578                    22785734.680
     -1441.878       -1123.512          44.900          33.700



 112122874.995 6  87206862.490 6  21033919.555    21033917.805    21033929.754
       677.202         526.716          41.100          39.400



 105007467.482 8  81824250.89546  19982179.102                    19982188.820
       255.002         198.701          50.300          40.900



 125059844.546 6  97268827.702 5  23419691.930    23419690.266    23419708.941
     -1347.134       -1047.401          40.100          35.200



 102579954.590 7  79784617.230 7  19236908.414    19236907.047    19236915.637
      -364.168        -283.244          45.700          44.800



 102797065.636 7  79953459.107 8  19210028.180    19210027.711    19210035.328
      -190.323        -148.026          47.200          49.500



 116406403.987 7  90706482.77445  22151339.914                    22151348.770
     -1146.872        -893.664          44.300          34.200



 118126420.740 6  91876198.004 6  22105731.656    22105730.680    22105741.582
      2277.042        1771.034          40.100          41.800



 110792010.402 8  86331523.20446  21082996.703                    21083005.926
       587.031         457.430          49.600          39.300



 124949268.177 6  97182810.740 6  23333410.047    23333409.301    23333428.684
     -2554.401       -1986.690          40.100          39.500



 120014371.832 7  93517775.18744  22837963.586                    22837973.809
      2463.797        1919.847          45.400          27.400



 106927803.633 8  83320643.11747  20347599.367                    20347610.020
     -1045.683        -814.817          50.200          43.900    79848924.002 9
  20347610.527        -780.871          55.600


 126299193.312 7  98415096.15044  24033922.070                    24033946.242
      3348.173        2608.929          43.200          26.800



 132381470.673 6 103154421.67842  25191384.852                    25191411.844
      -928.449        -723.457          38.000          16.300



 108225055.660 8  84331442.23947  20594469.297                    20594478.523
      1670.463        1301.661          48.700          42.000



 125727168.830 6  97787820.611 6  23519864.617    23519862.867    23519876.879
     -1188.865        -924.675          38.500          39.400



 142186148.594 7                  27057140.367
     -1805.328                          42.100                   106177994.702 7
  27057168.031       -1348.113          43.000   108947853.754 7  27057164.047
     -1383.288          42.100   107562935.333 7  27057166.641       -1365.696
        46.600
 196198330.577 7                  37335297.734
         3.727                          42.800                   146511641.017 7
  37335298.156           2.815          45.700


 200638093.883 7                  38180154.297
        -3.628                          44.700                   149827105.268 7
  38180156.195          -2.761          46.900


 213736011.258 5                  40672587.047
        -1.329                          35.900                   159608045.211 6
  40672590.117          -0.863          39.200


 200904919.158 6                  38230948.578
         1.255                          38.900



 14  3  9  0  3 30.0000000  0 23G32R24G31R14G03R13R18R17G16R15G23R04
                                G13G27G11G20G19R05E19S33S38S35S20
 131070358.132 6 102132797.40943  24941890.164                    24941919.746
     -1055.790        -822.731          38.300          19.600



 118570119.080 6  92221266.304 7  22173129.961    22173128.258    22173137.547
     -3690.678       -2870.518          41.300          43.900



 119783117.980 7  93337588.89245  22793972.672                    22793997.875
     -1452.487       -1131.788          44.600          32.900



 112102669.582 6  87191147.128 6  21030128.164    21030127.469    21030139.273
       670.011         521.129          40.600          39.800



 105000086.996 8  81818499.90246  19980774.156                    19980784.656
       237.611         185.150          50.800          40.000



 125100422.883 5  97300243.859 5  23427290.828    23427288.813    23427307.906
     -1357.681       -1056.175          33.000          32.400



 102591299.184 7  79793440.846 7  19239036.711    19239034.402    19239042.770
      -391.294        -304.349          45.200          44.100



 102803189.713 7  79958222.328 8  19211172.422    19211171.836    19211179.473
      -217.065        -168.829          47.900          49.200



 116440789.731 7  90733276.84845  22157883.078                    22157892.605
     -1145.568        -892.654          47.000          33.200



 118058053.444 6  91823023.532 6  22092936.813    22092936.070    22092947.184
      2280.670        1773.876          40.200          41.900



 110774698.134 8  86318033.12046  21079702.320                    21079711.762
       567.765         442.412          49.800          39.400



 125025868.415 6  97242388.060 6  23347715.328    23347713.645    23347734.660
     -2552.375       -1985.144          40.500          39.600



 119940680.997 7  93460353.81244  22823940.672                    22823951.117
      2449.387        1908.608          45.300          28.800



 106959428.113 8  83345285.57147  20353617.336                    20353628.336
     -1062.058        -827.577          51.200          44.100    79872539.685 9
  20353628.781        -793.095          55.400


 126198721.692 7  98336807.24844  24014802.703                    24014826.828
      3349.861        2610.254          42.300          26.000



 132409234.872 6 103176055.31642  25196668.719                    25196696.094
      -922.702        -718.994          37.500          17.800



 108175225.001 7  84292613.24446  20584987.070                    20584996.051
      1652.210        1287.434          47.800          41.300



 125763028.906 6  97815711.666 6  23526573.320    23526571.453    23526585.348
     -1201.377        -934.411          39.400          38.900



 142240231.920 6                  27067432.617
     -1800.433                          41.300                   106218380.910 7
  27067460.625       -1344.452          42.600   108989293.599 7  27067456.922
     -1379.529          42.800   107603848.363 7  27067458.973       -1361.994
        46.900
 196198218.233 7                  37335275.969
         3.785                          43.200                   146511556.839 7
  37335277.281           2.890          45.400


 200638201.325 7                  38180175.531
        -3.719                          44.100                   149827185.416 7
  38180176.680          -2.791          47.200


 213736057.180 5                  40672595.953
        -1.609                          35.800                   159608079.271 6
  40672599.680          -1.292          38.600


 200904886.080 6                  38230938.469
         1.182                          39.900



 14  3  9  0  4  0.0000000  0 24G32R24G31R14G03R13R18R17G16R15G23R04
                                G13G27G11G20G19R05E19E12S33S38S35S20
 131101894.487 6 102157371.92843  24947891.844                    24947921.262
     -1046.924        -815.814          38.400          19.900



 118681023.146 7  92307524.962 7  22193869.258    22193868.258    22193877.832
     -3702.502       -2879.720          42.300          43.600



 119826856.543 7  93371670.22545  22802296.734                    22802322.570
     -1463.082       -1140.043          45.200          34.200



 112082681.997 6  87175601.167 6  21026378.164    21026378.172    21026390.063
       662.720         515.462          41.100          39.500



 104993227.514 8  81813154.87146  19979468.914                    19979479.129
       220.272         171.643          50.400          40.900



 125141324.921 5  97332058.015 6  23434949.352    23434947.219    23434966.402
     -1368.639       -1064.716          34.900          38.500



 102603458.347 7  79802898.002 7  19241315.805    19241314.199    19241322.828
      -418.421        -325.454          45.800          44.600



 102810117.080 7  79963610.302 8  19212467.383    19212465.855    19212473.535
      -243.855        -189.664          47.400          49.800



 116475136.292 7  90760040.39645  22164418.906                    22164428.938
     -1144.244        -891.622          46.600          33.600



 117989576.801 6  91769764.062 7  22080122.445    22080121.000    22080132.676
      2284.323        1776.682          40.100          42.600



 110757964.229 8  86304993.69346  21076517.969                    21076526.934
       548.500         427.399          50.000          38.800



 125102406.043 6  97301916.677 6  23362008.320    23362007.457    23362027.598
     -2550.224       -1983.502          39.700          38.700



 119867423.078 7  93403269.76944  22809999.766                    22810011.180
      2434.936        1897.354          44.100          28.100



 106991542.889 8  83370310.08447  20359728.125                    20359739.184
     -1078.372        -840.288          51.400          43.700    79896521.512 9
  20359739.457        -805.278          55.600


 126098201.935 7  98258480.81043  23995673.633                    23995697.793
      3351.402        2611.468          42.800          23.000



 132436826.419 6 103197554.39243  25201919.859                    25201947.824
      -916.916        -714.475          38.100          18.600



 108125943.685 8  84254212.28846  20575608.773                    20575618.145
      1633.862        1273.136          48.500          41.500



 125799262.023 6  97843892.867 6  23533351.414    23533349.547    23533363.680
     -1213.759        -944.016          38.900          39.600



 142294167.282 7                  27077696.781
     -1795.430                          42.600                   106258656.633 7
  27077724.777       -1340.720          42.700   109030620.058 7  27077720.980
     -1375.700          43.100   107644649.451 7  27077722.906       -1358.207
        47.200
 149379882.424 5                  28426047.367
      2871.160                          30.100                   111550039.206 6
  28426082.336        2144.127          37.400   114460021.168 5  28426077.879
      2200.044          35.700

 196198109.146 7                  37335255.938
         3.757                          44.400                   146511475.854 7
  37335256.852           2.759          45.400


 200638307.747 7                  38180195.922
        -3.392                          45.100                   149827264.945 7
  38180196.531          -2.567          47.200


 213736103.227 6                  40672605.281
        -1.267                          37.100                   159608114.730 6
  40672607.273          -0.863          39.100


 200904851.044 6                  38230932.047
         1.233                          39.700



 14  3  9  0  4 30.0000000  0 23G32R24G31R14G03R18R17G16R15G23R04G13
                                G27G11G20G19R05E19E12S33S38S35S20
 131133165.664 6 102181739.80043  24953841.133                    24953870.563
     -1038.072        -808.901          37.600          19.900



 118792280.700 7  92394058.566 7  22214676.070    22214675.070    22214683.148
     -3714.255       -2888.854          42.200          43.100



 119870914.442 7  93406000.43245  22810681.008                    22810706.980
     -1473.721       -1148.342          45.000          33.200



 112062915.790 6  87160227.387 6  21022670.586    21022669.188    21022681.820
       655.267         509.657          40.600          39.200



 104986888.377 8  81808215.32246  19978262.352                    19978272.684
       202.946         158.137          49.900          40.500



 102616430.940 7  79812987.821 7  19243749.391    19243747.434    19243755.914
      -445.504        -346.495          45.700          44.200



 102817847.130 7  79969622.621 8  19213912.227    19213910.816    19213918.262
      -270.562        -210.449          47.900          49.000



 116509443.288 7  90786773.11545  22170947.484                    22170957.484
     -1142.904        -890.577          46.000          34.000



 117920993.981 6  91716421.965 7  22067287.633    22067287.242    22067298.164
      2287.797        1779.416          40.300          42.400



 110741808.694 8  86292404.95146  21073443.820                    21073452.629
       529.215         412.374          50.900          39.700



 125178877.851 6  97361394.055 6  23376290.188    23376289.090    23376308.793
     -2547.884       -1981.683          40.900          39.600



 119794600.509 7  93346524.97444  22796142.000                    22796153.535
      2420.394        1886.022          44.200          29.100



 107024146.474 8  83395715.47947  20365932.641                    20365943.289
     -1094.624        -852.952          50.900          43.700    79920868.349 9
  20365943.676        -817.409          55.500


 125997636.225 7  98180118.59843  23976536.852                    23976559.980
      3352.930        2612.655          43.300          23.900



 132464243.990 6 103218917.83942  25207138.094                    25207165.559
      -911.038        -709.876          37.900          17.800



 108077213.446 8  84216240.75646  20566335.570                    20566344.754
      1615.477        1258.817          48.400          41.800



 125835864.920 6  97872361.685 6  23540199.031    23540198.691    23540212.590
     -1226.017        -953.535          39.900          39.300



 142347953.544 7                  27087932.789
     -1790.441                          43.200                   106298821.035 7
  27087959.656       -1336.997          43.400   109071832.303 7  27087957.875
     -1371.877          43.800   107685337.771 7  27087958.629       -1354.433
        47.200
 149293754.902 6                  28409660.141
      2870.692                          37.800                   111485721.080 6
  28409694.953        2143.771          39.000   114394025.388 6  28409690.684
      2199.692          39.500

 196198001.081 7                  37335235.219
         3.658                          43.800                   146511395.114 7
  37335235.242           2.771          45.500


 200638413.112 7                  38180215.766
        -3.538                          45.700                   149827343.759 7
  38180217.242          -2.608          46.900


 213736147.924 6                  40672614.453
        -1.322                          36.700                   159608147.478 6
  40672615.977          -0.872          38.600


 200904816.329 6                  38230932.672
         1.201                          39.700



 14  3  9  0  5  0.0000000  0 24G32R24G31R14G03R13R18R17G16R15G23R04
                                G13G27G11G20G19R05E19E12S33S38S35S20
 131164170.314 6 102205899.99743  24959740.977                    24959769.871
     -1029.178        -801.987          39.900          21.700



 118903887.627 7  92480863.956 7  22235546.711    22235546.066    22235553.164
     -3725.802       -2897.883          42.800          42.500



 119915292.035 7  93440579.88845  22819125.977                    22819152.563
     -1484.413       -1156.673          43.500          31.400



 112043373.443 6  87145027.717 6  21019004.984    21019003.000    21019015.270
       647.750         503.803          40.700          39.500



 104981068.941 8  81803680.72246  19977155.195                    19977165.574
       185.617         144.635          50.100          40.900



 125223892.005 6  97396526.189 7  23450449.719    23450448.289    23450466.867
     -1390.367       -1081.436          40.200          42.300



 102630216.686 7  79823710.099 7  19246334.406    19246331.746    19246340.270
      -472.581        -367.563          46.000          44.700



 102826378.967 7  79976258.529 8  19215505.984    19215504.930    19215512.656
      -297.291        -231.238          47.600          49.000



 116543709.229 7  90813473.84645  22177468.273                    22177478.031
     -1141.547        -889.520          43.500          33.200



 117852306.291 6  91662998.316 7  22054432.961    22054433.273    22054443.816
      2291.251        1782.094          40.500          42.400



 110726231.558 8  86280266.91046  21070479.297                    21070488.398
       509.914         397.338          49.600          39.300



 125255280.100 6  97420817.307 6  23390557.945    23390558.020    23390577.461
     -2545.611       -1979.902          41.400          40.000



 119722215.523 7  93290121.15344  22782368.438                    22782378.719
      2405.767        1874.611          44.300          28.700



 107057236.769 8  83421500.13847  20372229.461                    20372240.270
     -1110.834        -865.588          49.000          43.700    79945578.644 9
  20372240.715        -829.516          55.400


 125897026.933 7  98101722.40343  23957391.195                    23957414.012
      3354.335        2613.746          44.700          23.000



 132491485.468 6 103240144.07442  25212321.813                    25212350.199
      -905.212        -705.312          37.100          16.900



 108029035.114 7  84178699.27646  20557167.711                    20557176.832
      1597.049        1244.454          47.900          41.200



 125872834.084 6  97901115.453 6  23547114.516    23547113.000    23547127.961
     -1238.166        -963.006          38.800          39.900



 142401589.022 7                  27098139.445
     -1785.431                          43.300                   106338872.829 7
  27098166.859       -1333.257          42.700   109112928.994 7  27098163.809
     -1368.042          43.000   107725912.017 7  27098165.730       -1350.646
        47.000
 149207643.158 5                  28393274.914
      2870.166                          35.100                   111421414.703 6
  28393310.570        2143.376          39.500   114328041.718 6  28393306.211
      2199.285          39.700

 196197896.453 7                  37335214.156
         3.378                          43.800                   146511316.875 7
  37335216.219           2.541          45.300


 200638522.389 7                  38180235.953
        -3.606                          44.800                   149827425.416 7
  38180237.664          -2.635          46.800


 213736194.556 6                  40672621.609
        -1.546                          37.500                   159608182.567 6
  40672625.078          -1.250          40.000


 200904781.215 6                  38230918.609
         1.234                          40.600



 14  3  9  0  5 30.0000000  0 24G32R24G31R14G03R13R18R17G16R15G23R04
                                G13G27G11G20G19R05E19E12S33S38S35S20
 131194906.482 6 102229850.98243  24965588.586                    24965618.086
     -1020.183        -794.982          39.600          20.400



 119015839.074 7  92567937.273 7  22256482.063    22256481.770    22256489.902
     -3737.206       -2906.722          42.700          43.000



 119959989.081 7  93475408.48845  22827631.711                    22827657.695
     -1495.098       -1165.054          43.300          32.000



 112024057.289 6  87130004.015 6  21015381.898    21015380.266    21015392.441
       640.200         497.922          40.900          39.400



 104975767.859 8  81799550.03746  19976146.328                    19976156.816
       168.363         131.187          50.700          40.500



 125265961.405 6  97429094.098 7  23458291.102    23458290.492    23458308.723
     -1401.173       -1089.777          40.900          43.900



 102644813.462 7  79835063.184 7  19249071.156    19249069.789    19249077.926
      -499.638        -388.601          45.400          44.500



 102835711.099 7  79983516.889 8  19217250.070    19217249.016    19217256.984
      -323.916        -251.938          46.700          49.300



 116577933.023 7  90840141.73645  22183981.180                    22183990.898
     -1140.073        -888.370          46.100          34.500



 117783514.945 6  91609494.061 7  22041560.109    22041560.305    22041571.066
      2294.708        1784.759          40.500          42.400



 110711232.376 8  86268579.22646  21067625.070                    21067633.680
       490.662         382.332          49.500          38.600



 125331607.987 6  97480182.750 6  23404812.305    23404811.441    23404832.473
     -2542.998       -1977.901          38.100          40.500



 119650269.661 7  93234059.49344  22768676.852                    22768687.691
      2391.093        1863.193          45.000          27.900



 107090811.230 8  83447662.06347  20378618.031                    20378629.012
     -1126.919        -878.121          50.500          43.400    79970650.494 9
  20378629.578        -841.529          55.600


 125796376.136 7  98023293.86144  23938237.625                    23938259.668
      3355.680        2614.789          44.600          25.000



 132518548.273 6 103261231.07642  25217473.602                    25217500.965
      -899.186        -700.633          37.700          17.400



 107981409.220 7  84141588.26946  20548104.594                    20548114.055
      1578.624        1230.095          47.800          41.700



 125910165.640 6  97930150.978 6  23554099.063    23554097.195    23554111.016
     -1250.130        -972.357          39.800          39.400



 142455071.619 7                  27108317.008
     -1780.282                          43.000                   106378810.457 7
  27108345.887       -1329.407          43.000   109153908.555 7  27108341.480
     -1364.092          42.800   107766370.619 7  27108343.711       -1346.754
        47.000
 149121548.089 6                  28376892.977
      2869.577                          37.500                   111357120.736 6
  28376928.820        2142.941          39.300   114262070.751 6  28376923.988
      2198.839          39.500

 196197793.160 7                  37335194.250
         3.533                          44.600                   146511240.080 7
  37335195.727           2.549          45.700


 200638628.816 7                  38180256.891
        -3.778                          45.200                   149827505.048 7
  38180258.883          -2.900          47.200


 213736239.940 6                  40672630.922
        -1.583                          37.500                   159608216.775 6
  40672633.453          -1.104          39.000


 200904745.085 6                  38230911.281
         1.261                          40.500



 14  3  9  0  6  0.0000000  0 24G32R24G31R14G03R13R18R17G16R15G23R04
                                G13G27G11G20G19R05E19E12S33S38S35S20
 131225373.625 6 102253592.34642  24971386.039                    24971414.809
     -1011.262        -788.010          38.300          17.400



 119128131.084 6  92655275.428 7  22277481.102    22277480.336    22277489.836
     -3748.542       -2915.511          41.100          43.600



 120005006.432 7  93510486.89045  22836198.281                    22836223.887
     -1505.684       -1173.234          43.200          32.100



 112004970.649 6  87115158.781 6  21011800.664    21011799.383    21011811.746
       632.467         491.914          40.900          40.300



 104970984.338 8  81795822.64346  19975236.031                    19975246.004
       151.101         117.741          50.600          41.300



 125308139.358 5  97461953.292 6  23466194.469    23466193.742    23466212.164
     -1412.051       -1098.210          35.800          41.700



 102660220.381 7  79847046.376 7  19251960.945    19251958.988    19251967.336
      -526.637        -409.597          45.500          44.500



 102845843.086 7  79991397.358 8  19219143.102    19219142.398    19219150.145
      -350.616        -272.710          47.800          49.500



 116612113.654 7  90866775.99445  22190485.273                    22190495.188
     -1138.675        -887.278          47.000          33.700



 117714622.173 6  91555910.903 7  22028668.531    22028667.789    22028678.516
      2298.032        1787.341          40.200          43.000



 110696811.730 8  86257342.33546  21064881.016                    21064889.863
       471.342         367.278          48.200          38.700



 125407858.482 6  97539487.900 6  23419050.641    23419050.129    23419071.848
     -2540.385       -1975.838          37.500          39.800



 119578765.585 7  93178342.09544  22755070.281                    22755081.086
      2376.288        1851.658          44.500          29.000



 107124868.322 8  83474200.05947  20385099.055                    20385109.652
     -1143.021        -890.663          50.300          42.900    79996082.742 9
  20385110.332        -853.548          55.500


 125695686.561 7  97944835.09644  23919076.180                    23919098.613
      3356.924        2615.757          43.100          25.900



 132545431.412 6 103282178.13343  25222588.609                    25222617.086
      -893.222        -696.000          37.100          18.600



 107934337.351 7  84104908.97546  20539146.930                    20539156.156
      1560.094        1215.660          46.600          41.300



 125947856.310 6  97959465.906 6  23561148.656    23561147.965    23561162.258
     -1262.105        -981.626          39.800          39.100



 142508400.242 7                  27118465.875
     -1775.134                          42.700                   106418633.107 7
  27118494.324       -1325.563          42.500   109194770.141 7  27118490.617
     -1360.141          42.600   107806712.736 7  27118492.527       -1342.856
        46.800
 149035471.608 5                  28360514.164
      2868.871                          35.300                   111292840.666 6
  28360550.977        2142.418          37.700   114196114.074 6  28360545.586
      2198.297          38.000

 196197691.678 7                  37335174.719
         3.190                          44.200                   146511164.063 7
  37335177.273           2.346          45.300


 200638737.217 7                  38180277.688
        -3.771                          45.200                   149827586.168 7
  38180278.719          -2.788          47.000


 213736285.024 6                  40672640.438
        -1.303                          36.800                   159608250.378 6
  40672641.539          -0.954          38.700


 200904707.638 6                  38230905.406
         1.338                          39.900



 14  3  9  0  6 30.0000000  0 25G32R24G31R14G03R13R18R17G16R15G23R04
                                G13G27G11G20G19R05E19E12S33S38S35S20
                                S36
 131255571.366 6 102277123.73643  24977131.813                    24977160.961
     -1002.194        -780.969          38.700          19.300



 119240760.471 7  92742876.006 7  22298544.320    22298543.793    22298551.633
     -3759.669       -2924.189          42.600          44.100



 120050344.253 7  93545814.78645  22844826.227                    22844852.031
     -1516.452       -1181.652          42.900          33.300



 111986117.105 6  87100494.857 6  21008263.109    21008262.531    21008274.879
       624.704         485.860          40.900          39.900



 104966718.584 8  81792498.71046  19974424.484                    19974434.262
       133.905         104.337          50.200          41.200



 125350671.886 4                  23474161.570    23474159.789
     -1423.149                          29.900



 102676437.678 7  79859659.862 7  19255002.125    19255000.168    19255008.707
      -553.579        -430.558          46.000          44.600



 102856775.148 7  79999900.120 8  19221186.484    19221185.313    19221192.672
      -377.234        -293.417          47.900          49.200



 116646251.268 7  90893376.72945  22196981.453                    22196991.297
     -1137.175        -886.110          46.200          34.200



 117645631.193 6  91502251.320 7  22015756.336    22015756.531    22015767.371
      2301.326        1789.937          41.500          42.600



 110682969.944 8  86246556.51146  21062247.195                    21062256.293
       452.099         352.285          48.200          39.200



 125484028.567 6  97598730.547 6  23433277.469    23433276.137    23433297.273
     -2537.606       -1973.678          38.400          40.400



 119507706.192 7  93122971.19744  22741548.023                    22741559.023
      2361.472        1840.106          45.800          29.100



 107159406.962 8  83501113.29747  20391671.859                    20391682.578
     -1158.978        -903.099          50.200          43.400    80021874.597 9
  20391683.203        -865.469          55.400


 125594961.012 7  97866348.30144  23899907.891                    23899930.176
      3358.141        2616.714          42.600          24.300



 132572133.537 6 103302984.08142  25227671.789                    25227699.648
      -887.111        -691.248          37.900          17.400



 107887821.491 7  84068662.94046  20530295.172                    20530304.273
      1541.603        1201.249          47.000          41.700



 125985903.551 6  97989058.139 6  23568266.813    23568266.121    23568278.852
     -1273.874        -990.809          39.600          39.700



 142561574.148 7                  27128585.008
     -1769.931                          42.700                   106458340.188 7
  27128612.840       -1321.674          42.100   109235513.149 7  27128610.027
     -1356.162          42.400   107846937.775 7  27128611.695       -1338.918
        46.400
 148949416.315 6                  28344140.422
      2868.193                          38.600                   111228576.404 6
  28344177.590        2141.904          40.200   114130173.616 6  28344172.434
      2197.776          39.800

 196197593.342 7                  37335154.453
         3.384                          43.600                   146511090.664 7
  37335157.453           2.541          45.800


 200638845.981 7                  38180298.234
        -3.675                          45.000                   149827666.750 7
  38180299.734          -2.833          47.500


 213736330.701 6                  40672648.719
        -1.464                          37.500                   159608284.713 6
  40672651.250          -1.074          39.000


 200904667.734 6                  38230892.672
         1.488                          39.900



 211080894.85116                  40167354.422
                                        38.200



 14  3  9  0  7  0.0000000  0 25G32R24G31R14G03R13R18R17G16R15G23R04
                                G13G27G11G20G19R05E19E12S33S38S35S20
                                S36
 131285497.737 6 102300443.67943  24982827.594                    24982855.500
      -993.133        -773.886          38.200          19.000



 119353722.344 7  92830735.244 6  22319668.617    22319667.383    22319674.625
     -3770.740       -2932.772          42.000          41.700



 120096002.417 7  93581392.29045  22853514.344                    22853541.383
     -1527.118       -1189.953          44.300          32.600



 111967499.089 6  87086014.110 6  21004771.117    21004769.836    21004782.012
       616.755         479.711          41.000          39.900



 104962969.292 8  81789577.20346  19973710.969                    19973720.930
       116.644          90.893          50.500          41.200



 125393557.698 5  97528374.081 6  23482188.406    23482185.566    23482204.176
     -1434.178       -1115.499          35.000          39.700



 102693463.431 7  79872902.160 7  19258194.969    19258193.129    19258201.742
      -580.568        -451.567          45.900          44.800



 102868505.701 7  80009023.909 8  19223378.555    19223377.266    19223384.875
      -403.899        -314.155          47.600          49.100



 116680344.706 7  90919943.03245  22203469.523                    22203478.664
     -1135.737        -884.986          44.200          34.200



 117576543.246 6  91448516.348 7  22002829.492    22002828.047    22002838.805
      2304.442        1792.370          40.900          42.200



 110669706.566 8  86236221.39146  21059723.500                    21059732.047
       432.791         337.240          49.400          39.700



 125560114.217 6  97657907.488 6  23447487.109    23447485.070    23447505.977
     -2534.785       -1971.472          39.200          39.300



 119437093.093 7  93067948.06344  22728110.750                    22728121.742
      2346.536        1828.460          45.500          29.900



 107194424.484 8  83528399.67747  20398334.891                    20398345.668
     -1174.970        -915.560          49.500          43.400    80048024.049 9
  20398346.293        -877.411          55.400


 125494201.442 7  97787834.99043  23880733.789                    23880755.453
      3359.142        2617.489          42.000          23.500



 132598652.339 5 103323647.13842  25232717.875                    25232747.215
      -881.017        -686.473          35.300          16.900



 107841862.007 8  84032850.42147  20521549.031                    20521558.480
      1523.002        1186.755          48.800          42.000



 126024303.307 6  98018924.571 6  23575450.258    23575449.684    23575463.270
     -1285.613        -999.932          39.200          39.100



 142614591.208 7                  27138673.703
     -1764.705                          42.100                   106497930.162 6
  27138703.145       -1317.777          41.600   109276135.966 7  27138699.766
     -1352.156          42.600   107887044.169 7  27138701.156       -1334.962
        46.400
 148863383.077 5                  28327769.492
      2867.372                          34.800                   111164328.650 6
  28327807.723        2141.296          36.800   114064250.071 6  28327803.316
      2197.139          37.900

 196197498.143 7                  37335138.188
         2.989                          43.500                   146511019.532 7
  37335140.133           2.165          45.900


 200638953.946 7                  38180318.563
        -3.808                          44.200                   149827748.083 7
  38180319.758          -2.913          46.700


 213736377.740 6                  40672656.438
        -1.621                          37.300                   159608319.774 6
  40672658.805          -1.226          38.800


 200904625.676 6                  38230885.047
         1.369                          40.500



 211080828.886 6                  40167337.672
         1.781                          40.100



 14  3  9  0  7 30.0000000  0 24G32R24G31R14G03R13R18R17G16R15G23R04
                                G13G27G11G20G19R05E19E12S33S38S35S20
 131315152.027 6 102323551.59343  24988469.250                    24988497.348
      -984.089        -766.826          37.500          18.300



 119467012.792 6  92918850.036 7  22340853.070    22340852.305    22340861.793
     -3781.590       -2941.232          40.700          43.500



 120141981.322 7  93617219.52245  22862264.523                    22862291.188
     -1537.780       -1198.249          45.000          35.400



 111949119.641 6  87071718.931 6  21001323.398    21001321.414    21001334.258
       608.820         473.512          40.600          39.900



 104959735.488 8  81787057.37746  19973095.609                    19973105.754
        99.523          77.549          49.500          41.400



 125436752.308 6  97561998.557 7  23490276.875    23490274.625    23490293.684
     -1445.043       -1123.945          36.800          43.500



 102711296.514 7  79886772.375 7  19261538.703    19261537.336    19261545.527
      -607.426        -472.470          46.000          44.500



 102881033.863 7  80018768.080 8  19225720.023    19225718.852    19225726.410
      -430.433        -334.785          47.800          49.500



 116714392.883 7  90946474.07145  22209948.617                    22209958.254
     -1134.204        -883.797          47.000          34.000



 117507360.728 6  91394707.815 7  21989882.094    21989881.586    21989892.227
      2307.601        1794.799          40.600          42.600



 110657022.036 8  86226337.32046  21057309.539                    21057317.984
       413.522         322.228          50.300          38.900



 125636111.655 6  97717015.812 6  23461677.273    23461676.527    23461698.668
     -2531.793       -1969.160          38.000          38.900



 119366928.763 7  93013274.59844  22714759.047                    22714770.023
      2331.583        1816.814          44.500          29.500



 107229919.138 8  83556057.86247  20405089.492                    20405100.598
     -1190.797        -927.897          50.700          43.500    80074529.809 9
  20405100.988        -889.232          55.400


 125393410.632 7  97709297.34544  23861553.523                    23861575.625
      3360.203        2618.318          42.000          24.600



 132624986.256 5 103344166.16043  25237730.133                    25237759.637
      -874.766        -681.582          35.800          18.300



 107796460.226 8  83997472.49446  20512909.867                    20512918.715
      1504.413        1172.264          48.300          41.400



 126063052.648 6  98049062.861 6  23582700.305    23582697.852    23582712.070
     -1297.193       -1008.919          40.200          39.400



 142667450.322 7                  27148733.211
     -1759.394                          42.300                   106537402.192 6
  27148762.270       -1313.810          41.700   109316637.788 6  27148758.332
     -1348.094          41.900   107927031.099 7  27148760.391       -1330.951
        45.900
 148777373.928 5                  28311404.406
      2866.577                          34.800                   111100098.993 6
  28311442.555        2140.694          37.800   113998345.111 6  28311437.211
      2196.534          37.500

 196197405.427 7                  37335120.063
         3.095                          43.000                   146510951.197 7
  37335121.422           2.244          45.600


 200639063.314 7                  38180339.328
        -3.594                          44.700                   149827829.125 7
  38180340.711          -2.576          46.700


 213736425.368 6                  40672664.859
        -1.639                          36.700                   159608355.465 6
  40672668.633          -1.259          38.800


 200904583.639 6                  38230879.141
         1.354                          39.000



 14  3  9  0  8  0.0000000  0 23G32R24G31R14G03R18R17G16R15G23R04G13
                                G27G11G20G19R05E19E12S33S38S35S20
 131344532.997 6 102346446.51943  24994059.555                    24994087.098
      -974.957        -759.741          39.200          18.300



 119580627.503 7  93007216.959 7  22362100.648    22362100.473    22362109.258
     -3792.321       -2949.602          42.300          43.900



 120188281.498 6  93653297.04444  22871075.219                    22871102.109
     -1548.497       -1206.598          40.500          25.500



 111930981.575 6  87057611.474 6  20997920.344    20997918.945    20997931.461
       600.684         467.210          40.800          40.200



 104957016.193 8  81784938.47246  19972577.727                    19972587.859
        82.372          64.191          50.300          40.800



 102729935.837 7  79901269.644 7  19265034.969    19265032.895    19265041.422
      -634.267        -493.314          45.500          44.800



 102894358.662 7  80029131.845 8  19228209.328    19228208.391    19228215.719
      -456.962        -355.415          47.800          49.100



 116748395.169 7  90972969.35945  22216418.813                    22216427.730
     -1132.659        -882.597          46.800          33.900



 117438085.547 6  91340827.194 7  21976917.922    21976917.531    21976927.688
      2310.628        1797.174          41.100          42.400



 110644915.858 8  86216903.90046  21055005.492                    21055014.379
       394.233         307.194          48.800          38.300



 125712017.648 6  97776053.031 6  23475853.945    23475852.023    23475874.375
     -2528.615       -1966.712          38.000          39.600



 119297214.965 7  92958952.20844  22701491.828                    22701503.586
      2316.514        1805.075          43.600          29.600



 107265888.798 8  83584086.18147  20411934.672                    20411945.230
     -1206.605        -940.213          51.500          43.100    80101390.278 9
  20411945.500        -901.037          55.300


 125292590.867 7  97630737.13243  23842367.250                    23842389.082
      3361.123        2619.032          42.800          23.900



 132651133.306 6 103364539.57143  25242706.117                    25242735.762
      -868.538        -676.762          36.700          19.600



 107751617.086 8  83962529.87246  20504376.188                    20504385.336
      1485.779        1157.742          48.300          41.700



 126102147.651 6  98079470.055 6  23590012.000    23590011.543    23590025.969
     -1308.705       -1017.856          39.900          39.700



 142720149.713 7                  27158762.008
     -1754.051                          42.300                   106576754.933 7
  27158791.391       -1309.827          42.300   109357017.190 6  27158786.609
     -1343.994          41.300   107966897.171 7  27158789.453       -1326.911
        45.800
 148691390.373 5                  28295043.406
      2865.735                          35.300                   111035888.580 6
  28295081.641        2140.054          39.200   113932459.876 6  28295076.715
      2195.870          39.200

 196197313.549 7                  37335103.406
         3.119                          44.300                   146510881.949 7
  37335104.484           2.532          44.700


 200639172.339 7                  38180359.703
        -3.550                          44.100                   149827910.446 7
  38180361.367          -2.713          46.900


 213736471.697 6                  40672673.938
        -1.377                          37.900                   159608389.906 6
  40672677.406          -0.931          38.800


 200904541.153 6                  38230872.406
         1.579                          39.900



 14  3  9  0  8 30.0000000  0 23G32R24G31R14G03R18R17G16R15G23R04G13
                                G27G11G20G19R05E19E12S33S38S35S20
 131373638.974 6 102369127.09943  24999597.984                    24999625.180
      -965.716        -752.520          38.400          18.600



 119694561.804 7  93095832.508 7  22383407.734    22383405.914    22383414.535
     -3802.913       -2957.826          42.000          43.000



 120234902.883 7  93689625.01945  22879947.461                    22879973.563
     -1559.214       -1214.962          44.100          30.400



 111913087.299 6  87043693.638 6  20994562.836    20994561.789    20994574.352
       592.495         460.836          40.700          40.000



 104954810.050 8  81783219.43046  19972158.031                    19972168.320
        65.295          50.876          49.100          40.600



 102749379.385 7  79916392.427 7  19268681.008    19268679.168    19268688.137
      -661.044        -514.139          45.500          45.000



 102908478.393 7  80040113.888 8  19230847.813    19230847.344    19230855.152
      -483.447        -376.003          47.400          49.100



 116782350.271 7  90999427.88245  22222880.141                    22222889.441
     -1131.052        -881.341          46.500          32.800



 117368719.445 6  91286875.859 7  21963937.367    21963936.859    21963947.473
      2313.658        1799.516          40.900          43.200



 110633387.846 8  86207921.01046  21052812.250                    21052820.766
       374.959         292.173          50.000          39.200



 125787827.763 6  97835015.594 6  23490011.602    23490011.324    23490033.004
     -2525.415       -1964.197          39.300          40.400



 119227953.716 7  92904982.45444  22688312.570                    22688324.016
      2301.413        1793.312          44.800          29.300



 107302331.145 8  83612482.81747  20418869.320                    20418880.035
     -1222.335        -952.462          50.600          43.800    80128603.731 9
  20418880.363        -912.781          55.200


 125191744.382 7  97552156.07144  23823176.719                    23823198.402
      3361.927        2619.669          43.500          27.000



 132677091.205 5 103384765.53342  25247646.945                    25247675.977
      -862.184        -671.788          35.600          17.800



 107707333.350 8  83928023.13746  20495949.234                    20495958.047
      1467.108        1143.198          48.800          41.700



 126141584.733 6  98110143.262 6  23597388.758    23597388.770    23597403.734
     -1320.070       -1026.716          39.200          40.100



 142772687.666 7                  27168760.148
     -1748.680                          42.000                   106615987.086 7
  27168789.188       -1305.807          42.400   109397272.880 6  27168785.105
     -1339.875          41.900   108006641.096 7  27168787.449       -1322.844
        46.000
 148605433.514 6                  28278687.406
      2864.812                          37.900                   110971698.332 6
  28278726.098        2139.368          39.000   113866595.268 6  28278721.598
      2195.175          39.200

 196197224.503 7                  37335087.063
         2.817                          43.600                   146510815.078 7
  37335087.016           1.971          45.500


 200639280.642 7                  38180380.844
        -3.525                          44.500                   149827991.736 7
  38180382.297          -2.604          46.700


 213736518.025 6                  40672684.469
        -1.736                          39.200                   159608424.426 6
  40672685.992          -1.354          39.200


 200904500.143 6                  38230867.578
         1.370                          39.400



 14  3  9  0  9  0.0000000  0 24G32R24G31R14G03R13R18R17G16R15G23R04
                                G13G27G11G20G19R05E19E12S33S38S35S20
 131402468.680 6 102391592.39143  25005084.344                    25005110.863
      -956.577        -745.392          38.800          20.600



 119808811.134 6  93184693.085 6  22404771.320    22404769.734    22404779.090
     -3813.356       -2965.948          39.400          41.500



 120281845.503 7  93726203.54645  22888880.227                    22888906.113
     -1569.994       -1223.360          44.700          31.600



 111895439.340 6  87029967.376 6  20991253.625    20991251.523    20991264.273
       584.191         454.401          40.700          40.200



 104953115.799 8  81781899.25546  19971835.430                    19971845.379
        48.167          37.531          49.500          40.900



 125568218.293 5  97664334.322 6  23514918.273    23514916.609    23514933.758
     -1478.643       -1150.173          32.200          39.900



 102769625.374 7  79932139.365 7  19272477.688    19272475.848    19272484.297
      -687.776        -534.968          45.900          44.900



 102923391.953 7  80051713.365 8  19233634.781    19233633.727    19233641.434
      -509.976        -396.647          47.200          49.300



 116816256.902 7  91025848.62545  22229332.086                    22229341.500
     -1129.490        -880.121          44.300          33.200



 117299264.123 6  91232855.130 7  21950939.359    21950938.617    21950949.336
      2316.535        1801.730          41.300          43.100



 110622437.196 8  86199388.01046  21050728.211                    21050737.012
       355.670         277.144          49.100          38.700



 125863537.810 6  97893900.303 6  23504151.055    23504149.371    23504170.875
     -2522.100       -1961.588          39.800          38.800



 119159146.716 7  92851366.67144  22675218.898                    22675229.629
      2286.177        1781.435          44.000          29.700



 107339243.624 8  83641245.80047  20425893.352                    20425904.098
     -1238.033        -964.704          50.000          43.000    80156168.258 9
  20425904.484        -924.502          55.200


 125090873.948 7  97473556.38344  23803981.398                    23804003.301
      3362.702        2620.260          43.800          26.200



 132702858.109 6 103404842.71343  25252551.289                    25252580.754
      -855.862        -666.880          37.100          18.300



 107663609.565 8  83893952.73246  20487628.641                    20487637.891
      1448.369        1128.602          48.200          41.700



 126181359.402 6  98141079.067 6  23604831.469    23604829.602    23604844.254
     -1331.298       -1035.472          39.200          39.600



 142825062.251 6                  27178726.945
     -1743.219                          41.700                   106655097.229 7
  27178756.758       -1301.731          42.700   109437403.375 6  27178752.867
     -1335.691          41.500   108046261.415 7  27178754.883       -1318.715
        45.900
 148519504.792 6                  28262336.242
      2863.786                          37.400                   110907529.367 6
  28262375.664        2138.581          39.800   113800752.490 6  28262370.461
      2194.369          38.900

 196197137.317 7                  37335068.047
         2.980                          43.600                   146510750.699 7
  37335070.109           2.255          45.300


 200639389.606 7                  38180402.109
        -3.673                          44.800                   149828072.402 7
  38180402.813          -2.671          47.200


 213736564.873 6                  40672692.625
        -1.492                          37.700                   159608460.292 6
  40672694.922          -1.149          38.700


 200904458.926 6                  38230853.859
         0.991                          37.900



 14  3  9  0  9 30.0000000  0 24G32R24G31R14G03R13R18R17G16R15G23R04
                                G13G27G11G20G19R05E19E12S33S38S35S20
 131431022.333 6 102413842.53143  25010516.672                    25010543.938
      -947.311        -738.156          38.100          18.300



 119923372.872 6  93273796.637 7  22426195.617    22426195.441    22426203.039
     -3823.702       -2973.977          41.600          42.500



 120329110.537 7  93763033.11645  22897875.164                    22897901.375
     -1580.657       -1231.646          45.600          33.200



 111878041.810 6  87016435.915 6  20987989.109    20987987.711    20988000.199
       575.886         447.907          40.500          40.400



 104951934.050 8  81780978.43446  19971610.703                    19971620.746
        31.188          24.301          49.600          40.800



 125612863.438 5  97698968.55516  23523256.711    23523254.344    23523271.887
     -1489.725       -1159.042          32.800          37.100



 102790673.423 7  79948510.076 7  19276424.680    19276422.723    19276431.316
      -714.442        -555.665          45.800          44.500



 102939099.043 7  80063930.018 8  19236570.039    19236569.453    19236576.836
      -536.289        -417.111          46.900          48.500



 116850115.708 7  91052232.11345  22235775.578                    22235784.594
     -1127.794        -878.800          45.900          33.500



 117229722.844 6  91178767.507 7  21937925.914    21937924.586    21937936.000
      2319.445        1804.029          40.800          43.700



 110612065.037 8  86191305.78046  21048754.313                    21048762.992
       336.441         262.161          49.600          38.800



 125939145.833 6  97952705.764 6  23518270.297    23518270.020    23518292.391
     -2518.543       -1958.869          39.600          39.100



 119090797.334 7  92798107.45344  22662212.438                    22662223.473
      2270.955        1769.584          44.200          29.900



 107376625.607 8  83670374.62347  20433007.133                    20433017.660
     -1253.574        -976.811          50.600          43.700    80184083.384 9
  20433017.871        -936.109          55.100


 124989981.417 7  97394939.45444  23784781.227                    23784802.953
      3363.416        2620.824          43.000          25.300



 132728433.387 5 103424770.53842  25257418.648                    25257448.855
      -849.324        -661.767          35.700          16.900



 107620447.887 8  83860320.33547  20479415.570                    20479424.703
      1429.685        1114.037          49.000          42.000



 126221470.121 6  98172276.222 6  23612334.211    23612333.637    23612347.785
     -1342.335       -1044.054          38.800          39.400



 142877273.400 7                  27188663.156
     -1737.690                          42.000                   106694085.286 7
  27188693.281       -1297.603          42.400   109477408.617 7  27188689.246
     -1331.453          42.100   108085758.057 7  27188691.188       -1314.525
        46.700
 148433607.077 5                  28245992.016
      2862.786                          35.400                   110843383.872 6
  28246031.172        2137.817          38.000   113734933.773 6  28246025.309
      2193.584          37.200

 196197052.483 7                  37335053.750
         2.918                          44.600                   146510686.376 7
  37335054.594           2.294          45.700


 200639498.637 7                  38180422.359
        -3.467                          42.800                   149828154.265 7
  38180423.836          -2.618          47.100


 213736610.957 6                  40672701.797
        -1.406                          37.500                   159608493.971 6
  40672703.977          -0.944          38.700


 200904418.769 6                  38230851.688
         1.250                          39.800



 14  3  9  0 10  0.0000000  0 24G32R24G31R14G03R13R18R17G16R15G23R04
                                G13G27G11G20G19R05E19E12S33S38S35S20
 131459298.125 6 102435876.21943  25015897.359                    25015924.402
      -938.024        -730.955          36.700          19.900



 120038241.946 7  93363139.248 7  22447677.203    22447676.438    22447685.457
     -3833.904       -2981.931          42.800          43.500



 120376697.363 7  93800113.34845  22906930.398                    22906957.762
     -1591.450       -1240.079          44.100          34.600



 111860897.122 6  87003101.085 6  20984772.563    20984771.516    20984784.418
       567.366         441.290          40.900          39.800



 104951262.849 8  81780455.44046  19971483.078                    19971493.188
        14.120          11.002          50.000          41.100



 125657722.048 5  97733805.577 6  23531657.836    23531654.645    23531671.875
     -1501.024       -1167.727          30.100          39.800



 102812522.930 7  79965504.177 7  19280521.766    19280520.277    19280528.828
      -741.220        -576.509          46.000          44.300



 102955598.271 7  80076762.804 8  19239653.617    19239652.563    19239660.117
      -562.721        -437.686          46.800          49.500



 116883925.383 7  91078577.31645  22242208.734                    22242218.695
     -1126.216        -877.570          46.300          33.000



 117160097.344 6  91124614.423 7  21924894.891    21924895.438    21924906.461
      2322.126        1806.114          40.600          43.000



 110602270.807 8  86183673.87846  21046891.055                    21046899.441
       317.130         247.120          48.600          38.800



 126014647.736 6  98011428.538 6  23532370.609    23532370.098    23532391.816
     -2514.987       -1956.081          40.400          39.100



 119022907.064 7  92745206.00145  22649293.305                    22649304.363
      2255.533        1757.556          45.400          30.100



 107414474.453 8  83699867.24547  20440209.172                    20440220.559
     -1269.151        -988.945          51.200          43.300    80212347.147 9
  20440220.652        -947.739          55.000


 124889069.638 7  97316307.50844  23765577.719                    23765599.789
      3363.982        2621.276          42.100          24.300



 132753815.115 6 103444547.55842  25262249.172                    25262279.688
      -842.934        -656.801          37.100          17.400



 107577848.732 8  83827126.26547  20471308.867                    20471318.070
      1410.873        1099.377          48.100          42.000



 126261912.759 6  98203731.557 6  23619899.828    23619900.191    23619913.043
     -1353.397       -1052.648          39.900          39.000



 142929319.066 7                  27198567.648
     -1732.204                          42.100                   106732949.786 7
  27198597.316       -1293.505          42.800   109517287.063 7  27198593.328
     -1327.249          42.400   108125129.533 7  27198595.816       -1310.376
        46.400
 148347741.578 6                  28229652.828
      2861.624                          38.500                   110779262.711 6
  28229691.930        2136.948          38.000   113669139.974 6  28229687.613
      2192.699          38.700

 196196971.394 7                  37335038.000
         2.324                          45.600                   146510626.650 7
  37335039.219           1.473          45.900


 200639610.184 7                  38180443.422
        -3.596                          44.300                   149828238.143 7
  38180444.852          -2.662          47.100


 213736658.139 6                  40672709.609
        -1.444                          37.500                   159608529.806 6
  40672711.367          -1.137          38.800


 200904377.966 6                  38230846.203
         1.453                          39.800



 14  3  9  0 10 30.0000000  0 23G32R24G31R14G03R18R17G16R15G23R04G13
                                G27G11G20G19R05E19E12S33S38S35S20
 131487294.697 6 102457692.19343  25021224.227                    25021251.484
      -928.714        -723.683          37.200          18.300



 120153413.872 6  93452717.369 7  22469214.078    22469213.434    22469223.242
     -3843.946       -2989.732          40.200          43.200



 120424606.387 7  93837444.76745  22916047.461                    22916074.242
     -1602.142       -1248.407          43.500          32.400



 111844007.563 6  86989964.675 6  20981604.781    20981603.383    20981616.102
       558.804         434.639          41.200          39.900



 104951100.967 8  81780329.32146  19971452.383                    19971462.195
        -2.818          -2.196          50.700          40.200



 102835170.450 7  79983118.954 7  19284768.992    19284768.211    19284776.391
      -767.789        -597.176          45.500          44.400



 102972887.551 7  80090210.049 8  19242884.117    19242883.648    19242890.961
      -589.040        -458.138          47.400          49.300



 116917684.534 7  91104883.14045  22248633.703                    22248642.887
     -1124.485        -876.224          46.800          33.200



 117090389.359 6  91070397.193 7  21911851.578    21911850.250    21911861.273
      2324.862        1808.226          40.900          42.100



 110593053.551 8  86176491.58246  21045136.945                    21045145.422
       297.919         232.150          49.100          38.700



 126090039.159 6  98070065.415 6  23546448.875    23546447.895    23546471.043
     -2511.223       -1953.156          37.500          38.600



 118955477.847 7  92692663.80744  22636462.484                    22636472.906
      2240.176        1745.588          44.900          29.400



 107452787.507 8  83729721.58247  20447499.898                    20447511.258
     -1284.585       -1000.973          50.700          42.700    80240957.558 9
  20447511.352        -959.267          55.000


 124788140.633 7  97237662.15744  23746371.406                    23746392.727
      3364.533        2621.691          43.500          24.500



 132779000.802 6 103464171.70243  25267042.750                    25267072.906
      -836.324        -651.634          37.900          18.600



 107535812.565 7  83794370.89046  20463309.656                    20463318.684
      1392.093        1084.741          47.000          41.800



 126302682.931 6  98235441.679 6  23627526.555    23627526.332    23627540.637
     -1364.257       -1061.099          38.700          39.100



 142981197.363 7                  27208440.547
     -1726.568                          43.100                   106771689.327 7
  27208469.684       -1289.297          42.300   109557037.298 6  27208466.070
     -1322.934          41.800   108164374.426 7  27208468.605       -1306.120
        46.500
 148261909.052 5                  28213319.688
      2860.511                          35.500                   110715166.531 6
  28213359.008        2136.108          36.000   113603371.766 6  28213354.738
      2191.833          37.500

 196196891.689 7                  37335022.828
         2.770                          44.600                   146510568.303 7
  37335024.234           2.162          45.200


 200639719.486 7                  38180463.797
        -3.581                          45.100                   149828318.574 7
  38180465.648          -2.635          46.800


 213736704.989 6                  40672718.938
        -1.590                          37.300                   159608564.773 6
  40672720.836          -1.179          38.800


 200904334.464 6                  38230832.266
         1.321                          40.000



 14  3  9  0 11  0.0000000  0 24G32R24G31R14G03R13R18R17G16R15G23R04
                                G13G27G11G20G19R05E19E12S33S38S35S20
 131515011.276 6 102479290.02942  25026498.266                    25026525.668
      -919.400        -716.416          37.100          17.400



 120268884.749 7  93542528.023 6  22490807.703    22490807.996    22490815.047
     -3853.830       -2997.404          42.400          41.900



 120472837.511 7  93875027.08545  22925225.828                    22925253.086
     -1612.915       -1256.805          43.400          31.700



 111827376.399 6  86977029.292 6  20978484.656    20978483.609    20978495.922
       550.182         427.914          40.900          39.900



 104951447.497 8  81780599.37046  19971518.383                    19971528.254
       -19.717         -15.364          49.900          40.600



 125748468.555 5  97804373.01316  23548649.555    23548647.422    23548662.625
     -1523.513                          35.900          37.600



 102858615.761 7  80001354.223 7  19289166.102    19289164.262    19289172.645
      -794.324        -617.804          46.200          44.700



 102990966.418 7  80104271.417 8  19246262.992    19246261.938    19246269.570
      -615.324        -478.579          47.300          49.200



 116951393.002 7  91131149.46845  22255048.078                    22255057.594
     -1122.788        -874.900          46.500          33.700



 117020601.100 6  91016117.482 7  21898791.242    21898790.617    21898800.613
      2327.553        1810.310          41.100          42.200



 110584413.580 8  86169759.11346  21043492.531                    21043500.902
       278.710         217.171          49.600          38.600



 126165317.421 6  98128614.196 6  23560506.859    23560506.934    23560530.020
     -2507.379       -1950.158          37.500          38.900



 118888511.744 7  92640482.47144  22623718.266                    22623729.891
      2224.723        1733.551          44.700          29.600



 107491563.142 8  83759936.37247  20454878.938                    20454889.617
     -1299.948       -1012.951          51.000          42.800    80269913.397 9
  20454889.891        -970.743          55.000


 124687197.526 7  97159005.79344  23727161.875                    23727183.059
      3364.984        2622.044          43.300          26.200



 132803988.449 6 103483641.59343  25271798.789                    25271828.707
      -829.719        -646.492          37.800          19.000



 107494340.740 7  83762055.25746  20455417.688                    20455426.828
      1373.289        1070.090          47.800          41.800



 126343777.947 6  98267404.375 6  23635215.703    23635214.777    23635227.207
     -1375.058       -1069.491          39.000          38.200



 143032907.246 7                  27218280.727
     -1720.958                          43.100                   106810303.100 7
  27218311.223       -1285.104          43.000   109596658.477 7  27218306.957
     -1318.638          42.200   108203491.898 7  27218309.477       -1301.875
        46.700
 148176111.602 6                  28196992.602
      2859.327                          36.700                   110651096.809 6
  28197032.469        2135.209          37.800   113537630.670 6  28197027.027
      2190.910          38.300

 196196812.508 7                  37335007.422
         2.519                          44.700                   146510507.528 7
  37335009.250           1.953          45.700


 200639829.847 7                  38180484.938
        -3.568                          44.400                   149828402.169 7
  38180486.461          -2.681          47.200


 213736752.169 6                  40672729.234
        -1.462                          38.200                   159608599.767 6
  40672730.664          -1.116          39.400


 200904289.281 6                  38230826.016
         1.437                          39.600



 14  3  9  0 11 30.0000000  0 24G32R24G31R14G03R13R18R17G16R15G23R04
                                G13G27G11G20G19R05E19E12S33S38S35S20
 131542447.060 6 102500668.99042  25031718.750                    25031745.020
      -909.965        -709.045          37.100          16.900



 120384650.641 7  93632568.179 7  22512457.070    22512456.543    22512464.934
     -3863.583       -3005.012          42.100          42.300



 120521391.258 7  93912860.73545  22934465.883                    22934493.238
     -1623.654       -1265.154          44.700          33.900



 111811006.791 6  86964297.286 6  20975414.289    20975412.656    20975425.336
       541.397         421.091          41.100          39.700



 104952301.626 8  81781264.95346  19971680.633                    19971691.090
       -36.639         -28.553          49.500          40.700



 125794344.513 5  97840027.95817  23557240.328    23557236.785    23557251.121
     -1534.705       -1193.641          30.800          42.700



 102882856.916 7  80020208.503 7  19293711.227    19293709.859    19293718.590
      -820.893        -638.491          45.500          44.200



 103009833.252 8  80118945.660 8  19249787.914    19249787.563    19249795.242
      -641.573        -499.006          48.000          50.200



 116985050.004 7  91157375.69545  22261453.063                    22261462.453
     -1121.058        -873.548          46.400          33.500



 116950734.292 6  90961776.679 7  21885716.875    21885715.664    21885726.070
      2330.159        1812.334          41.500          42.700



 110576350.660 8  86163476.27446  21041958.281                    21041966.500
       259.473         202.194          49.200          38.400



 126240478.641 6  98187071.947 6  23574544.969    23574543.637    23574567.273
     -2503.431       -1947.081          38.200          38.300



 118822010.960 7  92588663.74044  22611063.711                    22611075.461
      2209.170        1721.425          44.200          29.800



 107530799.349 8  83790510.05047  20462345.000                    20462355.945
     -1315.276       -1024.895          50.900          42.600    80299213.178 9
  20462356.277        -982.186          55.200


 124586242.760 7  97080340.33644  23707950.844                    23707971.250
      3365.319        2622.295          44.300          25.800



 132828777.275 6 103502956.52742  25276517.141                    25276546.996
      -823.107        -641.358          36.700          17.800



 107453434.339 8  83730180.21147  20447633.242                    20447642.102
      1354.430        1055.402          48.300          42.000



 126385194.123 6  98299616.919 6  23642962.656    23642961.379    23642976.133
     -1385.703       -1077.727          38.600          39.700



 143084447.366 7                  27228089.414
     -1715.253                          43.400                   106848790.065 7
  27228120.145       -1280.843          43.000   109636149.532 7  27228115.363
     -1314.257          42.800   108242480.911 7  27228117.852       -1297.557
        46.900
 148090351.027 6                  28180673.102
      2858.079                          37.200                   110587054.892 6
  28180712.941        2134.267          38.100   113471918.115 6  28180707.738
      2189.947          38.500

 196196737.928 7                  37334994.625
         2.326                          45.100                   146510452.835 7
  37334995.305           1.450          45.600


 200639940.166 7                  38180505.266
        -3.715                          42.800                   149828484.066 7
  38180507.492          -2.727          47.300


 213736799.306 6                  40672736.828
        -1.534                          38.100                   159608635.448 6
  40672738.844          -1.147          38.700


 200904243.490 6                  38230817.609
         1.455                          40.100



 14  3  9  0 12  0.0000000  0 24G32R24G31R14G03R13R18R17G16R15G23R04
                                G13G27G11G20G19R05E19E12S33S38S35S20
 131569600.723 5 102521828.14642  25036885.148                    25036912.152
      -900.579        -701.760          35.400          16.300



 120500707.165 6  93722834.306 7  22534161.102    22534159.633    22534168.664
     -3873.252       -3012.511          40.900          43.500



 120570267.623 7  93950945.72145  22943766.828                    22943793.992
     -1634.428       -1273.546          46.500          34.900



 111794901.358 6  86951770.744 6  20972392.344    20972391.297    20972403.555
       532.497         414.213          40.500          40.200



 104953662.492 8  81782325.39146  19971939.273                    19971949.457
       -53.531         -41.713          48.600          41.000



 125840553.860 5  97876040.724 4  23565894.117    23565892.922    23565907.469
     -1546.289       -1202.599          35.400          28.500



 102907893.026 7  80039681.044 7  19298407.000    19298405.277    19298413.516
      -847.349        -659.035          46.100          44.700



 103029486.827 8  80134231.823 8  19253461.539    19253460.250    19253467.563
      -667.809        -519.395          48.100          49.400



 117018654.691 7  91183561.17045  22267848.172                    22267857.336
     -1119.327        -872.204          46.200          34.000



 116880792.566 6  90907377.626 7  21872627.563    21872627.406    21872638.004
      2332.569        1814.195          41.200          42.600



 110568864.396 8  86157642.79546  21040533.992                    21040542.520
       240.241         187.201          49.900          38.700



 126315519.219 6  98245435.805 6  23588558.594    23588557.848    23588580.863
     -2499.422       -1943.940          38.600          38.900



 118755977.499 7  92537209.15244  22598497.969                    22598508.613
      2193.528        1709.241          45.500          29.900



 107570493.903 8  83821440.87747  20469898.648                    20469909.875
     -1330.551       -1036.788          50.800          43.200    80328855.222 9
  20469909.910        -993.592          54.900


 124485278.570 7  97001667.53444  23688737.781                    23688758.512
      3365.574        2622.503          43.100          26.700



 132853365.303 5 103522114.93842  25281195.875                    25281227.027
      -816.358        -636.052          33.200          14.800



 107413093.910 8  83698746.19146  20439956.859                    20439965.980
      1335.549        1040.686          48.100          41.700



 126426927.755 6  98332076.312 6  23650770.336    23650768.352    23650783.250
     -1396.229       -1085.966          39.900          40.200



 143135816.193 7                  27237864.672
     -1709.562                          42.100                   106887149.072 7
  27237895.707       -1276.594          42.300   109675509.303 7  27237892.000
     -1309.891          43.100   108281340.293 7  27237893.656       -1293.236
        46.900
 148004628.602 6                  28164360.305
      2856.771                          36.900                   110523041.746 6
  28164400.328        2133.288          37.800   113406234.985 6  28164395.121
      2188.944          37.800

 196196664.447 6                  37334979.125
         2.604                          41.800                   146510401.505 7
  37334980.297           2.208          45.600


 200640050.762 7                  38180527.141
        -3.623                          44.300                   149828566.930 7
  38180528.594          -2.740          47.200


 213736846.387 6                  40672745.453
        -1.621                          37.600                   159608670.470 6
  40672748.313          -1.237          39.000


 200904197.366 6                  38230812.188
         1.423                          37.900



 14  3  9  0 12 30.0000000  0 24G32R24G31R14G03R13R18R17G16R15G23R04
                                G13G27G11G20G19R05E19E12S33S38S35S20
 131596470.731 6 102542766.18342  25041998.180                    25042024.977
      -891.068        -694.344          37.000          16.900



 120617049.638 7  93813322.837 7  22555917.172    22555916.406    22555924.945
     -3882.655       -3019.828          42.100          43.100



 120619466.333 7  93989282.07845  22953130.188                    22953156.969
     -1645.173       -1281.967          44.700          31.100



 111779062.495 6  86939451.580 6  20969421.563    20969420.516    20969433.109
       523.623         407.274          41.600          39.700



 104955527.816 8  81783778.92046  19972294.398                    19972304.535
       -70.294         -54.776          49.600          41.200



 125887112.15216  97912199.47716  23574611.578    23574610.031    23574626.141
                                        38.900          40.700



 102933721.149 7  80059769.609 7  19303250.477    19303249.109    19303257.770
      -873.706        -679.512          46.200          44.300



 103049924.972 8  80150128.192 8  19257280.844    19257279.789    19257286.969
      -693.901        -539.691          48.300          49.100



 117052206.002 7  91209705.02545  22274232.938                    22274241.719
     -1117.501        -870.776          45.700          34.000



 116810776.380 6  90852920.679 7  21859524.820    21859524.195    21859535.031
      2335.084        1816.167          41.100          43.300



 110561953.730 8  86152257.83246  21039218.672                    21039227.137
       221.092         172.282          49.300          38.300



 126390435.026 6  98303702.672 6  23602549.148    23602548.285    23602571.832
     -2495.141       -1940.645          39.100          39.200



 118690412.638 7  92486119.68044  22586021.930                    22586032.168
      2177.926        1697.086          45.500          29.600



 107610643.933 8  83852726.63547  20477539.477                    20477550.184
     -1345.637       -1048.548          51.500          43.300    80358837.413 9
  20477550.102       -1004.866          55.000


 124384306.937 7  96922988.92244  23669523.055                    23669543.242
      3365.820        2622.701          44.400          25.000



 132877750.071 6 103541114.96242  25285837.203                    25285867.938
      -809.534        -630.770          36.200          15.600



 107373319.399 7  83667753.13546  20432388.141                    20432397.184
      1316.691        1025.991          47.200          41.600



 126468974.664 6  98364779.380 6  23658635.453    23658634.645    23658648.359
     -1406.580       -1094.001          39.200          37.500



 143187011.596 7                  27247607.320
     -1703.690                          42.600                   106925378.544 7
  27247638.070       -1272.199          42.700   109714736.168 7  27247634.133
     -1305.394          42.100   108320068.465 7  27247636.672       -1288.800
        46.600
 147918945.122 6                  28148054.750
      2855.458                          36.800                   110459057.855 6
  28148094.723        2132.304          37.900   113340581.911 6  28148089.520
      2187.934          38.100

 196196592.436 7                  37334966.516
         2.227                          44.500                   146510346.437 7
  37334966.539           1.723          45.600


 200640159.640 7                  38180547.703
        -3.586                          45.500                   149828648.585 7
  38180549.578          -2.613          47.000


 213736893.048 6                  40672755.734
        -1.410                          38.200                   159608706.223 6
  40672756.625          -1.051          39.500


 200904151.678 6                  38230798.328
         1.727                          40.000



 14  3  9  0 13  0.0000000  0 24G32R24G31R14G01G03R18R17G16R15G23R04
                                G13G27G11G20G19R05E19E12S33S38S35S20
 131623057.281 6 102563483.42842  25047057.141                    25047084.098
      -881.639        -687.021          37.000          15.600



 120733674.786 6  93904031.318 7  22577725.367    22577726.012    22577734.152
     -3891.964       -3027.106          41.000          42.100



 120668988.492 7  94027870.44145  22962553.813                    22962580.762
     -1655.951       -1290.343          46.300          34.800



 111763493.964 6  86927342.653 6  20966501.844    20966499.625    20966512.074
       514.550         400.218          41.000          40.200



 133672988.507 5 104160846.90742  25437122.641                    25437143.934
      2868.712        2235.320          30.700          14.800    99820819.512 6
  25437144.879        2142.267          37.100


 104957897.969 8  81785625.81946  19972745.367                    19972755.566
       -87.114         -67.882          50.700          41.100



 102960340.275 7  80080473.422 7  19308242.453    19308240.730    19308248.852
      -900.018        -700.009          46.300          44.400



 103071147.329 7  80166634.502 8  19261246.648    19261245.359    19261252.609
      -719.994        -559.990          47.600          49.700



 117085703.643 7  91235807.09145  22280606.523                    22280615.797
     -1115.696        -869.372          47.100          33.500



 116740689.938 6  90798409.071 7  21846409.141    21846408.984    21846419.637
      2337.328        1817.920          41.500          43.600



 110555619.430 8  86147321.99146  21038013.016                    21038022.195
       201.859         157.297          49.400          38.500



 126465223.717 6  98361870.525 6  23616517.133    23616515.801    23616539.398
     -2490.846       -1937.271          38.500          37.900



 118625319.762 7  92435398.00444  22573634.906                    22573645.832
      2162.146        1684.787          45.000          29.400



 107651248.470 8  83884366.54847  20485266.008                    20485276.668
     -1360.781       -1060.344          51.700          43.500    80389158.997 9
  20485276.469       -1016.169          54.900


 124283331.356 7  96844307.21744  23650307.617                    23650327.098
      3365.902        2622.764          44.500          26.400



 132901930.820 5 103559956.00742  25290438.719                    25290470.500
      -802.641        -625.381          33.200          16.900



 107334113.115 8  83637202.86146  20424926.773                    20424936.418
      1297.724        1011.207          48.200          41.800



 126511332.188 6  98397724.057 6  23666559.578    23666559.121    23666573.125
     -1416.907       -1101.988          39.100          39.400



 143238033.466 7                  27257317.148
     -1697.906                          42.400                   106963478.454 7
  27257347.695       -1267.886          43.000   109753830.081 6  27257343.426
     -1300.963          41.800   108358665.377 7  27257346.363       -1284.428
        46.200
 147833303.222 5                  28131757.102
      2854.054                          35.100                   110395105.246 6
  28131796.715        2131.241          37.600   113274960.864 6  28131791.840
      2186.840          38.700

 196196524.152 7                  37334952.328
         2.256                          44.900                   146510297.148 7
  37334954.109           1.573          46.000


 200640271.015 7                  38180569.844
        -3.505                          45.000                   149828731.454 7
  38180570.477          -2.607          47.400


 213736940.571 6                  40672763.281
        -1.402                          38.100                   159608741.296 6
  40672765.391          -0.931          39.100


 200904107.731 6                  38230788.859
         1.643                          39.200



 14  3  9  0 13 30.0000000  0 25G32R24G31R14G01G03R13R18R17G16R15G23
                                R04G13G27G11G20G19R05E19E12S33S38S35
                                S20
 131649359.413 5 102583979.00042  25052061.508                    25052088.656
      -872.164        -679.615          35.500          16.300



 120850578.588 6  93994956.440 7  22599588.070    22599586.836    22599595.891
     -3901.231       -3034.285          41.500          42.200



 120718834.032 7  94066710.75945  22972039.070                    22972065.977
     -1666.743       -1298.737          45.000          31.600



 111748198.648 6  86915446.218 6  20963631.492    20963629.859    20963642.820
       505.408         393.105          41.700          39.900



 133586805.08815                  25420722.766
      2876.595                          34.700



 104960772.027 8  81787865.36646  19973292.211                    19973302.316
      -103.893         -80.952          50.000          41.100



 125981232.279 5  97985422.499 7  23592242.773    23592239.348    23592254.988
     -1580.186       -1229.021          34.100          42.700



 102987749.215 7  80101791.519 7  19313382.898    19313380.355    19313388.781
      -926.322        -720.464          46.300          44.600



 103093152.488 7  80183749.674 8  19265359.250    19265357.840    19265365.438
      -746.092        -580.308          47.600          49.400



 117119147.153 7  91261866.96845  22286970.398                    22286979.719
     -1113.911        -867.979          46.600          33.200



 116670534.245 6  90743843.600 7  21833281.094    21833279.883    21833290.836
      2339.585        1819.675          41.600          43.000



 110549861.158 8  86142835.00446  21036917.250                    21036925.414
       182.667         142.337          49.800          38.400



 126539881.568 6  98419936.673 6  23630459.766    23630458.082    23630482.684
     -2486.485       -1933.911          37.700          37.900



 118560700.537 7  92385045.41045  22561338.250                    22561349.125
      2146.304        1672.441          45.300          30.000



 107692305.271 8  83916358.87647  20493079.063                    20493089.754
     -1375.838       -1072.079          51.000          43.400    80419818.313 9
  20493089.789       -1027.408          54.900


 124182354.518 7  96765624.53944  23631091.359                    23631111.273
      3365.884        2622.748          43.900          26.000



 132925906.135 5 103578636.94142  25295001.508                    25295034.723
      -795.880        -620.129          35.000          15.600



 107295475.963 7  83607096.06246  20417574.867                    20417583.609
      1278.771         996.439          47.700          41.700



 126553996.762 6  98430907.535 6  23674540.453    23674539.645    23674554.453
     -1427.059       -1109.961          38.900          38.900



 143288880.321 7                  27266993.391
     -1692.085                          42.800                   107001447.693 7
  27267025.168       -1263.547          42.700   109792789.925 6  27267020.152
     -1296.512          41.900   108397129.915 7  27267023.016       -1280.026
        46.200
 147747704.614 5                  28115467.734
      2852.564                          34.700                   110331185.098 6
  28115507.414        2130.136          38.900   113209373.171 6  28115502.352
      2185.707          39.000

 196196458.763 7                  37334941.531
         2.080                          43.800                   146510248.175 7
  37334941.484           1.680          45.600


 200640381.787 7                  38180590.500
        -3.667                          45.100                   149828814.312 7
  38180591.156          -2.702          47.700


 213736989.413 6                  40672773.469
        -1.791                          36.400                   159608777.595 6
  40672774.969          -1.447          38.900


 200904064.483 6                  38230788.641
         1.329                          40.500



 14  3  9  0 14  0.0000000  0 24G32R24G31R14G01G03R18R17G16R15G23R04
                                G13G27G11G20G19R05E19E12S33S38S35S20
 131675375.197 6 102604251.44442  25057013.492                    25057039.355
      -862.546        -672.151          37.800          16.300



 120967756.110 6  94086094.514 7  22621500.453    22621499.336    22621508.430
     -3910.276       -3041.314          40.700          42.600



 120769002.251 7  94105802.43345  22981586.117                    22981613.059
     -1677.442       -1307.088          44.600          30.000



 111733178.592 6  86903763.895 6  20960814.344    20960812.828    20960824.980
       496.210         385.933          40.500          39.700



 133500379.256 6 104026344.86542  25404277.945                    25404299.977
      2884.734        2247.878          36.900          17.400    99691921.493 6
  25404301.918        2154.216          41.500


 104964147.511 8  81790495.64546  19973934.914                    19973944.934
      -120.583         -93.961          50.300          40.900



 103015944.732 7  80123721.395 7  19318670.430    19318668.238    19318676.617
      -952.517        -740.855          45.700          44.100



 103115937.897 8  80201471.687 8  19269617.078    19269615.906    19269623.277
      -772.071        -600.501          48.000          49.200



 117152535.322 7  91287883.71745  22293323.945                    22293333.277
     -1112.052        -866.535          47.100          32.900



 116600311.109 6  90689225.651 7  21820139.492    21820139.219    21820149.164
      2341.812        1821.403          41.300          42.400



 110544677.644 8  86138795.87446  21035931.023                    21035939.453
       163.531         127.427          48.300          38.800



 126614404.617 6  98477897.909 6  23644377.664    23644376.449    23644400.793
     -2481.915       -1930.333          38.800          38.300



 118496555.737 7  92335062.48744  22549131.047                    22549142.305
      2130.496        1660.127          45.600          29.600



 107733811.324 8  83948701.27047  20500977.266                    20500987.902
     -1390.756       -1083.709          51.300          43.300    80450813.115 9
  20500988.055       -1038.558          55.400


 124081377.775 7  96686941.93044  23611876.305                    23611895.957
      3365.848        2622.718          43.700          26.900



 132949673.335 5 103597155.59842  25299526.672                    25299557.695
      -788.874        -614.678          33.600          16.900



 107257407.095 7  83577432.08347  20410330.523                    20410339.250
      1259.771         981.635          47.400          42.000



 126596964.252 6  98464326.657 6  23682578.563    23682577.168    23682591.055
     -1437.096       -1117.766          39.300          39.100



 143339549.874 6                  27276635.797
     -1686.082                          41.700                   107039284.531 7
  27276668.109       -1259.058          42.500   109831613.913 7  27276663.512
     -1291.915          42.200   108435460.335 7  27276665.914       -1275.490
        46.300
 147662149.968 6                  28099187.203
      2851.073                          37.100                   110267297.959 6
  28099226.164        2129.005          40.200   113143819.272 6  28099220.816
      2184.548          40.300

 196196394.327 7                  37334928.641
         2.141                          44.300                   146510199.777 7
  37334929.414           1.500          45.300


 200640491.370 7                  38180611.734
        -3.687                          43.600                   149828895.584 7
  38180612.578          -2.623          47.000


 213737036.981 6                  40672781.344
        -1.576                          38.300                   159608813.221 6
  40672784.133          -1.154          38.700


 200904019.710 6                  38230774.422
         1.703                          40.600



 14  3  9  0 14 30.0000000  0 25G32R24G31R14G01G03R13R18R17G16R15G23
                                R04G13G27G11G20G19R05E19E12S33S38S35
                                S20
 131701104.028 6 102624300.32142  25061908.219                    25061934.707
      -852.984        -664.683          37.700          16.300



 121085203.258 6  94177442.259 7  22643463.070    22643462.777    22643472.254
     -3919.223       -3048.273          39.800          42.600



 120819493.514 7  94145145.74745  22991194.727                    22991222.129
     -1688.231       -1315.491          45.300          34.200



 111718437.233 6  86892298.292 6  20958048.836    20958047.086    20958059.809
       486.850         378.692          41.600          39.500



 133413714.287 6 103958812.94743  25387785.945                    25387809.441
      2892.634        2254.043          36.100          18.300    99627203.254 6
  25387811.090        2160.116          41.300


 104968023.798 8  81793516.16146  19974672.320                    19974682.027
      -137.249        -106.949          50.700          40.700



 126076744.45015  98059753.53115  23610127.164    23610125.148    23610139.527
                                        35.900          35.600



 103044926.171 7  80146262.547 7  19324105.352    19324103.512    19324111.563
      -978.652        -761.181          46.500          44.400



 103139502.256 7  80219799.554 8  19274019.773    19274019.656    19274026.906
      -797.996        -620.667          47.400          49.100



 117185867.709 7  91313857.01345  22299667.086                    22299676.633
     -1110.162        -865.062          45.700          33.000



 116530024.213 6  90634558.086 7  21806986.656    21806985.563    21806995.141
      2343.938        1823.081          41.400          42.100



 110540068.862 8  86135204.58246  21035054.086                    21035063.262
       144.385         112.510          49.300          38.500



 126688789.360 6  98535751.516 6  23658269.813    23658268.363    23658291.965
     -2477.233       -1926.705          39.900          38.600



 118432888.339 7  92285451.58745  22537016.859                    22537026.922
      2114.543        1647.695          44.500          30.000



 107775764.766 8  83981392.27647  20508960.828                    20508971.285
     -1405.626       -1095.297          51.100          43.300    80482141.991 9
  20508971.383       -1049.652          55.100


 123980404.207 7  96608261.79444  23592660.484                    23592680.797
      3365.727        2622.630          43.300          27.100



 132973231.386 5 103615511.33342  25304009.914                    25304043.207
      -781.818        -609.146          35.500          17.800



 107219908.112 7  83548212.16446  20403194.563                    20403203.621
      1240.811         966.866          46.500          41.500



 126640231.107 6  98497978.509 6  23690672.695    23690671.652    23690685.824
     -1446.989       -1125.403          39.400          39.400



 143390041.070 6                  27286244.781
     -1680.090                          41.500                   107076988.172 7
  27286276.359       -1254.579          43.000   109870301.193 6  27286271.766
     -1287.316          41.600   108473655.792 7  27286274.508       -1270.948
        45.800
 147576640.522 6                  28082913.969
      2849.542                          38.400                   110203444.663 6
  28082953.211        2127.851          38.800   113078300.100 6  28082947.773
      2183.379          39.600

 196196333.512 7                  37334918.797
         2.379                          43.500                   146510155.140 7
  37334917.742           1.751          45.400


 200640603.894 7                  38180631.953
        -3.895                          44.700                   149828979.627 7
  38180634.039          -3.010          47.200


 213737085.073 6                  40672791.031
        -1.545                          38.000                   159608849.131 6
  40672792.414          -1.156          38.200


 200903976.560 6                  38230766.703
         1.483                          40.100



 14  3  9  0 15  0.0000000  0 25G32R24G31R14G01G03R13R18R17G16R15G23
                                R04G13G27G11G20G19R05E19E12S33S38S35
                                S20
 131726545.337 6 102644125.16743  25066748.695                    25066776.262
      -843.409        -657.211          37.500          18.600



 121202916.283 6  94268996.784 7  22665476.758    22665476.465    22665485.445
     -3927.982       -3055.097          40.900          42.100



 120870308.013 7  94184740.95045  23000864.727                    23000892.699
     -1698.995       -1323.860          44.000          33.100



 111703977.235 6  86881051.589 6  20955335.102    20955334.641    20955347.246
       477.448         371.341          41.100          39.600



 133326811.730 5 103891095.83242  25371250.586                    25371273.277
      2900.587        2260.233          35.200          17.400    99562307.522 6
  25371274.047        2166.064          40.900


 104972399.736 8  81796926.01246  19975504.867                    19975514.781
      -153.888        -119.910          50.400          40.600



 126125014.499 5  98097296.668 6  23619165.531    23619164.922    23619179.516
     -1614.588       -1255.746          34.000          37.000



 103074690.733 7  80169412.791 7  19329686.992    19329685.270    19329693.254
     -1004.780        -781.493          45.800          44.500



 103163844.335 7  80238732.319 8  19278569.273    19278568.453    19278575.875
      -823.890        -640.809          47.900          49.500



 117219143.725 7  91339786.35945  22305999.000                    22306008.480
     -1108.254        -863.576          45.700          33.200



 116459674.781 6  90579841.947 7  21793821.859    21793820.648    21793831.055
      2345.953        1824.625          41.500          42.600



 110536034.466 8  86132060.86346  21034286.656                    21034295.629
       125.244          97.596          50.400          39.000



 126763033.195 6  98593495.523 6  23672134.531    23672133.902    23672156.902
     -2472.462       -1922.968          40.500          37.300



 118369700.121 7  92236214.06745  22524991.898                    22525002.203
      2098.554        1635.227          44.900          31.200



 107818163.645 8  84014430.36947  20517028.539                    20517039.988
     -1420.439       -1106.834          51.900          42.900    80513803.505 9
  20517040.086       -1060.717          55.000


 123879436.448 7  96529586.18244  23573447.125                    23573466.617
      3365.487        2622.436          44.100          27.900



 132996578.593 5 103633702.80142  25308454.875                    25308486.484
      -774.817        -603.745          33.300          17.400



 107182979.597 7  83519436.76747  20396167.227                    20396176.234
      1221.766         952.021          47.500          42.100



 126683793.985 6  98531860.730 6  23698823.406    23698821.188    23698834.883
     -1456.798       -1133.071          39.400          38.300



 143440352.879 6                  27295819.492
     -1674.124                          40.900                   107114557.791 7
  27295851.375       -1250.124          42.000   109908851.016 6  27295847.203
     -1282.746          41.900   108511715.513 7  27295849.547       -1266.436
        45.800
 147491178.867 6                  28066650.797
      2847.944                          38.500                   110139627.138 6
  28066689.145        2126.663          38.400   113012817.630 6  28066683.426
      2182.152          39.100

 196196274.011 7                  37334905.578
         1.636                          44.000                   146510109.984 7
  37334906.141           1.392          45.700


 200640715.545 7                  38180653.797
        -3.987                          44.900                   149829063.080 7
  38180655.203          -3.055          46.800


 213737132.735 6                  40672799.766
        -1.427                          37.600                   159608885.110 6
  40672801.594          -1.130          39.600


 200903935.661 6                  38230767.000
         1.233                          38.700



 14  3  9  0 15 30.0000000  0 25G32R24G31R14G01G03R13R18R17G16R15G23
                                R04G13G27G11G20G19R05E19E12S33S38S35
                                S20
 131751697.884 6 102663725.06842  25071536.211                    25071561.699
      -833.714        -649.692          37.800          17.400



 121320890.803 6  94360754.707 7  22687538.359    22687538.535    22687547.047
     -3936.603       -3061.787          41.500          42.300



 120921445.682 7  94224588.00545  23010596.320                    23010623.266
     -1709.800       -1332.285          44.000          31.000



 111689801.258 6  86870025.777 6  20952676.781    20952675.500    20952688.281
       467.953         363.953          41.000          40.700



 133239673.253 6 103823194.85942  25354670.055                    25354691.176
      2908.395        2266.294          38.100          17.400    99497235.559 6
  25354693.473        2171.887          41.800


 104977274.058 8  81800724.21946  19976432.672                    19976442.746
      -170.493        -132.853          49.500          40.900



 126173633.771 5  98135096.382 6  23628270.250    23628269.055    23628284.426
     -1625.904       -1264.552          34.100          36.900



 103105237.506 7  80193171.430 7  19335415.500    19335413.543    19335421.613
     -1030.756        -801.703          46.000          44.400



 103188962.178 8  80258268.447 8  19283262.938    19283261.883    19283269.258
      -849.695        -660.879          48.000          49.400



 117252362.729 7  91365671.29245  22312320.828                    22312329.594
     -1106.364        -862.106          45.500          32.700



 116389266.039 6  90525079.633 7  21780645.875    21780644.781    21780655.387
      2347.926        1826.173          41.700          43.100



 110532573.686 8  86129364.13246  21033627.914                    21033636.590
       106.139          82.708          49.800          38.600



 126837131.662 6  98651126.396 6  23685973.391    23685971.469    23685996.203
     -2467.589       -1919.159          39.600          38.400



 118306992.638 7  92187351.13745  22513058.953                    22513070.313
      2082.496        1622.727          44.300          30.200



 107861005.427 8  84047813.58547  20525181.563                    20525192.395
     -1435.148       -1118.296          51.600          43.400    80545795.756 9
  20525192.375       -1071.697          55.100


 123778476.775 7  96450916.86544  23554234.063                    23554254.438
      3365.159        2622.184          43.900          27.600



 133019713.149 5 103651728.43742  25312856.547                    25312889.285
      -767.673        -598.119          35.000          17.800



 107146622.148 7  83491106.36047  20389248.492                    20389257.145
      1202.729         937.191          47.200          42.000



 126727649.017 6  98565970.062 6  23707028.086    23707024.930    23707040.664
     -1466.547       -1140.568          38.300          40.200



 143490483.522 6                  27305359.086
     -1668.082                          40.900                   107151992.123 6
  27305392.148       -1245.615          41.900   109947261.991 6  27305387.414
     -1278.112          41.900   108549638.170 7  27305389.805       -1261.868
        45.900
 147405765.823 6                  28050395.625
      2846.336                          39.100                   110075845.974 6
  28050434.133        2125.460          39.300   112947372.453 6  28050428.836
      2180.910          39.800

 196196216.818 7                  37334894.156
         2.122                          44.900                   146510066.902 7
  37334895.164           1.507          45.700


 200640828.083 7                  38180674.344
        -3.725                          44.300                   149829146.979 7
  38180676.359          -2.755          46.900


 213737181.117 5                  40672810.422
        -1.582                          35.500                   159608921.451 6
  40672810.797          -1.148          39.200


 200903893.503 6                  38230749.891
         1.410                          40.200



 14  3  9  0 16  0.0000000  0 24G32R24G31R14G01G03R18R17G16R15G23R04
                                G13G27G11G20G19R05E19E12S33S38S35S20
 131776560.589 5 102683099.18042  25076266.469                    25076291.848
      -824.110        -642.187          33.400          14.800



 121439122.602 6  94452712.776 6  22709648.516    22709647.281    22709655.867
     -3945.154       -3068.479          40.600          41.000



 120972906.709 7  94264686.97845  23020389.445                    23020417.133
     -1720.592       -1340.685          45.600          33.100



 111675912.193 6  86859223.069 6  20950071.070    20950069.555    20950082.211
       458.305         356.471          40.600          40.200



 133152300.305 5 103755111.09242  25338042.969                    25338065.738
      2916.159        2272.378          35.500          15.600    99431988.441 6
  25338067.152        2177.684          40.300


 104982645.306 8  81804909.63846  19977454.500                    19977464.637
      -187.062        -145.762          50.200          41.200



 103136563.695 7  80217536.259 7  19341290.430    19341288.004    19341295.781
     -1056.801        -821.956          46.500          44.600



 103214854.125 8  80278406.674 8  19288100.992    19288099.938    19288107.512
      -875.573        -680.998          48.000          49.700



 117285523.833 7  91391511.10045  22318631.555                    22318640.164
     -1104.448        -860.608          46.200          33.200



 116318798.887 7  90470271.917 7  21767459.148    21767457.703    21767468.035
      2349.785        1827.621          42.000          43.600



 110529686.029 8  86127113.97946  21033078.563                    21033086.762
        87.002          67.796          49.700          38.500



 126911081.728 6  98708641.840 6  23699782.141    23699782.332    23699807.348
     -2462.635       -1915.330          38.400          39.300



 118244767.856 7  92138864.34745  22501218.344                    22501229.688
      2066.348        1610.136          44.400          30.900



 107904287.874 8  84081540.16447  20533417.734                    20533428.723
     -1449.836       -1129.743          51.600          43.800    80578117.068 9
  20533428.699       -1082.669          54.800


 123677527.719 7  96372255.79544  23535023.984                    23535044.059
      3364.748        2621.860          44.900          27.900



 133042633.487 5 103669587.19442  25317219.836                    25317252.270
      -760.619        -592.628          33.600          16.300



 107110836.592 7  83463221.58346  20382438.820                    20382447.316
      1183.607         922.286          47.500          41.300



 126771792.322 6  98600303.746 6  23715284.875    23715283.242    23715297.227
     -1476.101       -1148.052          38.600          38.900



 143540431.650 6                  27314864.523
     -1661.984                          41.200                   107189290.162 6
  27314897.375       -1241.068          41.900   109985533.119 6  27314893.105
     -1273.443          41.900   108587422.746 7  27314895.367       -1257.252
        45.700
 147320403.039 6                  28034150.953
      2844.608                          38.100                   110012102.424 6
  28034189.137        2124.177          39.300   112881965.882 6  28034184.258
      2179.592          39.700

 196196160.096 7                  37334885.047
         1.788                          42.600                   146510025.257 7
  37334885.094           1.390          45.800


 200640939.808 7                  38180696.922
        -3.606                          45.800                   149829230.715 7
  38180697.461          -2.702          47.000


 213737228.890 6                  40672818.594
        -1.685                          37.700                   159608956.902 6
  40672820.797          -1.315          38.900


 200903850.810 6                  38230735.703
         1.266                          39.800



 14  3  9  0 16 30.0000000  0 25G32R24G31R14G01G03R13R18R17G16R15G23
                                R04G13G27G11G20G19R05E19E12S33S38S35
                                S20
 131801133.442 5                  25080941.969
      -814.400                          33.700



 121557608.138 6  94544868.147 6  22731805.672    22731805.145    22731813.684
     -3953.536       -3074.965          40.800          41.400



 121024691.398 7  94305038.14045  23030243.938                    23030272.453
     -1731.341       -1349.082          44.300          31.900



 111662313.573 6  86848646.308 6  20947520.414    20947518.313    20947531.035
       448.591         348.908          41.300          40.200



 133064695.423 5 103686846.55842  25321372.461                    25321396.008
      2923.924        2278.427          32.600          16.300    99366568.012 6
  25321397.773        2183.500          40.100


 104988513.131 8  81809481.99846  19978571.289                    19978581.668
      -203.542        -158.605          49.400          41.700



 126271900.167 4  98211544.480 4  23646672.734    23646671.773    23646687.758
     -1649.036       -1282.536          28.600          27.900



 103168669.169 7  80242507.220 7  19347310.953    19347308.645    19347317.020
     -1082.681        -842.089          46.300          43.700



 103241518.788 7  80299145.877 8  19293084.781    19293083.020    19293090.547
      -901.263        -700.980          47.600          49.200



 117318626.819 7  91417305.61445  22324930.469                    22324939.875
     -1102.484        -859.073          44.900          33.700



 116248277.361 6  90415421.883 7  21754261.930    21754260.602    21754270.758
      2351.599        1829.038          40.900          43.600



 110527371.381 8  86125310.32646  21032638.078                    21032646.504
        67.967          52.964          49.900          38.400



 126984880.488 6  98766039.552 6  23713565.625    23713564.879    23713590.488
     -2457.402       -1911.326          38.600          39.300



 118183028.195 7  92090755.58545  22489469.047                    22489480.402
      2050.162        1597.525          45.100          31.000



 107948009.370 8  84115608.87047  20541738.305                    20541748.566
     -1464.394       -1141.081          51.200          43.300    80610766.246 9
  20541748.664       -1093.538          54.800


 123576592.438 7  96293605.44944  23515816.117                    23515835.711
      3364.270        2621.491          44.300          27.100



 133065338.425 5 103687278.11642  25321541.320                    25321574.945
      -753.298        -586.945          35.200          16.900



 107075623.742 7  83435783.06947  20375737.852                    20375746.074
      1164.542         907.432          47.200          42.000



 126816221.237 6  98634859.536 6  23723596.813    23723594.828    23723609.262
     -1485.464       -1155.399          38.500          38.200



 143590196.496 6                  27324335.953
     -1655.807                          41.700                   107226451.306 6
  27324367.301       -1236.447          41.200   110023663.792 6  27324363.270
     -1268.709          41.400   108625068.661 7  27324366.043       -1252.582
        45.300
 147235092.705 6                  28017915.906
      2842.831                          37.400                   109948398.092 6
  28017954.668        2122.847          39.800   112816599.528 6  28017949.184
      2178.227          39.900

 196196109.058 7                  37334873.266
         1.611                          44.700                   146509986.413 7
  37334874.859           1.346          45.800


 200641053.343 7                  38180718.313
        -3.881                          45.100                   149829315.265 7
  38180718.969          -2.825          47.200


 213737277.647 6                  40672827.859
        -1.623                          37.600                   159608994.250 6
  40672828.914          -1.286          38.600


 200903804.873 6                  38230731.125
         1.697                          38.900



 14  3  9  0 17  0.0000000  0 25G32R24G31R14G01G03R13R18R17G16R15G23
                                R04G13G27G11G20G19R05E19E12S33S38S35
                                S20
 131825414.718 6 102721289.88542  25085561.523                    25085588.832
      -804.610        -626.995          36.700          16.300



 121676342.489 6  94637217.058 7  22754010.695    22754009.695    22754017.844
     -3961.755       -3081.375          41.600          42.200



 121076799.189 7  94345641.01645  23040160.508                    23040188.152
     -1742.114       -1357.469          46.400          34.600



 111649007.470 6  86838297.059 6  20945023.352    20945022.422    20945035.223
       438.810         341.311          40.500          40.200



 132976859.599 6 103618402.01743  25304658.984                    25304682.453
      2931.563        2284.392          36.400          19.300    99300975.075 6
  25304684.457        2189.195          41.600


 104994875.529 8  81814439.74046  19979782.414                    19979792.113
      -220.029        -171.446          49.700          41.100



 126321548.426 6  98250164.760 7  23655972.586    23655970.336    23655985.934
     -1660.698       -1291.735          37.000          43.500



 103201549.540 7  80268080.863 7  19353476.391    19353475.023    19353482.996
     -1108.498        -862.143          45.800          43.900



 103268953.793 8  80320484.239 8  19298211.141    19298210.086    19298217.395
      -926.851        -720.879          48.100          49.500



 117351670.686 7  91443054.07045  22331219.078                    22331227.781
     -1100.485        -857.517          46.000          34.000



 116177702.800 6  90360530.642 7  21741053.586    21741052.961    21741063.035
      2353.295        1830.350          41.100          43.100



 110525628.498 8  86123952.21346  21032306.555                    21032314.941
        48.902          38.109          49.100          38.900



 127058523.895 6  98823316.328 6  23727318.805    23727317.590    23727343.680
     -2452.198       -1907.212          40.300          37.800



 118121774.965 7  92043025.85244  22477813.289                    22477823.797
      2033.923        1584.873          44.000          29.700



 107992166.954 8  84150017.38347  20550140.797                    20550151.313
     -1478.907       -1152.396          51.800          43.200    80643741.076 9
  20550151.348       -1104.380          54.800


 123475673.200 7  96214967.61344  23496612.016                    23496630.980
      3363.700        2621.041          45.000          27.200



 133087825.655 5 103704799.34842  25325821.828                    25325855.625
      -746.033        -581.276          35.200          17.400



 107040983.783 7  83408790.95346  20369146.148                    20369154.672
      1145.432         892.547          46.700          41.400



 126860931.392 6  98669634.056 6  23731960.430    23731957.391    23731972.379
     -1494.801       -1162.643          39.400          40.700



 143639776.194 7                  27333770.688
     -1649.644                          42.200                   107263474.192 6
  27333803.535       -1231.844          41.800   110061652.609 6  27333798.988
     -1263.985          41.500   108662574.505 7  27333801.699       -1247.911
        45.700
 147149835.603 6                  28001691.117
      2841.045                          37.900                   109884733.558 6
  28001728.695        2121.512          39.800   112751273.998 6  28001723.539
      2176.858          39.700

 196196059.053 7                  37334865.438
         1.656                          43.700                   146509949.972 7
  37334865.016           1.076          45.700


 200641165.902 7                  38180739.219
        -3.696                          44.700                   149829399.847 7
  38180740.227          -2.894          47.000


 213737325.476 5                  40672838.078
        -1.495                          35.800                   159609029.398 6
  40672837.914          -1.025          38.400


 200903757.170 6                  38230720.109
         1.643                          37.700



 14  3  9  0 17 30.0000000  0 25G32R24G31R14G01G03R13R18R17G16R15G23
                                R04G13G27G11G20G19R05E19E12S33S38S35
                                S20
 131849403.052 5 102739982.37042  25090126.117                    25090152.098
      -794.878        -619.399          31.000          15.600



 121795321.586 6  94729756.294 6  22776259.953    22776259.309    22776267.887
     -3969.879       -3087.685          40.200          41.800



 121129230.144 7  94386495.83545  23050138.211                    23050165.832
     -1752.920       -1365.889          44.700          32.300



 111635996.790 6  86828177.585 6  20942584.258    20942582.273    20942594.668
       428.892         333.590          41.000          40.200



 132888794.686 6 103549778.88743  25287902.258                    25287925.555
      2939.183        2290.312          37.200          19.600    99235210.999 7
  25287928.141        2194.892          43.600


 105001731.000 8  81819781.70346  19981086.852                    19981096.914
      -236.443        -184.243          50.600          41.600



 126371548.851 6  98289049.709 5  23665335.695    23665334.383    23665350.172
     -1672.450       -1300.792          37.700          32.500



 103235203.120 7  80294255.906 7  19359788.000    19359785.691    19359793.742
     -1134.234        -882.175          46.600          44.600



 103297157.270 7  80342420.311 8  19303481.945    19303481.359    19303488.820
      -952.500        -740.822          47.900          49.200



 117384654.810 7  91468755.97245  22337495.492                    22337505.078
     -1098.515        -855.984          46.500          34.000



 116107078.663 6  90305600.827 7  21727837.305    21727836.094    21727846.930
      2354.951        1831.598          41.100          43.400



 110524456.963 8  86123039.31346  21032083.602                    21032092.246
        29.860          23.264          49.800          38.900



 127132008.654 6  98880469.795 6  23741042.234    23741042.191    23741067.664
     -2446.943       -1903.149          40.000          36.900



 118061009.829 7  91995676.45245  22466249.625                    22466260.871
      2017.602        1572.156          44.700          31.300



 108036758.310 8  84184763.90147  20558625.938                    20558636.828
     -1493.352       -1163.651          51.700          43.600    80677039.818 9
  20558637.039       -1115.165          54.900


 123374772.010 7  96136343.82344  23477410.305                    23477429.500
      3363.057        2620.546          44.400          27.800



 133110093.517 6 103722149.67842  25330059.039                    25330093.387
      -738.712        -575.606          36.200          14.800



 107006917.168 7  83382245.60447  20362663.516                    20362671.953
      1126.299         877.635          47.300          42.100



 126905919.181 6  98704624.496 6  23740374.344    23740373.652    23740388.664
     -1504.047       -1169.818          37.800          38.100



 143689169.219 7                  27343170.383
     -1643.429                          42.600                   107300357.699 6
  27343203.230       -1227.205          41.600   110099498.398 7  27343199.711
     -1259.226          42.000   108699939.158 7  27343201.605       -1243.219
        45.500
 147064633.292 6                  27985476.859
      2839.173                          38.700                   109821109.943 6
  27985514.035        2120.114          39.200   112685990.459 6  27985508.875
      2175.430          39.100

 196196010.484 7                  37334855.172
         1.601                          44.100                   146509913.791 7
  37334855.617           1.251          45.700


 200641278.483 7                  38180760.844
        -3.586                          45.400                   149829483.937 8
  38180761.500          -2.592          48.000


 213737374.376 5                  40672844.656
        -1.707                          34.700                   159609066.092 6
  40672847.469          -1.419          38.700


 200903708.144 6                  38230715.672
         1.646                          40.200



 14  3  9  0 18  0.0000000  0 25G32R24G31R14G01G03R13R18R17G16R15G23
                                R04G13G27G11G20G19R05E19E12S33S38S35
                                S20
 131873097.920 6                  25094635.141
      -785.098                          36.300



 121914541.393 6  94822482.806 6  22798554.305    22798554.598    22798561.730
     -3977.802       -3093.854          40.800          40.900



 121181984.239 7  94427602.35545  23060177.484                    23060205.816
     -1763.671       -1374.267          45.300          32.100



 111623284.335 6  86818290.034 6  20940197.609    20940197.148    20940210.207
       418.899         325.832          40.600          39.400



 132800502.436 5 103480978.57442  25271101.648                    25271125.078
      2946.758        2296.230          33.700          16.300    99169277.121 6
  25271127.195        2200.547          41.400


 105009078.216 8  81825506.83746  19982484.852                    19982494.699
      -252.809        -196.993          50.300          40.900



 126421919.379 6  98328212.445 7  23674764.820    23674762.922    23674778.301
     -1683.957       -1309.698          39.300          43.100



 103269628.789 7  80321031.445 7  19366244.258    19366242.418    19366250.320
     -1159.913        -902.150          46.400          44.000



 103326127.335 8  80364952.621 8  19308895.492    19308894.555    19308902.418
      -978.003        -760.672          48.000          49.700



 117417578.840 7  91494411.06545  22343760.516                    22343770.402
     -1096.490        -854.416          45.700          34.400



 116036405.631 6  90250632.958 7  21714612.141    21714611.398    21714621.785
      2356.506        1832.848          41.100          43.300



 110523855.808 8  86122570.86146  21031969.070                    21031977.988
        10.861           8.465          49.200          38.600



 127205331.577 6  98937497.310 6  23754735.180    23754735.371    23754762.676
     -2441.461       -1898.871          38.200          38.700



 118000734.905 7  91948709.02745  22454780.195                    22454790.918
      2001.254        1559.423          45.600          30.900



 108081781.332 8  84219846.77747  20567193.719                    20567204.449
     -1507.694       -1174.829          51.100          42.800    80710660.909 9
  20567204.719       -1125.872          55.000


 123273891.743 7  96057736.32144  23458213.117                    23458231.836
      3362.290        2619.951          43.700          27.500



 133132141.074 5 103739328.33242  25334256.109                    25334290.445
      -731.359        -569.836          34.300          16.300



 106973424.517 7  83356147.50946  20356289.742                    20356298.746
      1107.167         862.718          47.200          41.700



 126951180.824 6  98739827.967 6  23748842.453    23748840.586    23748854.785
     -1513.086       -1176.865          38.900          38.300



 143738374.446 7                  27352534.680
     -1637.126                          42.400                   107337100.950 6
  27352567.680       -1222.498          40.200   110137200.264 6  27352563.082
     -1254.385          41.400   108737161.720 7  27352565.859       -1238.445
        45.000
 146979487.505 6                  27969273.398
      2837.250                          38.800                   109757528.541 6
  27969309.645        2118.676          39.300   112620750.217 6  27969304.391
      2173.954          39.100

 196195965.208 7                  37334846.547
         1.725                          44.500                   146509879.596 7
  37334846.688           1.251          45.400


 200641391.664 7                  38180782.203
        -3.734                          45.500                   149829567.937 7
  38180783.164          -2.824          47.300


 213737421.888 6                  40672854.484
        -1.412                          37.100                   159609101.970 6
  40672855.398          -1.002          38.900


 200903658.622 6                  38230706.609
         1.822                          40.200



 14  3  9  0 18 30.0000000  0 25G32R24G31R14G01G03R13R18R17G16R15G23
                                R04G13G27G11G20G19R05E19E12S33S38S35
                                S20
 131896498.626 6 102776676.34142  25099087.289                    25099113.441
      -775.254        -604.089          38.900          16.900



 122033998.210 6  94915393.651 6  22820893.398    22820893.457    22820902.188
     -3985.683       -3099.949          40.300          41.700



 121235061.651 7  94468960.84945  23070277.773                    23070306.574
     -1774.464       -1382.672          44.600          32.400



 111610873.009 6  86808636.702 6  20937871.148    20937869.047    20937881.359
       408.815         317.999          40.900          39.600



 132711984.828 5 103412002.58942  25254258.508                    25254281.332
      2954.199        2302.015          35.000          16.300    99103174.867 6
  25254282.863        2206.117          41.000


 105016916.075 8  81831614.29846  19983975.875                    19983986.172
      -269.178        -209.757          50.600          41.300



 126472461.35314                  23684258.219    23684256.320
     -1695.568                          28.000



 103304823.924 7  80348405.460 7  19372843.750    19372842.027    19372850.098
     -1185.558        -922.092          46.200          44.100



 103355862.309 7  80388079.852 8  19314451.766    19314450.828    19314458.758
     -1003.485        -780.491          47.900          49.600



 117450442.185 7  91520018.85645  22350014.117                    22350023.785
     -1094.457        -852.825          45.000          33.300



 115965687.257 7  90195629.838 7  21701377.359    21701377.203    21701387.617
      2357.971        1833.965          42.400          43.300



 110523824.820 8  86122546.68746  21031963.289                    21031972.266
        -8.160          -6.355          49.500          38.800



 127278488.775 6  98994395.891 6  23768398.836    23768397.270    23768425.227
     -2435.895       -1894.558          37.600          39.000



 117940951.855 7  91902124.88745  22443403.875                    22443414.469
      1984.825        1546.615          45.600          30.600



 108127233.758 8  84255264.26447  20575842.820                    20575853.961
     -1521.984       -1185.968          51.300          43.500    80744602.664 9
  20575854.055       -1136.541          54.800


 123173035.168 7  95979147.29244  23439020.438                    23439039.281
      3361.478        2619.317          43.900          26.100



 133153966.308 5 103756333.72242  25338409.508                    25338444.461
      -723.892        -564.027          34.600          16.300



 106940506.282 7  83330497.00046  20350025.945                    20350033.984
      1088.019         847.800          47.500          41.700



 126996712.668 6  98775241.536 6  23757361.211    23757360.051    23757374.023
     -1522.043       -1183.803          38.900          38.600



 143787390.574 7                  27361863.039
     -1630.799                          42.400                   107373702.958 6
  27361894.977       -1217.774          40.000   110174757.209 6  27361891.836
     -1249.544          41.500   108774241.189 7  27361894.105       -1233.655
        44.500
 146894399.761 6                  27953080.414
      2835.306                          37.600                   109693990.461 6
  27953116.418        2117.224          38.900   112555554.447 6  27953111.727
      2172.462          39.800

 196195921.013 7                  37334837.813
         1.299                          43.000                   146509846.877 7
  37334839.172           0.998          45.800


 200641503.185 7                  38180803.938
        -3.818                          45.300                   149829651.781 7
  38180805.016          -2.935          47.300


 213737470.981 6                  40672864.391
        -1.715                          36.500                   159609138.238 6
  40672865.234          -1.287          38.700


 200903606.258 6                  38230693.516
         1.719                          40.800



 14  3  9  0 19  0.0000000  0 24G32R24G31R14G01G03R18R17G16R15G23R04
                                G13G27G11G20G19R05E19E12S33S38S35S20
 131919604.100 6                  25103485.469
      -765.465                          36.000



 122153687.446 6  95008485.238 7  22843275.516    22843274.750    22843284.270
     -3993.310       -3105.919          38.800          42.400



 121288462.140 7  94510571.09845  23080439.914                    23080468.750
     -1785.234       -1391.061          45.700          31.500



 111598765.420 6  86799219.633 6  20935598.719    20935597.672    20935610.430
       398.636         310.073          40.400          40.000



 132623243.387 5 103342852.12842  25237371.813                    25237395.398
      2961.663        2307.821          33.800          16.300    99036905.425 6
  25237399.336        2211.682          40.900


 105025243.383 8  81838103.13246  19985560.813                    19985570.805
      -285.467        -222.439          50.200          41.200



 103340786.891 7  80376376.689 7  19379588.195    19379586.355    19379594.363
     -1211.129        -941.990          46.100          44.000



 103386359.978 7  80411800.275 8  19320151.266    19320150.328    19320157.914
     -1028.897        -800.261          47.800          50.100



 117483244.070 7  91545578.77445  22356255.938                    22356265.813
     -1092.440        -851.249          44.600          34.000



 115894925.674 6  90140593.116 7  21688135.781    21688135.625    21688145.875
      2359.378        1835.053          41.800          43.200



 110524363.207 8  86122966.18346  21032065.648                    21032074.426
       -27.131         -21.137          49.100          37.900



 127351477.407 6  99051163.231 6  23782030.766    23782028.965    23782055.836
     -2430.257       -1890.113          37.800          39.300



 117881662.388 7  91855925.36145  22432121.000                    22432132.574
      1968.303        1533.737          45.800          31.500



 108173113.109 8  84291014.40047  20584573.484                    20584584.609
     -1536.195       -1197.033          51.000          43.500    80778863.216 9
  20584584.586       -1147.158          54.800


 123072204.684 7  95900578.57444  23419831.969                    23419850.879
      3360.533        2618.582          43.500          26.200



 133175567.788 5 103773164.90142  25342521.703                    25342557.504
      -716.430        -558.286          33.500          13.900



 106908162.970 7  83305294.48246  20343871.055                    20343879.516
      1068.818         832.846          47.000          41.600



 127042510.904 6  98810862.323 6  23765928.023    23765927.684    23765940.688
     -1530.925       -1190.708          38.900          38.700



 143836216.111 7                  27371154.453
     -1624.469                          42.400                   107410162.604 6
  27371187.223       -1213.043          40.200   110212168.090 6  27371183.895
     -1244.695          41.400   108811176.456 7  27371186.133       -1228.869
        44.700
 146809371.505 6                  27936899.078
      2833.273                          37.500                   109630496.790 6
  27936934.508        2115.713          38.700   112490404.266 6  27936930.242
      2170.905          40.400

 196195879.544 7                  37334830.797
         1.245                          44.100                   146509815.505 7
  37334831.734           0.930          45.400


 200641617.454 7                  38180825.047
        -3.927                          44.400                   149829737.131 7
  38180826.078          -2.914          46.700


 213737519.275 5                  40672871.734
        -1.525                          35.900                   159609174.565 6
  40672874.406          -1.060          38.700


 200903550.646 6                  38230681.359
         1.815                          39.400



 14  3  9  0 19 30.0000000  0 24G32R24G31R14G01G03R18R17G16R15G23R04
                                G13G27G11G20G19R05E19E12S33S38S35S20
 131942413.749 6 102812440.12943  25107823.789                    25107849.336
      -755.566        -588.761          37.500          20.600



 122273604.830 6  95101754.275 6  22865700.703    22865700.762    22865708.633
     -4000.894       -3111.808          41.300          40.400



 121342185.510 7  94552432.93445  23090663.938                    23090692.574
     -1795.996       -1399.448          45.900          33.100



 111586964.368 6  86790040.975 6  20933384.445    20933382.578    20933395.648
       388.377         302.066          41.100          40.400



 132534280.150 5 103273528.75742  25220443.594                    25220468.746
      2968.981        2313.560          34.400          17.800    98970470.235 6
  25220470.512        2217.156          41.000


 105034058.624 8  81844972.18146  19987238.203                    19987248.066
      -301.705        -235.091          50.500          41.400



 103377514.226 7  80404942.408 7  19386475.148    19386473.781    19386481.867
     -1236.567        -961.775          46.500          43.900



 103417618.397 7  80436112.394 8  19325992.539    19325991.250    19325998.914
     -1054.209        -819.930          47.600          49.900



 117515984.060 7  91571090.46545  22362486.516                    22362495.566
     -1090.341        -849.621          44.500          33.000



 115824123.569 6  90085524.885 7  21674886.031    21674885.289    21674895.938
      2360.703        1836.100          41.400          43.700



 110525470.112 8  86123828.68846  21032275.766                    21032284.680
       -46.058         -35.883          48.800          39.000



 127424294.097 6  99107796.918 6  23795629.148    23795628.285    23795656.504
     -2424.448       -1885.641          37.200          39.000



 117822868.196 7  91810111.75845  22420932.820                    22420944.207
      1951.808        1520.881          44.100          31.900



 108219416.995 8  84327095.35347  20593384.469                    20593395.695
     -1550.278       -1208.009          50.500          43.200    80813440.796 9
  20593395.676       -1157.680          54.800


 122971402.897 7  95822032.22644  23400650.453                    23400668.695
      3359.538        2617.800          43.700          28.200



 133196943.940 5 103790189.26042  25346591.406                    25346626.672
      -708.888        -552.354          35.500          14.800



 106876394.749 7  83280540.09046  20337825.766                    20337833.512
      1049.653         817.908          47.600          41.500



 127088572.056 6  98846687.617 6  23774545.352    23774544.543    23774557.758
     -1539.575       -1197.479          39.300          38.000



 143884849.857 7                  27380409.430
     -1618.049                          42.700                   107446479.087 6
  27380443.613       -1208.255          40.900   110249432.067 6  27380439.254
     -1239.773          40.800   108847966.686 7  27380441.512       -1224.017
        44.800
 146724404.204 6                  27920729.453
      2831.219                          37.800                   109567048.666 6
  27920764.727        2114.181          39.900   112425300.821 6  27920760.082
      2169.327          40.400

 196195840.723 7                  37334823.250
         1.378                          43.200                   146509786.934 7
  37334823.789           0.929          45.100


 200641729.730 7                  38180846.922
        -3.911                          45.300                   149829821.191 7
  38180847.742          -3.034          46.800


 213737567.561 5                  40672882.969
        -1.640                          35.000                   159609210.886 6
  40672882.500          -1.244          38.500


 200903493.494 6                  38230672.094
         1.978                          37.900



 14  3  9  0 20  0.0000000  0 25G32R24G31R14G01G03R13R18R17G16R15G23
                                R04G13G27G11G20G19R05E19E12S33S38S35
                                S20
 131964926.477 6                  25112107.461
      -745.654                          36.800



 122393746.923 6  95195198.173 6  22888167.063    22888166.652    22888175.246
     -4008.291       -3117.581          39.000          40.500



 121396232.037 7  94594546.56144  23100949.180                    23100977.930
     -1806.771       -1407.852          44.200          28.900



 111575473.226 6  86781103.347 6  20931229.938    20931227.719    20931240.809
       378.004         293.991          40.500          40.100



 132445097.049 5 103204034.05742  25203474.852                    25203498.344
      2976.254        2319.212          33.400          17.800    98903870.809 6
  25203501.105        2222.579          40.300


 105043360.838 8  81852220.68646  19989008.219                    19989018.473
      -317.907        -247.721          50.700          40.800



 126626797.100 4  98487559.790 6  23713132.906    23713129.832    23713143.742
     -1730.710       -1345.993          29.100          37.200



 103415004.313 7  80434101.392 7  19393505.938    19393504.688    19393512.523
     -1261.931        -981.496          45.900          44.200



 103449635.727 8  80461014.790 8  19331975.305    19331975.422    19331982.730
     -1079.443        -839.565          48.800          49.500



 117548661.905 7  91596553.70845  22368704.508                    22368713.879
     -1088.274        -847.998          44.700          33.300



 115753283.608 7  90030427.186 7  21661629.188    21661628.328    21661639.105
      2361.945        1837.054          42.000          43.000



 110527145.126 8  86125133.86846  21032594.719                    21032603.578
       -64.988         -50.636          48.700          38.400



 127496935.876 6  99164294.485 6  23809195.961    23809193.453    23809222.523
     -2418.512       -1881.001          37.300          37.700



 117764571.336 7  91764685.68745  22409839.023                    22409850.590
      1935.173        1507.928          45.200          31.100



 108266143.555 8  84363505.65147  20602276.617                    20602287.598
     -1564.336       -1218.963          49.900          43.200    80848334.000 9
  20602287.867       -1168.176          54.900


 122870632.590 7  95743510.37144  23381474.328                    23381492.211
      3358.479        2616.982          45.300          28.900



 133218093.164 6 103806667.99542  25350616.734                    25350651.793
      -701.323        -546.471          36.700          16.300



 106845202.565 7  83256234.55947  20331889.945                    20331898.105
      1030.439         802.937          46.800          42.000



 127134892.367 6  98882714.391 6  23783210.063    23783208.313    23783223.793
     -1548.122       -1204.082          37.900          39.600



 143933290.831 7                  27389628.414
     -1611.580                          43.000                   107482651.634 6
  27389662.414       -1203.425          40.800   110286548.349 6  27389657.773
     -1234.818          41.000   108884611.100 7  27389660.246       -1219.117
        44.900
 146639499.992 6                  27904572.078
      2829.112                          38.700                   109503647.609 6
  27904606.977        2112.603          40.500   112360245.668 6  27904602.617
      2167.719          40.900

 196195802.955 7                  37334815.875
         0.965                          43.800                   146509758.443 7
  37334816.227           0.781          45.800


 200641843.724 7                  38180868.125
        -3.805                          44.500                   149829906.492 7
  38180869.391          -2.735          47.200


 213737616.200 6                  40672891.438
        -1.693                          36.600                   159609247.268 6
  40672892.938          -1.319          39.200


 200903436.483 6                  38230656.922
         1.714                          39.000



 14  3  9  0 20 30.0000000  0 25G32R24G31R14G01G03R13R18R17G16R15G23
                                R04G13G27G11G20G19R05E19E12S33S38S35
                                S20
 131987141.692 6                  25116334.797
      -735.799                          36.000



 122514109.406 6  95288813.353 7  22910675.930    22910675.164    22910684.340
     -4015.637       -3123.281          39.400          42.400



 121450601.612 7  94636912.00445  23111295.258                    23111323.996
     -1817.568       -1416.269          45.700          31.900



 111564294.396 6  86772408.648 6  20929131.789    20929130.156    20929143.609
       367.507         285.852          39.900          40.500



 132355695.884 5 103134369.33842  25186462.414                    25186488.313
      2983.473        2324.816          34.500          17.400    98837108.472 7
  25186491.547        2227.972          42.200


 105053148.253 8  81859847.27146  19990870.383                    19990880.543
      -334.095        -260.330          50.300          41.600



 126678885.277 6                  23722889.016    23722885.941
     -1742.362                          36.300



 103453254.033 7  80463851.196 7  19400679.445    19400677.371    19400684.895
     -1287.297       -1001.244          46.400          44.200



 103482409.743 8  80486505.722 8  19338100.695    19338099.758    19338107.113
     -1104.657        -859.191          48.400          49.700



 117581276.803 7  91621967.91345  22374910.719                    22374919.914
     -1086.163        -846.362          46.300          32.600



 115682408.778 6  89975302.411 7  21648366.250    21648365.742    21648375.090
      2363.006        1837.869          41.300          42.700



 110529387.587 8  86126881.21546  21033021.719                    21033030.359
       -83.933         -65.399          49.100          38.200



 127569399.112 6  99220653.098 6  23822730.070    23822728.504    23822756.188
     -2412.592       -1876.385          38.800          36.900



 117706773.373 7  91719648.36545  22398840.547                    22398851.242
      1918.494        1494.930          44.600          30.700



 108313290.227 8  84400243.31747  20611247.953                    20611259.027
     -1578.348       -1229.880          50.500          43.300    80883540.934 9
  20611259.242       -1178.636          55.000


 122769896.512 7  95665015.20744  23362304.719                    23362322.574
      3357.226        2616.002          44.600          29.400



 133239013.898 6 103822968.62842  25354597.984                    25354633.613
      -693.699        -540.513          36.000          17.400



 106814586.628 7  83232378.05147  20326063.891                    20326072.418
      1011.196         787.937          47.400          42.100



 127181468.421 6  98918940.119 6  23791923.391    23791921.523    23791936.676
     -1556.651       -1210.772          38.600          38.600



 143981537.571 7                  27398809.805
     -1605.125                          42.400                   107518679.119 6
  27398843.969       -1198.604          41.400   110323515.801 6  27398840.500
     -1229.872          41.100   108921108.565 7  27398842.395       -1214.231
        45.100
 146554660.133 6                  27888427.164
      2826.865                          38.300                   109440294.629 6
  27888461.379        2110.927          39.800   112295239.811 6  27888456.219
      2165.997          39.700

 196195768.872 7                  37334809.344
         1.080                          43.900                   146509733.728 7
  37334809.625           0.730          45.900


 200641957.842 7                  38180889.453
        -4.007                          44.400                   149829991.374 7
  38180890.555          -3.136          47.600


 213737664.580 6                  40672899.250
        -1.576                          37.300                   159609283.508 6
  40672901.641          -1.174          39.200


 200903381.618 6                  38230648.188
         1.696                          39.800



 14  3  9  0 21  0.0000000  0 25G32R24G31R14G01G03R13R18R17G16R15G23
                                R04G13G27G11G20G19R05E19E12S33S38S35
                                S20
 132009250.558 5 102864370.73942  25120506.023                    25120530.555
      -725.835        -565.677          33.200          13.900



 122634689.533 6  95382597.874 6  22933226.930    22933225.109    22933233.801
     -4022.819       -3128.849          40.700          41.400



 121505295.522 7  94679530.08044  23121703.516                    23121732.430
     -1828.332       -1424.659          43.700          29.300



 111553432.504 6  86763960.419 6  20927094.352    20927092.719    20927105.945
       356.914         277.624          40.100          40.000



 132266080.125 6 103064537.39143  25169410.570                    25169436.543
      2990.647        2330.419          36.000          18.300    98770185.860 7
  25169439.422        2233.341          42.600


 105063421.209 8  81867852.20046  19992825.422                    19992835.543
      -350.224        -272.900          50.700          40.900



 126731343.321 6  98568871.968 6  23732710.289    23732708.742    23732723.035
     -1754.130       -1364.368          36.300          38.500



 103492264.212 7  80494192.467 7  19407994.609    19407993.242    19408000.934
     -1312.561       -1020.899          45.900          44.000



 103515940.064 8  80512584.872 8  19344365.953    19344365.367    19344372.691
     -1129.851        -878.780          48.000          49.500



 117613830.037 7  91647334.05545  22381105.727                    22381114.281
     -1084.083        -844.736          45.800          32.900



 115611501.928 6  89920152.667 7  21635096.180    21635095.906    21635105.992
      2364.043        1838.693          41.600          43.100



 110532197.831 8  86129070.99046  21033556.711                    21033565.141
      -102.788         -80.093          48.400          38.600



 127641682.352 6  99276871.724 6  23836228.820    23836227.371    23836255.680
     -2406.443       -1871.656          38.500          37.400



 117649477.691 7  91675002.42345  22387938.023                    22387948.141
      1901.741        1481.878          45.300          32.400



 108360856.272 8  84437307.76247  20620299.656                    20620310.875
     -1592.255       -1240.715          51.000          42.600    80919061.026 9
  20620310.910       -1189.018          55.000


 122669198.664 7  95586549.80844  23343141.859                    23343160.441
      3355.979        2615.028          44.100          29.200



 133259706.817 5 103839091.82042  25358537.008                    25358573.039
      -686.052        -534.527          34.100          17.800



 106784549.099 7  83208972.24747  20320348.031                    20320356.559
       991.953         772.952          46.600          42.100



 127228297.708 6  98955362.793 6  23800682.867    23800682.059    23800697.063
     -1564.974       -1217.217          38.300          37.700



 144029590.370 7                  27407954.938
     -1598.612                          42.400                   107554561.805 6
  27407989.035       -1193.734          41.700   110360334.669 6  27407984.723
     -1224.879          40.700   108957459.346 7  27407987.336       -1209.311
        45.200
 146469887.811 6                  27872293.914
      2824.655                          37.800                   109376992.058 6
  27872328.355        2109.270          39.800   112230285.694 6  27872324.137
      2164.299          40.400

 196195738.188 7                  37334802.625
         1.125                          44.100                   146509710.384 7
  37334803.469           0.970          45.800


 200642072.818 7                  38180912.438
        -4.060                          45.400                   149830077.618 7
  38180912.977          -3.072          47.100


 213737714.512 6                  40672909.859
        -1.643                          36.700                   159609321.025 6
  40672911.383          -1.195          38.300


 200903327.884 6                  38230635.281
         1.784                          39.000



 14  3  9  0 21 30.0000000  0 25G32R24G31R14G01G03R13R18R17G16R15G23
                                R04G13G27G11G20G19R05E19E12S33S38S35
                                S20
 132030868.015 5 102881216.91642  25124618.211                    25124644.352
      -715.812        -557.719          34.600          17.400



 122755481.804 6  95476547.411 6  22955813.734    22955812.266    22955821.750
     -4029.748       -3134.241          37.800          40.400



 121560312.118 7  94722399.62645  23132173.102                    23132202.488
     -1839.050       -1433.000          44.300          31.100



 111542888.435 6  86755759.407 6  20925117.031    20925115.164    20925128.230
       346.332         269.390          40.500          40.100



 132176249.908 5 102994538.28542  25152317.578                    25152343.125
      2997.786        2335.989          34.900          16.300    98703103.028 6
  25152345.770        2238.669          40.400


 105074176.420 8  81876232.91346  19994871.953                    19994882.117
      -366.234        -285.380          50.600          41.300



 126784145.510 5  98609895.840 5  23742598.211    23742597.250    23742610.488
     -1765.670       -1373.352          30.300          34.100



 103532029.619 7  80525121.124 7  19415451.844    19415450.355    19415458.152
     -1337.644       -1040.405          45.700          43.700



 103550222.513 7  80539249.021 8  19350772.922    19350772.219    19350779.371
     -1154.836        -898.215          47.600          49.200



 117646319.260 7  91672650.33745  22387288.172                    22387297.031
     -1081.914        -843.054          44.000          32.300



 115540564.786 6  89864979.410 7  21621821.859    21621820.648    21621831.262
      2365.036        1839.495          41.200          43.600



 110535573.457 8  86131701.31846  21034198.891                    21034207.941
      -121.572         -94.734          49.500          39.000



 127713780.640 6  99332946.343 6  23849694.633    23849692.949    23849722.074
     -2400.194       -1866.783          39.400          36.900



 117592684.260 7  91630747.84845  22377130.813                    22377140.590
      1885.012        1468.839          46.000          31.400



 108408837.592 8  84474695.79447  20629430.352                    20629441.332
     -1606.003       -1251.429          50.500          42.800    80954891.225 9
  20629441.250       -1199.284          54.700


 122568539.747 7  95508114.73544  23323986.734                    23324005.113
      3354.665        2614.012          44.600          28.700



 133280168.282 5 103855034.61642  25362431.344                    25362468.805
      -678.317        -528.525          35.800          17.400



 106755088.328 8  83186015.87147  20314741.469                    20314750.516
       972.775         757.998          48.200          42.400



 127275375.197 6  98991978.506 6  23809491.320    23809489.926    23809503.887
     -1573.202       -1223.607          37.700          38.900



 144077446.230 6                  27417061.695
     -1591.995                          41.900                   107590297.418 6
  27417096.574       -1188.794          41.600   110397002.631 6  27417092.449
     -1219.820          41.000   108993661.137 7  27417094.844       -1204.310
        45.500
 146385182.845 6                  27856174.258
      2822.432                          38.900                   109313739.757 6
  27856208.313        2107.616          40.000   112165383.179 6  27856204.375
      2162.599          41.400

 196195711.194 7                  37334797.969
         1.026                          42.700                   146509690.191 7
  37334797.664           0.549          45.500


 200642188.242 7                  38180933.609
        -3.755                          45.200                   149830163.576 7
  38180934.594          -2.855          46.700


 213737763.730 5                  40672919.219
        -1.466                          35.700                   159609357.366 6
  40672920.625          -0.981          38.600


 200903275.248 6                  38230633.844
         1.748                          39.500



 14  3  9  0 22  0.0000000  0 25G32R24G31R14G01G03R13R18R17G16R15G23
                                R04G13G27G11G20G19R05E19E12S33S38S35
                                S20
 132052032.929 5 102897825.40742  25128676.586                    25128700.148
      -705.838        -550.063          34.900          17.800



 122876482.267 6  95570658.815 6  22978443.211    22978442.094    22978449.996
     -4036.662       -3139.594          40.200          41.800



 121615650.909 7  94765520.04044  23142704.406                    23142733.715
     -1849.825       -1441.399          43.800          29.700



 111532665.152 6  86747807.880 6  20923198.484    20923197.086    20923210.352
       335.555         260.996          40.500          40.200



 132086207.163 5 102924373.50442  25135184.320                    25135210.063
      3004.851        2341.482          34.800          15.600    98635861.463 6
  25135213.293        2243.945          40.300


 105085412.715 8  81884988.47746  19997010.477                    19997020.738
      -382.275        -297.875          50.900          41.100



 126837302.806 6                  23752553.828    23752552.164
     -1777.552                          37.300



 103572548.031 7  80556635.455 7  19423050.984    19423048.090    19423056.309
     -1362.740       -1059.902          45.900          44.400



 103585255.308 8  80566496.763 8  19357319.758    19357318.938    19357326.441
     -1179.830        -917.656          48.600          49.700



 117678744.130 7  91697916.43545  22393458.555                    22393467.086
     -1079.813        -841.407          45.300          33.100



 115469600.024 6  89809784.691 7  21608541.844    21608540.750    21608551.457
      2365.936        1840.149          41.100          43.600



 110539513.745 8  86134771.65046  21034948.898                    21034957.980
      -140.456        -109.447          49.100          39.000



 127785690.398 6  99388874.339 6  23863124.484    23863122.801    23863152.828
     -2393.921       -1861.869          39.200          37.900



 117536394.796 7  91586885.96645  22366418.977                    22366429.332
      1868.188        1455.729          45.600          31.700



 108457231.926 8  84512405.66347  20638639.156                    20638650.543
     -1619.784       -1262.171          51.100          43.000    80991029.841 9
  20638650.816       -1209.575          54.900


 122467922.685 7  95429712.29544  23304838.516                    23304857.051
      3353.196        2612.867          44.300          27.100



 133300396.700 6 103870795.85442  25366282.086                    25366318.355
      -670.499        -522.441          36.900          17.400



 106726204.753 7  83163509.24447  20309245.422                    20309253.379
       953.480         742.972          47.400          42.600



 127322697.018 6  99028784.233 6  23818343.844    23818342.328    23818356.938
     -1581.267       -1229.899          38.800          39.100



 144125103.971 6                  27426130.922
     -1585.377                          41.200                   107625885.099 6
  27426166.332       -1183.856          41.900   110433518.779 7  27426162.109
     -1214.738          42.300   109029713.045 7  27426164.621       -1199.298
        45.700
 146300546.918 6                  27840067.781
      2820.082                          37.900                   109250539.041 6
  27840101.090        2105.855          40.200   112100533.602 6  27840097.527
      2160.790          41.000

 196195683.181 7                  37334793.531
         0.775                          42.900                   146509669.853 7
  37334792.711           0.623          45.500


 200642303.035 7                  38180955.328
        -3.648                          44.400                   149830249.441 7
  38180956.641          -2.673          47.400


 213737814.689 6                  40672929.469
        -1.682                          36.100                   159609395.322 6
  40672930.969          -1.347          39.200


 200903220.590 6                  38230617.188
         1.939                          39.900



 14  3  9  0 22 30.0000000  0 25G32R24G31R14G01G03R13R18R17G16R15G23
                                R04G13G27G11G20G19R05E19E12S33S38S35
                                S20
 132073051.897 5                  25132674.039
      -695.785                          32.900



 122997686.442 6  95664928.772 7  23001109.539    23001108.422    23001116.691
     -4043.389       -3144.873          40.400          42.300



 121671311.779 7  94808891.53045  23153297.188                    23153326.633
     -1860.552       -1449.762          45.100          31.000



 111522764.904 6  86740107.616 6  20921341.234    20921340.188    20921353.367
       324.738         252.598          40.800          40.000



 131995953.658 5 102854044.46343  25118010.570                    25118037.887
      3011.812        2346.927          35.300          18.600    98568462.449 6
  25118040.590        2249.139          40.500


 105097127.909 8  81894117.22146  19999239.453                    19999249.590
      -398.200        -310.287          50.700          41.100



 126890818.64515  98692861.842 5  23762576.055    23762573.570    23762586.961
     -1789.333       -1391.727          32.600          35.500



 103613816.848 7  80588733.439 7  19430789.852    19430787.660    19430795.770
     -1387.732       -1079.327          45.800          43.900



 103621035.732 8  80594326.009 8  19364006.531    19364004.652    19364011.969
     -1204.698        -936.994          48.800          49.400



 117711104.042 7  91723131.95245  22399616.672                    22399625.449
     -1077.603        -839.693          45.100          33.500



 115398609.466 6  89754569.843 7  21595256.609    21595255.047    21595266.020
      2366.750        1840.815          41.400          43.500



 110544017.475 8  86138281.02046  21035806.242                    21035815.098
      -159.205        -124.058          49.000          38.300



 127857408.440 6  99444653.189 6  23876517.438    23876516.340    23876546.582
     -2387.495       -1856.871          40.100          37.100



 117480610.356 7  91543417.62145  22355803.102                    22355813.711
      1851.332        1442.588          44.300          32.000



 108506036.538 8  84550435.22647  20647926.867                    20647937.246
     -1633.406       -1272.789          51.000          43.100    81027474.838 9
  20647937.691       -1219.755          54.800


 122367349.725 7  95351344.22844  23285700.094                    23285719.391
      3351.682        2611.682          44.300          26.900



 133320390.563 6 103886374.36343  25370086.625                    25370124.188
      -662.687        -516.343          36.600          18.300



 106697898.530 7  83141452.52547  20303858.789                    20303867.383
       934.225         727.960          47.600          42.100



 127370259.202 6  99065776.979 6  23827240.797    23827239.754    23827253.227
     -1589.255       -1236.100          39.100          38.200



 144172562.020 6                  27435162.711
     -1578.712                          40.700                   107661323.656 7
  27435198.590       -1178.881          42.100   110469881.927 6  27435193.617
     -1209.640          41.900   109065613.901 7  27435196.445       -1194.256
        45.800
 146215981.312 6                  27823974.391
      2817.686                          39.000                   109187390.806 6
  27824007.668        2104.073          40.400   112035737.863 6  27824003.871
      2158.967          40.500

 196195659.455 7                  37334787.578
         0.782                          44.200                   146509651.117 7
  37334788.469           0.598          46.200


 200642417.699 7                  38180977.266
        -3.983                          44.300                   149830334.430 7
  38180978.602          -2.933          47.200


 213737864.752 6                  40672938.234
        -1.720                          36.200                   159609432.750 6
  40672940.320          -1.287          39.000


 200903168.067 6                  38230609.750
         1.802                          39.700



 14  3  9  0 23  0.0000000  0 26G32R24G31R14G01G03R13R18R17G16R15G23
                                R04G13G27G11G20G19R05E19E12S33S38S35
                                S20S36
 132093769.074 5 102930348.50642  25136617.469                    25136642.723
      -685.705        -534.292          35.800          17.800



 123119090.221 6  95759353.862 6  23023810.141    23023809.848    23023819.809
     -4049.979       -3149.980          38.100          40.500



 121727294.836 7  94852514.11745  23163951.031                    23163980.156
     -1871.321       -1458.151          46.200          32.600



 111513190.642 6  86732660.917 6  20919544.852    20919544.273    20919557.734
       313.823         244.085          40.600          40.300



 131905491.174 6 102783552.56942  25100797.977                    25100825.176
      3018.750        2352.344          36.400          16.900    98500907.348 6
  25100827.234        2254.327          40.400


 105109320.812 8  81903618.19646  20001560.109                    20001569.570
      -414.153        -322.714          51.200          41.200



 126944678.187 5  98734781.63916  23772660.344    23772659.734    23772673.563
     -1801.200                          34.000          40.900



 103655833.880 7  80621413.367 7  19438669.406    19438666.980    19438675.473
     -1412.598       -1098.693          46.000          44.200



 103657561.553 8  80622734.981 8  19370831.625    19370831.156    19370838.000
     -1229.529        -956.287          48.200          49.500



 117743398.208 7  91748296.22445  22405761.938                    22405770.813
     -1075.432        -837.999          44.800          31.800



 115327595.453 6  89699336.799 7  21581966.766    21581966.492    21581976.668
      2367.426        1841.356          41.400          43.300



 110549083.897 8  86142228.85146  21036769.969                    21036778.844
      -177.968        -138.676          49.600          38.700



 127928931.813 6  99500280.555 6  23889876.516    23889874.949    23889905.594
     -2380.937       -1851.780          38.700          38.400



 117425332.926 7  91500344.33445  22345284.008                    22345294.922
      1834.356        1429.375          46.000          30.800



 108555249.080 8  84588782.64647  20657291.523                    20657302.246
     -1646.992       -1283.368          50.800          42.600    81064224.457 9
  20657302.516       -1229.899          54.900


 122266823.690 7  95273012.70244  23266570.938                    23266589.121
      3350.048        2610.411          46.000          27.800



 133340148.650 6 103901769.25843  25373847.578                    25373884.918
      -654.823        -510.231          39.100          18.300



 106670169.705 8  83119845.71847  20298582.305                    20298590.551
       914.955         712.946          48.300          42.300



 127418058.164 6  99102953.815 6  23836182.922    23836181.055    23836196.055
     -1597.123       -1242.203          38.900          38.700



 144219819.063 6                  27444156.133
     -1572.024                          40.700                   107696612.098 6
  27444191.641       -1173.886          41.700   110506091.032 6  27444187.188
     -1204.509          41.800   109101362.677 7  27444189.766       -1189.197
        45.500
 146131487.486 6                  27807895.430
      2815.271                          38.500                   109124296.183 6
  27807927.563        2102.260          40.700   111970997.114 6  27807923.813
      2157.109          40.000

 196195637.231 7                  37334783.094
         0.818                          44.000                   146509635.454 7
  37334784.430           0.463          45.600


 200642532.951 7                  38180999.922
        -3.841                          44.000                   149830420.714 7
  38181000.461          -2.967          47.200


 213737915.350 5                  40672948.375
        -1.794                          35.900                   159609470.703 6
  40672949.406          -1.359          39.000


 200903116.636 6                  38230600.750
         1.755                          39.800



 211078775.995 4                  40166962.703
         2.061                          29.100



 14  3  9  0 23 30.0000000  0 24G32R24G31R14G01G03R18R17G16R15G23R04
                                G13G27G11G20G19R05E19E12S33S38S35S20
 132114183.825 5                  25140503.484
      -675.594                          34.100



 123240689.787 6  95853931.357 6  23046551.602    23046550.957    23046559.285
     -4056.418       -3154.970          40.200          40.300



 121783599.984 7  94896387.77845  23174666.344                    23174695.875
     -1882.007       -1466.475          45.600          32.400



 111503945.244 6  86725469.968 6  20917812.234    20917809.895    20917822.773
       302.863         235.565          41.300          39.500



 131814821.910 6 102712899.53643  25083544.305                    25083572.684
      3025.653        2357.725          36.600          18.300    98433197.829 6
  25083575.211        2259.476          41.600


 105121990.588 8  81913490.76446  20003970.633                    20003980.617
      -429.967        -335.039          51.000          40.900



 103698595.623 7  80654672.510 7  19446688.875    19446686.449    19446694.957
     -1437.371       -1117.966          45.700          43.900



 103694830.621 8  80651722.056 8  19377795.781    19377795.664    19377802.898
     -1254.191        -975.490          48.700          49.500



 117775626.631 7  91773409.26745  22411894.695                    22411903.707
     -1073.192        -836.253          45.600          32.300



 115256561.007 6  89644087.884 7  21568674.258    21568672.813    21568683.480
      2368.143        1841.877          41.500          43.700



 110554712.238 8  86146614.52946  21037841.102                    21037849.531
      -196.621        -153.213          49.100          39.200



 128000257.375 6  99555754.040 6  23903196.828    23903196.082    23903226.781
     -2374.302       -1846.577          40.500          37.500



 117370564.328 7  91457667.57845  22334861.969                    22334872.898
      1817.437        1416.181          45.700          32.400



 108604867.408 8  84627446.27747  20666733.625                    20666744.496
     -1660.430       -1293.837          51.200          42.800    81101277.094 9
  20666745.000       -1239.930          54.900


 122166347.295 7  95194719.83244  23247450.961                    23247468.547
      3348.404        2609.138          46.200          29.300



 133359669.315 6 103916979.19643  25377563.148                    25377600.691
      -646.888        -504.038          41.100          19.900



 106643018.815 7  83098689.24847  20293415.789                    20293424.055
       895.744         697.978          47.900          43.000



 127466090.130 6  99140311.887 6  23845167.125    23845165.258    23845181.098
     -1604.813       -1248.171          37.400          38.500



 144266874.208 6                  27453111.227
     -1565.226                          40.800                   107731749.779 6
  27453146.117       -1168.807          41.500   110542145.445 6  27453142.082
     -1199.298          41.200   109136958.718 7  27453144.781       -1184.049
        45.100
 146047067.358 6                  27791829.625
      2812.814                          39.700                   109061256.556 6
  27791861.879        2100.430          40.600   111906312.814 6  27791857.895
      2155.225          40.000

 196195617.932 7                  37334781.109
         0.589                          44.300                   146509620.327 7
  37334780.641           0.548          45.700


 200642650.647 7                  38181021.391
        -3.896                          45.100                   149830508.508 7
  38181022.422          -2.873          47.400


 213737965.651 6                  40672956.797
        -1.667                          36.900                   159609508.917 6
  40672959.141          -1.254          38.700


 200903063.769 6                  38230583.328
         1.849                          39.000



 14  3  9  0 24  0.0000000  0 26G32R24G31R14G01G03G07R13R18R17G16R15
                                G23R04G13G27G11G20G19R05E19E12S33S38
                                S35S20
 132134298.194 5 102961941.05752  25144331.664                    25144357.316
      -665.565                          33.700          13.900



 123362482.892 6  95948659.307 7  23069326.992    23069325.758    23069336.047
     -4062.842       -3159.961          38.800          42.400



 121840228.684 7  94940513.57045  23185442.078                    23185472.285
     -1892.826       -1474.917          45.200          31.000



 111495033.463 6  86718538.513 6  20916138.563    20916137.281    20916150.887
       291.716         226.867          40.200          40.100



 131723949.669 6 102642088.24443  25066253.828                    25066282.559
      3032.339        2362.906          36.800          18.300    98365336.635 6
  25066284.969        2264.479          41.300


 105135137.102 8  81923734.81646  20006472.656                    20006482.684
      -445.857        -347.418          50.600          41.200



 133883177.66116                  25477122.859
                                        40.500



 127053268.87915                  23793033.484    23793031.469
     -1824.627                          30.500



 103742102.946 7  80688511.530 7  19454847.625    19454845.199    19454853.621
     -1462.189       -1137.258          45.900          44.800



 103732842.564 8  80681286.895 8  19384899.000    19384898.766    19384906.250
     -1278.964        -994.739          48.800          49.600



 117807790.640 7  91798472.14345  22418015.398                    22418024.922
     -1071.078        -834.606          44.900          32.900



 115185511.063 7  89588826.866 7  21555378.813    21555377.016    21555387.797
      2368.574        1842.228          42.100          44.200



 110560903.348 8  86151438.72446  21039019.422                    21039027.723
      -215.400        -167.842          48.300          38.900



 128071383.652 6  99611072.513 6  23916480.750    23916479.301    23916510.215
     -2367.584       -1841.388          39.200          37.700



 117316307.761 7  91415389.77745  22324537.234                    22324548.293
      1800.323        1402.845          45.500          32.000



 108654890.959 8  84666425.66147  20676252.828                    20676263.469
     -1673.933       -1304.368          51.200          42.600    81138632.331 9
  20676263.973       -1250.015          54.900


 122065925.055 7  95116469.15944  23228340.594                    23228357.910
      3346.540        2607.679          45.700          28.900



 133378952.780 6 103932004.33943  25381233.617                    25381272.020
      -638.889        -497.822          41.500          21.500



 106616448.007 7  83077984.78247  20288359.016                    20288367.938
       876.382         682.894          46.700          42.100



 127514353.562 6  99177849.997 6  23854195.500    23854194.926    23854209.547
     -1612.467       -1254.136          37.400          37.900



 144313727.998 6                  27462027.555
     -1558.480                          39.800                   107766737.096 6
  27462063.500       -1163.766          41.000   110578045.577 6  27462058.855
     -1194.127          41.100   109172402.447 7  27462061.520       -1178.947
        45.100
 145962724.227 6                  27775778.922
      2810.205                          37.900                   108998274.434 6
  27775810.859        2098.477          39.900   111841687.483 6  27775806.359
      2153.233          39.700

 196195601.837 7                  37334777.484
         0.517                          44.400                   146509609.158 7
  37334778.141           0.298          45.300


 200642768.870 7                  38181044.641
        -3.736                          43.700                   149830596.974 7
  38181045.086          -2.781          47.100


 213738018.164 6                  40672967.578
        -1.782                          36.800                   159609547.952 6
  40672968.680          -1.305          38.900


 200903012.745 6                  38230577.844
         1.767                          40.400



 14  3  9  0 24 30.0000000  0 25G32R24G31R14G01G03G07R18R17G16R15G23
                                R04G13G27G11G20G19R05E19E12S33S38S35
                                S20
 132154108.88815                  25148099.305
      -655.548                          30.500



 123484463.706 6  96043533.180 6  23092138.211    23092138.035    23092147.574
     -4069.019       -3164.760          38.100          41.900



 121897178.939 7  94984889.90745  23196279.680                    23196309.406
     -1903.525       -1483.256          45.100          31.500



 111486456.226 6  86711867.276 6  20914531.328    20914528.988    20914541.859
       280.500         218.141          41.300          39.800



 131632874.431 6 102571118.79543  25048923.836                    25048953.203
      3039.070        2368.152          37.400          18.600    98297323.863 7
  25048956.496        2269.504          42.600


 105148756.836 8  81934347.60946  20009064.438                    20009074.059
      -461.621        -359.705          50.300          40.000



 133789400.945 5 104251524.97942  25459275.977                    25459287.625
      3128.386        2437.755          34.400          17.800



 103786350.796 7  80722926.541 7  19463144.781    19463143.176    19463151.629
     -1486.859       -1156.445          45.800          44.000



 103771592.951 8  80711426.109 8  19392140.727    19392140.492    19392148.113
     -1303.575       -1013.884          48.300          49.400



 117839888.115 7  91823483.15745  22424123.219                    22424132.961
     -1068.841        -832.867          44.500          32.800



 115114446.096 6  89533554.156 7  21542078.461    21542078.656    21542089.016
      2369.016        1842.584          41.800          43.600



 110567654.379 8  86156699.23546  21040303.695                    21040312.516
      -234.049        -182.373          49.000          38.300



 128142306.176 6  99666232.515 6  23929726.211    23929724.762    23929757.184
     -2360.760       -1836.077          38.500          36.400



 117262563.189 7  91373510.92745  22314309.773                    22314320.676
      1783.218        1389.514          45.400          31.900



 108705315.427 8  84705717.44247  20685848.250                    20685859.117
     -1687.262       -1314.749          50.500          42.100    81176286.953 9
  20685859.156       -1259.968          54.700


 121965557.867 7  95038261.39644  23209240.609                    23209258.422
      3344.636        2606.187          45.300          28.200



 133397996.475 6 103946842.74342  25384858.422                    25384896.578
      -630.937        -491.603          37.300          15.600



 106590455.416 8  83057730.88847  20283412.727                    20283421.445
       857.085         667.855          48.600          43.400



 127562842.501 6  99215563.567 6  23863268.352    23863268.246    23863281.910
     -1619.899       -1259.959          37.500          37.200



 144360377.412 6                  27470905.047
     -1551.685                          40.200                   107801571.826 6
  27470941.152       -1158.692          40.400   110613789.140 6  27470936.980
     -1188.927          40.500   109207691.588 7  27470939.496       -1173.813
        44.500
 145878457.946 6                  27759742.227
      2807.596                          37.900                   108935349.672 6
  27759774.215        2096.539          39.800   111777121.050 6  27759770.512
      2151.233          39.500

 196195587.281 7                  37334776.281
         0.353                          43.100                   146509597.993 7
  37334774.852           0.334          45.300


 200642885.980 7                  38181066.172
        -4.014                          44.900                   149830684.828 7
  38181067.930          -2.997          47.000


 213738069.740 5                  40672976.813
        -1.693                          35.900                   159609586.037 6
  40672978.922          -1.223          38.900


 200902960.202 6                  38230562.797
         1.804                          40.700



 14  3  9  0 25  0.0000000  0 26G32R24G31R14G01G03G07R13R18R17G16R15
                                G23R04G13G27G11G20G19R05E19E12S33S38
                                S35S20
 132173616.376 5 102992565.10342  25151812.352                    25151836.461
      -645.366        -502.916          35.200          16.300



 123606629.172 6  96138550.848 6  23114984.109    23114983.465    23114991.559
     -4075.082       -3169.512          40.800          39.900



 121954451.635 7  95029517.56445  23207178.805                    23207208.473
     -1914.257       -1491.612          45.100          33.600



 111478217.175 6  86705459.039 6  20912984.039    20912982.992    20912995.844
       269.184         209.359          40.800          39.900



 131541599.208 6 102499993.46342  25031556.586                    25031585.129
      3045.695        2373.360          37.500          17.800    98229161.706 6
  25031589.180        2274.458          41.400


 105162849.475 8  81945328.89446  20011745.852                    20011755.582
      -477.310        -371.934          50.500          40.600



 133695467.498 6 104178330.31442  25441400.633                    25441412.625
      3133.674        2441.785          37.300          17.800



 127163674.144 5  98905135.02115  23813673.250    23813671.703    23813684.508
     -1848.405                          33.000          33.400



 103831337.410 7  80757916.121 7  19471581.961    19471580.355    19471588.641
     -1511.385       -1175.507          45.800          44.400



 103811080.374 8  80742138.563 8  19399519.750    19399519.281    19399526.957
     -1328.073       -1032.946          48.300          49.900



 117871919.262 7  91848442.49845  22430218.273                    22430228.270
     -1066.598        -831.115          44.900          32.200



 115043369.061 6  89478272.045 7  21528777.586    21528777.313    21528787.648
      2369.406        1842.902          41.500          43.700



 110574965.454 8  86162396.14646  21041694.891                    21041704.035
      -252.666        -196.881          49.400          38.700



 128213022.251 6  99721231.964 6  23942934.602    23942932.328    23942964.637
     -2353.797       -1830.707          36.800          36.800



 117209332.883 7  91332032.81445  22304181.063                    22304191.211
      1766.089        1376.166          46.100          31.800



 108756139.358 8  84745320.49847  20695519.867                    20695531.117
     -1700.508       -1325.070          50.500          43.000    81214239.884 9
  20695531.215       -1269.865          54.800


 121865249.062 7  94960099.13244  23190152.094                    23190170.098
      3342.685        2604.674          43.900          29.400



 133416799.331 5 103961493.54242  25388435.688                    25388474.598
      -622.895        -485.344          34.500          14.800



 106565042.176 7  83037928.41847  20278576.930                    20278585.137
       837.792         652.819          47.900          42.600



 127611554.287 6  99253450.381 6  23872380.945    23872380.840    23872394.773
     -1627.243       -1265.625          39.200          38.900



 144406822.167 6                  27479744.336
     -1544.843                          41.400                   107836253.716 6
  27479779.773       -1153.590          40.700   110649375.873 6  27479775.602
     -1183.691          41.000   109242825.904 7  27479778.160       -1168.637
        44.800
 145794270.946 6                  27743721.813
      2804.960                          38.100                   108872484.126 6
  27743752.367        2094.570          39.500   111712615.387 6  27743749.129
      2149.212          40.000

 196195577.713 7                  37334773.250
         0.420                          44.400                   146509591.159 7
  37334772.875           0.296          45.300


 200643005.205 7                  38181088.156
        -3.893                          44.500                   149830773.705 7
  38181089.844          -2.900          46.800


 213738122.603 6                  40672987.000
        -2.058                          36.000                   159609626.049 6
  40672988.734          -1.685          39.200


 200902907.650 6                  38230558.891
         1.866                          39.600



 14  3  9  0 25 30.0000000  0 25G32R24G31R14G01G03G07R18R17G16R15G23
                                R04G13G27G11G20G19R05E19E12S33S38S35
                                S20
 132192818.738 5 103007528.28742  25155466.063                    25155489.563
      -635.219        -495.003          34.500          15.600



 123728974.294 6  96233708.182 7  23137860.406    23137859.289    23137870.973
     -4081.056       -3174.121          36.700          42.300



 122012045.257 7  95074395.32045  23218138.883                    23218169.082
     -1924.963       -1499.957          44.700          31.600



 111470317.770 6  86699314.983 6  20911503.742    20911501.523    20911514.438
       257.777         200.517          40.900          39.300



 131450124.804 6 102428712.90243  25014150.539                    25014179.762
      3052.318        2378.486          38.700          19.000    98160850.743 7
  25014183.289        2279.394          42.900


 105177412.332 8  81956676.58846  20014517.188                    20014527.078
      -493.023        -384.180          51.000          40.500



 133601377.114 6 104105013.14143  25423496.906                    25423507.699
      3138.851        2445.877          40.400          19.900



 103877058.751 7  80793477.178 7  19480154.766    19480153.984    19480162.109
     -1535.861       -1194.566          45.700          44.100



 103851301.388 7  80773421.580 8  19407036.594    19407035.184    19407042.719
     -1352.509       -1051.947          47.900          48.700



 117903883.078 7  91873349.37945  22436301.016                    22436310.492
     -1064.380        -829.385          45.300          32.600



 114972282.748 6  89422982.770 7  21515474.234    21515473.961    21515484.520
      2369.638        1843.053          41.800          43.800



 110582834.445 8  86168527.78846  21043192.547                    21043201.918
      -271.287        -211.394          49.400          38.800



 128283528.150 6  99776067.989 6  23956101.961    23956100.160    23956133.047
     -2346.844       -1825.230          37.500          36.000



 117156617.467 7  91290955.90745  22294149.266                    22294159.734
      1748.845        1362.736          45.100          31.500



 108807359.185 8  84785232.04247  20705266.445                    20705277.223
     -1713.696       -1335.350          50.700          43.000    81252488.444 9
  20705277.551       -1279.709          54.800


 121765000.583 7  94881983.87244  23171075.797                    23171093.246
      3340.596        2603.038          44.700          29.300



 133435359.072 5 103975954.98142  25391968.977                    25392007.086
      -614.759        -478.951          35.000          15.600



 106540207.709 7  83018576.95147  20273851.000                    20273859.148
       818.486         637.778          47.800          42.900



 127660484.463 6  99291507.095 6  23881533.906    23881533.098    23881547.348
     -1634.505       -1271.266          38.800          39.200



 144453059.858 6                  27488543.422
     -1537.929                          41.300                   107870781.005 6
  27488580.211       -1148.422          40.900   110684803.973 6  27488574.723
     -1178.385          39.800   109277803.602 7  27488577.707       -1163.412
        44.300
 145710163.743 6                  27727715.258
      2802.225                          38.900                   108809678.146 6
  27727746.457        2092.526          39.700   111648170.845 6  27727741.906
      2147.113          40.200

 196195570.249 7                  37334771.563
         0.209                          44.000                   146509585.662 7
  37334772.055           0.195          45.600


 200643123.267 7                  38181112.469
        -3.962                          45.100                   149830861.994 7
  38181112.844          -2.979          46.900


 213738176.696 6                  40672997.141
        -1.889                          36.600                   159609666.803 6
  40672999.531          -1.421          38.900


 200902853.739 6                  38230543.938
         1.806                          40.000



 14  3  9  0 26  0.0000000  0 25G32R24G31R14G01G03G07R18R17G16R15G23
                                R04G13G27G11G20G19R05E19E12S33S38S35
                                S20
 132211714.688 4 103022252.57842  25159060.313                    25159085.871
      -624.953        -486.956          29.400          13.900



 123851494.497 6  96329001.594 7  23160775.656    23160775.012    23160783.488
     -4086.765       -3178.585          40.200          42.800



 122069959.139 7  95119522.56745  23229159.547                    23229189.902
     -1935.632       -1508.258          44.600          30.500



 111462760.317 6  86693436.893 6  20910084.703    20910083.539    20910096.387
       246.389         191.645          41.400          39.600



 131358452.812 6 102357278.35243  24996707.602                    24996738.051
      3058.899        2383.624          37.900          19.300    98092392.246 7
  24996741.105        2284.316          42.600


 105192443.300 8  81968389.04046  20017377.477                    20017387.180
      -508.545        -396.264          51.000          40.700



 133507130.597 6 104031574.39843  25405562.445                    25405573.238
      3144.042        2449.909          41.800          21.100



 103923512.145 7  80829607.619 7  19488867.000    19488865.512    19488873.602
     -1560.200       -1213.509          46.500          44.000



 103892252.841 8  80805272.718 8  19414689.633    19414688.578    19414696.230
     -1376.805       -1070.842          48.100          48.800



 117935778.405 7  91898202.87845  22442370.375                    22442380.164
     -1062.062        -827.582          45.500          32.800



 114901189.728 7  89367688.253 7  21502170.328    21502170.406    21502181.094
      2369.849        1843.215          42.000          44.000



 110591259.370 8  86175092.62246  21044795.859                    21044805.293
      -289.779        -225.806          49.500          38.800



 128353819.981 6  99830737.607 6  23969228.242    23969227.965    23969261.477
     -2339.585       -1819.619          37.600          37.200



 117104417.812 7  91250280.89745  22284215.898                    22284226.555
      1731.658        1349.346          46.300          32.400



 108858971.964 8  84825449.77647  20715088.227                    20715098.832
     -1726.727       -1345.503          50.800          42.700    81291030.433 9
  20715099.043       -1289.437          54.900


 121664814.549 7  94803917.25344  23152010.664                    23152027.535
      3338.494        2601.417          45.300          28.900



 133453673.917 5 103990225.79542  25395454.484                    25395493.125
      -606.536        -472.633          34.800          15.600



 106515951.057 7  82999675.73047  20269235.023                    20269243.746
       799.233         622.775          47.900          43.100



 127709628.409 6  99329730.100 6  23890726.813    23890726.121    23890740.840
     -1641.498       -1276.728          36.400          38.500



 144499088.950 6                  27497302.844
     -1530.904                          41.300                   107905152.525 6
  27497339.746       -1143.183          41.200   110720072.241 6  27497334.398
     -1173.007          40.100   109312623.494 7  27497337.773       -1158.091
        44.400
 145626137.375 6                  27711725.102
      2799.542                          39.000                   108746932.550 6
  27711755.563        2090.517          40.100   111583788.219 6  27711751.344
      2145.063          39.900

 196195565.052 7                  37334770.172
         0.136                          44.400                   146509581.476 7
  37334769.727           0.109          45.600


 200643242.362 7                  38181134.141
        -4.070                          45.100                   149830951.022 7
  38181135.500          -3.050          46.900


 213738228.646 6                  40673006.500
        -1.743                          36.100                   159609705.197 6
  40673009.406          -1.267          38.600


 200902799.658 6                  38230532.359
         1.709                          39.700



 14  3  9  0 26 30.0000000  0 25G32R24G31R14G01G03G07R18R17G16R15G23
                                R04G13G27G11G20G19R05E19E12S33S38S35
                                S20
 132230304.055 5 103036738.06742  25162597.430                    25162622.707
      -614.727        -478.987          35.000          16.900



 123974185.658 6  96424428.086 6  23183719.523    23183718.289    23183726.797
     -4092.485       -3183.040          41.100          39.600



 122128192.993 7  95164899.11645  23240241.609                    23240272.297
     -1946.346       -1516.608          44.700          31.500



 111455547.974 6  86687827.210 6  20908731.789    20908730.508    20908743.516
       234.783         182.613          41.000          39.600



 131266585.410 6 102285691.48143  24979227.133                    24979257.207
      3065.324        2388.629          38.400          20.400    98023787.785 7
  24979261.668        2289.114          43.400


 105207941.073 8  81980465.24146  20020326.742                    20020336.141
      -524.145        -408.427          51.000          40.800



 133412729.350 5 103958015.07843  25387597.563                    25387609.332
      3149.122        2453.858          34.500          18.600



 103970693.503 7  80866304.228 7  19497715.242    19497713.402    19497721.543
     -1584.522       -1232.421          46.000          43.400



 103933932.384 8  80837690.148 8  19422477.859    19422476.688    19422484.258
     -1401.057       -1089.703          48.200          49.600



 117967605.298 7  91923003.04845  22448427.445                    22448436.332
     -1059.856        -825.858          46.500          33.400



 114830091.259 7  89312389.489 7  21488865.703    21488865.664    21488876.176
      2369.964        1843.310          42.500          44.200



 110600239.539 8  86182090.11646  21046504.984                    21046514.254
      -308.343        -240.264          49.500          38.900



 128423895.313 5  99885238.977 5  23982315.102    23982315.293    23982349.316
     -2332.407       -1814.061          35.100          34.800



 117052735.600 7  91210009.07845  22274381.148                    22274391.684
      1714.331        1335.845          44.900          32.100



 108910975.536 8  84865972.03447  20724984.078                    20724995.063
     -1739.778       -1355.669          51.100          42.800    81329864.264 9
  20724995.219       -1299.190          54.600


 121564693.784 7  94725901.48344  23132957.203                    23132975.113
      3336.222        2599.643          44.700          29.100



 133471742.988 6 104004305.10042  25398892.391                    25398931.758
      -598.347        -466.224          37.900          17.400



 106492273.087 7  82981225.42347  20264728.891                    20264737.410
       779.893         607.713          47.300          42.900



 127758982.613 6  99368116.589 6  23899959.563    23899959.926    23899973.629
     -1648.534       -1282.181          37.800          39.100



 144544908.381 6                  27506022.438
     -1523.967                          41.900                   107939367.491 6
  27506059.672       -1137.998          41.300   110755179.876 6  27506053.672
     -1167.692          39.300   109347284.791 7  27506057.480       -1152.838
        44.400
 145542193.591 6                  27695750.297
      2796.714                          39.300                   108684248.586 6
  27695779.340        2088.415          39.700   111519468.892 6  27695776.527
      2142.899          41.200

 196195559.465 7                  37334768.031
         0.303                          43.900                   146509577.968 7
  37334769.508           0.317          45.600


 200643359.958 7                  38181156.344
        -3.843                          44.400                   149831038.921 7
  38181157.328          -2.955          46.700


 213738280.464 6                  40673017.609
        -1.842                          36.200                   159609744.032 6
  40673017.445          -1.402          38.600


 200902743.623 6                  38230527.563
         1.970                          39.100



 14  3  9  0 27  0.0000000  0 25G32R24G31R14G01G03G07R18R17G16R15G23
                                R04G13G27G11G20G19R05E19E12S33S38S35
                                S20
 132248586.256 5 103050984.19042  25166077.703                    25166101.531
      -604.463        -471.046          33.700          16.300



 124097044.435 6  96519984.943 6  23206694.055    23206692.234    23206701.793
     -4097.986       -3187.286          37.200          40.000



 122186746.882 7  95210525.10345  23251384.414                    23251415.465
     -1956.954       -1524.875          44.900          32.100



 111448683.204 6  86682487.868 6  20907444.297    20907442.898    20907455.695
       223.176         173.595          40.600          39.800



 131174524.682 6 102213953.96143  24961709.664                    24961740.129
      3071.780        2393.658          37.200          18.300    97955038.932 7
  24961744.648        2293.938          43.100


 105223904.151 8  81992904.02046  20023364.391                    20023373.621
      -539.579        -420.451          51.000          40.300



 133318174.905 6 103884336.50043  25369604.602                    25369616.465
      3154.274        2457.878          38.000          20.900



 104018600.835 7  80903565.502 7  19506699.195    19506697.238    19506705.582
     -1608.557       -1251.111          46.200          44.100



 103976337.627 7  80870672.012 8  19430402.570    19430401.043    19430408.285
     -1425.194       -1108.487          47.800          49.000



 117999363.613 7  91947749.78245  22454470.484                    22454479.645
     -1057.507        -824.027          45.400          32.700



 114758991.467 7  89257089.705 7  21475560.289    21475559.664    21475570.102
      2369.964        1843.321          42.300          43.900



 110609774.232 8  86189519.71746  21048319.313                    21048328.957
      -326.744        -254.607          49.200          38.400



 128493751.148 6  99939569.755 6  23995363.266    23995362.168    23995396.133
     -2324.901       -1808.211          37.900          38.200



 117001572.336 7  91170141.63245  22264644.484                    22264655.617
      1697.069        1322.389          46.400          31.300



 108963367.494 8  84906796.92347  20734954.086                    20734964.941
     -1752.636       -1365.690          50.500          43.000    81368988.113 9
  20734965.152       -1308.783          54.600


 121464640.850 7  94647938.55544  23113918.164                    23113935.246
      3333.952        2597.873          43.300          28.900



 133489564.691 6 104018191.83742  25402286.188                    25402324.438
      -590.046        -459.810          36.200          15.600



 106469173.464 8  82963225.78347  20260333.742                    20260341.402
       760.659         592.716          48.800          42.800



 127808543.442 6  99406663.863 6  23909232.492    23909231.918    23909245.035
     -1655.324       -1287.495          38.500          37.900



 144590517.064 6                  27514702.242
     -1516.870                          41.900                   107973425.082 6
  27514739.297       -1132.698          40.900   110790126.033 6  27514734.324
     -1162.257          39.900   109381786.665 7  27514737.313       -1147.474
        44.500
 145458334.009 6                  27679791.109
      2793.930                          39.900                   108621627.481 6
  27679821.242        2086.333          41.400   111455214.049 6  27679816.930
      2140.763          40.700

 196195557.143 7                  37334769.641
        -0.098                          44.300                   146509575.596 7
  37334768.164          -0.165          45.800


 200643478.802 7                  38181179.328
        -3.972                          43.700                   149831127.257 7
  38181179.727          -2.861          47.100


 213738332.890 5                  40673027.734
        -1.747                          35.500                   159609783.239 6
  40673028.555          -1.255          38.700


 200902686.959 6                  38230519.984
         1.798                          38.800



 14  3  9  0 27 30.0000000  0 25G32R24G31R14G01G03G07R18R17G16R15G23
                                R04G13G27G11G20G19R05E19E12S33S38S35
                                S20
 132266560.974 5 103064990.65042  25169498.617                    25169522.504
      -594.182        -462.997          35.300          15.600



 124220066.872 6  96615669.023 7  23229700.602    23229699.957    23229708.852
     -4103.335       -3191.474          40.600          42.400



 122245620.677 7  95256400.41745  23262588.484                    23262619.621
     -1967.600       -1533.192          45.700          33.400



 111442169.053 6  86677421.235 6  20906222.234    20906221.305    20906234.316
       211.507         164.504          40.100          39.600



 131082272.950 6 102142067.62743  24944156.742                    24944187.047
      3078.134        2398.598          38.400          18.600    97886147.447 7
  24944191.922        2298.675          42.500


 105240331.166 8  82005704.29446  20026490.406                    20026499.777
      -555.008        -432.473          50.700          40.600



 133223469.151 6 103810540.04042  25351582.469                    25351593.859
      3159.283        2461.780          37.200          16.900



 104067232.969 7  80941390.482 7  19515818.914    19515817.426    19515825.859
     -1632.678       -1269.859          46.200          44.000



 104019466.233 8  80904216.507 8  19438461.844    19438461.141    19438468.406
     -1449.245       -1127.197          48.400          49.700



 118031052.662 7  91972442.53745  22460500.734                    22460509.797
     -1055.193        -822.226          46.400          33.100



 114687892.682 6  89201790.723 7  21462254.406    21462254.484    21462265.082
      2369.962        1843.292          41.200          43.400



 110619862.351 8  86197380.54946  21050238.609                    21050247.941
      -345.175        -268.969          48.800          38.800



 128563384.326 6  99993727.591 6  24008367.563    24008365.996    24008400.938
     -2317.458       -1802.466          38.800          36.500



 116950929.660 7  91130679.84845  22255007.875                    22255018.848
      1679.696        1308.853          47.000          32.300



 109016145.633 8  84947922.73947  20744997.289                    20745008.426
     -1765.449       -1375.677          50.200          42.600    81408400.349 9
  20745008.758       -1318.348          54.500


 121364658.983 7  94570030.98944  23094891.633                    23094908.789
      3331.561        2596.004          43.300          28.500



 133507137.448 6 104031884.70443  25405629.383                    25405668.824
      -581.737        -453.302          37.500          18.300



 106446652.487 7  82945677.03047  20256047.492                    20256056.332
       741.393         577.708          47.900          43.100



 127858307.570 6  99445369.204 6  23918541.023    23918541.504    23918555.313
     -1662.045       -1292.719          38.400          38.100



 144635914.044 6                  27523341.328
     -1509.790                          41.800                   108007324.570 6
  27523378.516       -1127.405          41.000   110824909.944 6  27523373.215
     -1156.826          40.000   109416128.368 7  27523376.777       -1142.119
        44.400
 145374560.469 6                  27663849.414
      2791.040                          40.400                   108559070.605 6
  27663878.113        2084.175          40.200   111391025.104 6  27663873.941
      2138.550          40.300

 196195557.465 7                  37334768.031
         0.075                          43.000                   146509576.036 7
  37334767.891           0.047          45.600


 200643596.924 7                  38181202.469
        -3.942                          43.800                   149831215.696 7
  38181203.148          -2.994          47.000


 213738383.436 6                  40673037.578
        -1.668                          36.400                   159609821.288 6
  40673038.000          -1.336          38.700


 200902629.331 6                  38230500.188
         2.026                          38.600



 14  3  9  0 28  0.0000000  0 25G32R24G31R14G01G03G07R18R17G16R15G23
                                R04G13G27G11G20G19R05E19E12S33S38S35
                                S20
 132284227.158 5 103078756.93542  25172859.297                    25172883.910
      -583.961        -455.051          35.500          14.800



 124343248.406 6  96711476.883 7  23252735.617    23252735.676    23252744.883
     -4108.583       -3195.559          39.700          42.100



 122304813.437 7  95302524.29445  23273851.984                    23273882.563
     -1978.245       -1541.471          43.900          31.000



 111436007.526 6  86672628.857 6  20905066.859    20905064.758    20905077.980
       199.640         155.289          40.600          39.300



 130989831.551 6 102070033.48843  24926567.773                    24926598.496
      3084.400        2403.477          39.100          20.600    97817114.327 7
  24926602.844        2303.353          42.700


 105257219.256 8  82018863.85946  20029703.734                    20029713.430
      -570.368        -444.444          50.200          40.200



 133128612.704 5 103736626.05042  25333531.609                    25333542.098
      3164.291        2465.675          35.100          16.900



 104116584.527 7  80979775.032 7  19525074.039    19525072.551    19525080.523
     -1656.623       -1288.476          45.900          44.100



 104063314.850 8  80938320.986 8  19446656.211    19446655.273    19446662.449
     -1473.224       -1145.839          48.500          49.100



 118062671.868 7  91997080.86645  22466517.641                    22466526.645
     -1052.880        -820.430          46.000          32.500



 114616797.046 6  89146494.161 7  21448950.406    21448950.133    21448960.105
      2369.760        1843.144          41.700          44.100



 110630502.028 8  86205671.16546  21052263.695                    21052272.945
      -363.559        -283.288          50.000          38.300



 128632791.559 6 100047709.913 6  24021328.578    24021326.895    24021362.391
     -2309.975       -1796.561          37.000          36.500



 116900808.437 7  91091624.37845  22245470.211                    22245481.016
      1662.274        1295.281          46.600          32.700



 109069306.791 8  84989347.00847  20755113.930                    20755124.730
     -1778.209       -1385.622          50.400          42.500    81448098.608 9
  20755124.824       -1327.886          54.600


 121264750.203 7  94492180.38144  23075879.266                    23075896.828
      3329.065        2594.062          43.000          28.700



 133524459.905 6 104045382.61242  25408926.828                    25408964.984
      -573.415        -446.819          39.100          17.400



 106424709.850 8  82928578.92947  20251872.000                    20251880.566
       722.063         562.643          49.200          42.600



 127908270.195 6  99484228.985 6  23927888.250    23927887.559    23927900.051
     -1668.598       -1297.803          40.600          36.400



 144681097.489 7                  27531940.586
     -1502.707                          42.600                   108041064.620 6
  27531977.043       -1122.122          40.700   110859530.278 6  27531972.773
     -1151.399          40.200   109450308.556 7  27531975.742       -1136.761
        44.400
 145290873.833 6                  27647923.000
      2788.115                          39.600                   108496578.590 6
  27647951.883        2081.997          40.300   111326902.713 6  27647947.336
      2136.309          40.000

 196195558.680 7                  37334769.625
        -0.161                          44.100                   146509576.842 7
  37334769.578          -0.132          45.100


 200643715.301 7                  38181224.172
        -4.126                          43.800                   149831304.635 7
  38181224.617          -3.061          46.400


 213738435.495 5                  40673045.953
        -1.725                          35.800                   159609860.215 6
  40673047.898          -1.283          38.900


 200902571.067 6                  38230490.703
         1.991                          39.200



 14  3  9  0 28 30.0000000  0 25G32R24G31R14G01G03G07R18R17G16R15G23
                                R04G13G27G11G20G19R05E19E12S33S38S35
                                S20
 132301584.502 5 103092282.65742  25176161.617                    25176184.934
      -573.609        -447.037          34.200          13.900



 124466585.650 6  96807405.869 6  23275799.789    23275798.555    23275807.570
     -4113.737       -3199.565          38.400          39.100



 122364325.449 7  95348896.90745  23285177.203                    23285208.336
     -1988.837       -1549.726          44.100          30.200



 111430201.814 6  86668113.211 6  20903977.445    20903976.281    20903989.141
       187.759         146.029          40.900          39.800



 130897203.049 6 101997853.54443  24908942.242                    24908974.473
      3090.592        2408.324          39.200          20.600    97747941.473 7
  24908977.590        2307.989          42.300


 105274567.860 8  82032382.26546  20033005.383                    20033014.977
      -585.683        -456.380          50.300          40.300



 133033607.286 5 103662595.99852  25315451.336                    25315464.984
      3169.242                          34.300          17.800



 104166654.863 7  81018718.642 7  19534464.391    19534461.730    19534470.105
     -1680.527       -1307.088          46.700          44.600



 104107881.243 7  80972983.739 8  19454984.594    19454984.125    19454991.180
     -1497.073       -1164.403          47.800          49.300



 118094221.485 7  92021664.96645  22472521.664                    22472530.734
     -1050.540        -818.607          46.200          32.900



 114545708.246 7  89091202.942 7  21435647.102    21435646.594    21435657.027
      2369.490        1842.928          42.000          43.800



 110641692.712 8  86214391.14046  21054393.313                    21054402.359
      -381.893        -297.578          49.800          38.900



 128701970.795 6 100101515.287 6  24034248.063    24034247.199    24034282.793
     -2302.283       -1790.668          37.800          36.600



 116851210.416 7  91052976.60445  22236032.461                    22236043.230
      1644.810        1281.667          47.700          32.500



 109122848.999 8  85031068.20147  20765302.367                    20765313.074
     -1790.849       -1395.473          50.300          42.400    81488081.413 9
  20765313.348       -1337.320          54.700


 121164917.735 7  94414389.25644  23056881.266                    23056898.348
      3326.470        2592.039          42.600          28.400



 133541530.738 6 104058684.65942  25412173.563                    25412213.410
      -564.993        -440.253          37.000          16.900



 106403345.849 8  82911931.71147  20247806.469                    20247814.738
       702.800         547.631          48.500          43.200



 127958428.306 6  99523240.787 6  23937270.875    23937270.301    23937283.305
     -1675.065       -1302.828          39.800          37.600



 144726066.746 6                  27540498.063
     -1495.523                          41.700                   108074644.750 6
  27540534.867       -1116.762          40.700   110893986.502 6  27540530.410
     -1145.895          39.400   109484326.730 7  27540533.734       -1131.324
        43.800
 145207276.252 6                  27632014.148
      2785.132                          38.900                   108434153.048 6
  27632043.105        2079.768          40.400   111262848.523 6  27632038.324
      2134.021          40.600

 196195561.326 7                  37334770.688
        -0.081                          43.800                   146509578.984 7
  37334770.500          -0.010          45.200


 200643832.970 7                  38181246.813
        -4.172                          43.900                   149831391.773 7
  38181247.094          -3.211          47.100


 213738487.503 6                  40673056.359
        -1.832                          37.100                   159609899.096 6
  40673057.555          -1.410          38.800


 200902509.337 6                  38230482.078
         2.177                          39.200



 14  3  9  0 29  0.0000000  0 25G32R24G31R14G01G03G07R18R17G16R15G23
                                R04G13G27G11G20G19R05E19E12S33S38S35
                                S20
 132318632.419 5 103105567.16342  25179405.563                    25179429.910
      -563.252        -438.976          33.700          15.600



 124590074.506 6  96903452.834 7  23298894.359    23298892.656    23298901.246
     -4118.672       -3203.432          41.300          42.000



 122424156.361 7  95395518.04145  23296562.180                    23296594.359
     -1999.468       -1558.009          44.500          31.000



 111424754.770 6  86663876.559 6  20902955.930    20902954.531    20902967.836
       175.792         136.719          40.900          39.900



 130804389.666 6 101925529.57343  24891281.242                    24891314.711
      3096.754        2413.113          37.700          20.100    97678630.600 6
  24891317.648        2312.585          41.900


 105292375.305 8  82046258.20246  20036394.070                    20036403.598
      -600.935        -468.259          50.500          40.700



 132938454.476 6 103588451.16543  25297346.313                    25297356.855
      3174.121        2473.347          41.300          22.000



 104217439.717 7  81058217.970 7  19543987.219    19543985.852    19543994.254
     -1704.279       -1325.555          46.000          44.400



 104153162.827 7  81008202.767 8  19463446.875    19463445.820    19463453.023
     -1520.885       -1182.912          47.900          49.400



 118125701.196 7  92046194.60445  22478511.414                    22478520.449
     -1048.192        -816.774          46.500          32.100



 114474628.991 7  89035919.143 7  21422345.969    21422345.227    21422355.352
      2369.155        1842.665          43.000          44.600



 110653433.207 8  86223539.54546  21056626.961                    21056636.957
      -400.185        -311.833          49.300          38.400



 128770919.182 6 100155141.531 5  24047124.313    24047123.918    24047158.598
     -2294.517       -1784.617          38.700          35.900



 116802137.204 7  91014737.77045  22226693.602                    22226703.988
      1627.312        1268.033          44.600          32.200



 109176769.864 8  85073084.44547  20775563.172                    20775574.090
     -1803.428       -1405.265          50.500          42.900    81528346.987 9
  20775574.188       -1346.715          54.500


 121065164.276 7  94336659.68344  23037898.555                    23037915.617
      3323.816        2589.975          43.200          28.000



 133558348.960 5 104071789.87542  25415374.141                    25415413.375
      -556.509        -433.669          35.200          16.300



 106382560.325 7  82895735.24947  20243851.336                    20243859.621
       683.529         532.614          47.000          43.100



 128008778.017 6  99562401.566 6  23946688.992    23946688.184    23946703.488
     -1681.349       -1307.707          37.200          39.600



 144770820.812 7                  27549015.031
     -1488.342                          42.300                   108108064.170 6
  27549052.570       -1111.396          40.500   110928277.835 6  27549047.555
     -1140.399          39.400   109518182.114 7  27549050.852       -1125.901
        44.100
 145123769.238 6                  27616122.875
      2782.104                          39.500                   108371795.104 6
  27616150.977        2077.503          40.500   111198863.741 7  27616147.320
      2131.700          42.000

 196195566.975 7                  37334770.188
        -0.135                          44.400                   146509583.689 7
  37334771.055          -0.194          45.300


 200643950.211 7                  38181268.703
        -3.973                          44.300                   149831479.564 7
  38181269.313          -2.965          47.200


 213738539.104 6                  40673067.438
        -1.807                          37.000                   159609937.654 6
  40673067.766          -1.404          38.300


 200902444.806 6                  38230470.797
         2.377                          39.200



 14  3  9  0 29 30.0000000  0 25G32R24G31R14G01G03G07R18R17G16R15G23
                                R04G13G27G11G20G19R05E19E12S33S38S35
                                S20
 132335370.125 5 103118610.12242  25182589.453                    25182614.176
      -552.891        -430.876          34.300          16.300



 124713710.689 6  96999614.302 7  23322013.031    23322012.031    23322023.105
     -4123.535       -3207.223          37.000          42.700



 122484305.767 7  95442387.35845  23308008.766                    23308040.402
     -2010.124       -1566.326          44.700          32.600



 111419668.522 6  86659920.495 6  20902001.328    20902000.633    20902013.371
       163.671         127.298          41.300          39.700



 130711393.019 6 101853062.82443  24873586.125                    24873618.789
      3102.765        2417.801          38.900          19.300    97609182.926 6
  24873622.957        2317.071          41.200


 105310639.485 8  82060490.05746  20039869.609                    20039879.000
      -616.159        -480.127          51.400          40.800



 132843155.127 6 103514192.07043  25279210.914                    25279221.648
      3178.959        2477.099          37.500          19.300



 104268936.120 7  81098270.739 7  19553645.273    19553643.434    19553651.238
     -1727.928       -1343.961          46.300          44.000



 104199156.629 8  81043975.724 8  19472041.461    19472040.523    19472048.051
     -1544.572       -1201.358          48.400          49.200



 118157110.340 7  92070669.24845  22484488.742                    22484497.609
     -1045.850        -814.944          46.600          32.700



 114403561.906 6  88980644.780 7  21409046.750    21409045.422    21409055.867
      2368.671        1842.296          41.400          44.000



 110665721.888 8  86233115.10446  21058965.820                    21058975.285
      -418.441        -326.061          49.800          38.600



 128839633.186 6 100208585.969 5  24059955.688    24059955.645    24059990.250
     -2286.689       -1778.547          38.700          35.600



 116753589.477 7  90976908.40345  22217455.227                    22217466.008
      1609.789        1254.385          46.000          32.400



 109231066.442 8  85115393.45547  20785895.266                    20785906.383
     -1815.939       -1415.017          50.800          42.100    81568893.119 9
  20785906.598       -1356.058          54.600


 120965492.174 7  94258993.49744  23018931.898                    23018948.117
      3321.038        2587.807          44.900          29.300



 133574913.072 5 104084697.27242  25418526.352                    25418565.703
      -547.988        -427.019          32.900          15.600



 106362352.868 7  82879989.23547  20240005.867                    20240014.195
       664.260         517.602          47.600          43.000



 128059315.497 6  99601708.394 6  23956143.852    23956142.691    23956157.305
     -1687.613       -1312.595          38.300          38.900



 144815357.987 6                  27557490.203
     -1481.095                          41.100                   108141321.689 6
  27557527.723       -1105.987          39.900   110962403.023 6  27557523.738
     -1134.841          39.400   109551873.461 7  27557526.762       -1120.414
        43.700
 145040353.935 6                  27600248.375
      2779.031                          39.400                   108309505.617 6
  27600276.961        2075.217          41.300   111134949.182 6  27600272.180
      2129.356          40.900

 196195576.022 7                  37334773.188
        -0.233                          44.100                   146509589.341 7
  37334772.648          -0.007          45.800


 200644067.963 7                  38181291.297
        -3.988                          44.500                   149831567.050 7
  38181292.141          -2.951          47.000


 213738590.548 6                  40673077.125
        -1.578                          36.000                   159609976.055 6
  40673076.586          -1.104          38.800


 200902378.969 6                  38230455.609
         2.231                          39.000



 14  3  9  0 30  0.0000000  0 25G32R24G31R14G01G03G07R18R17G16R15G23
                                R04G13G27G11G20G19R05E19E12S33S38S35
                                S20
 132351797.099 5 103131410.74942  25185717.000                    25185739.918
      -542.549        -422.829          34.800          15.600



 124837490.841 6  97095887.684 6  23345161.055    23345160.996    23345169.160
     -4128.238       -3210.868          38.900          38.800



 122544773.030 7  95489504.37845  23319515.961                    23319548.051
     -2020.684       -1574.553          45.300          30.600



 111414946.096 6  86656247.417 6  20901115.688    20901114.406    20901127.414
       151.535         117.861          40.800          39.600



 130618215.670 6 101780455.38743  24855856.445                    24855889.281
      3108.796        2422.530          37.400          19.600    97539600.390 6
  24855893.273        2321.574          41.300


 105329359.272 8  82075076.91346  20043431.883                    20043441.617
      -631.297        -491.928          50.300          40.900



 132747711.151 6 103439820.29643  25261047.828                    25261059.191
      3183.803        2480.884          38.400          20.400



 104321141.855 7  81138875.185 7  19563434.688    19563433.672    19563441.590
     -1751.540       -1362.313          46.300          43.800



 104245860.063 8  81080300.601 8  19480769.141    19480767.730    19480775.223
     -1568.152       -1219.669          48.400          49.200



 118188448.891 7  92095088.89945  22490452.414                    22490461.371
     -1043.461        -813.090          46.800          32.000



 114332509.290 7  88925381.708 7  21395749.797    21395748.469    21395758.836
      2368.140        1841.887          42.000          44.300



 110678557.820 8  86243117.08846  21061408.680                    21061418.152
      -436.634        -340.233          48.100          38.800



 128908110.550 6 100261846.797 6  24072744.805    24072742.063    24072777.402
     -2278.766       -1772.404          36.800          36.700



 116705569.103 7  90939489.95045  22208317.109                    22208327.578
      1592.184        1240.670          46.000          32.800



 109285736.656 8  85157993.61047  20796298.750                    20796309.297
     -1828.328       -1424.673          50.500          42.100    81609718.260 9
  20796309.508       -1365.303          54.900


 120865904.474 7  94181393.04844  22999980.828                    22999996.891
      3318.228        2585.619          44.000          28.600



 133591221.917 6 104097405.96542  25421629.148                    25421668.648
      -539.512        -420.435          37.300          16.300



 106342723.708 7  82864693.84047  20236270.047                    20236278.520
       645.002         502.596          46.300          43.200



 128110036.976 6  99641158.280 6  23965632.047    23965631.590    23965646.500
     -1693.655       -1317.261          37.100          38.100



 144859677.671 6                  27565924.789
     -1473.779                          41.900                   108174416.794 6
  27565962.789       -1100.525          40.700   110996361.573 6  27565957.816
     -1129.233          38.900   109585400.291 7  27565961.203       -1114.876
        43.600
 144957032.338 6                  27584392.438
      2775.890                          39.400                   108247286.090 6
  27584420.664        2072.862          41.800   111071106.388 6  27584415.738
      2126.938          40.700

 196195584.729 7                  37334775.109
        -0.367                          44.300                   146509596.661 7
  37334774.711          -0.300          45.500


 200644185.821 7                  38181312.969
        -3.923                          44.300                   149831655.631 7
  38181314.117          -2.944          47.200


 213738641.370 6                  40673086.297
        -1.780                          36.900                   159610013.980 6
  40673086.438          -1.386          39.400


 200902312.906 6                  38230442.500
         2.305                          39.200



 14  3  9  0 30 30.0000000  0 25G32R24G31R14G01G03G07R18R17G16R15G23
                                R04G13G27G11G20G19R05E19E12S33S38S35
                                S20
 132367912.608 5 103143968.79942  25188782.586                    25188805.648
      -532.211        -414.720          33.700          16.300



 124961410.185 6  97192269.580 6  23368335.438    23368334.910    23368342.746
     -4132.850       -3214.450          40.400          39.400



 122605557.625 7  95536868.65645  23331083.039                    23331114.996
     -2031.283       -1582.805          44.800          30.300



 111410589.890 6  86652859.173 6  20900299.461    20900297.945    20900310.816
       139.261         108.318          41.100          39.200



 130524859.361 6 101707708.48543  24838092.984                    24838126.316
      3114.745        2427.140          38.100          19.900    97469884.230 6
  24838130.430        2326.012          41.200


 105348532.324 8  82090016.95746  20047080.461                    20047089.992
      -646.388        -503.676          51.200          41.100



 132652123.681 6 103365336.68643  25242857.547                    25242869.586
      3188.529        2484.564          38.800          21.300



 104374053.034 7  81180028.341 7  19573357.828    19573356.105    19573363.891
     -1775.047       -1380.592          45.900          43.800



 104293269.923 7  81117174.953 8  19489629.125    19489628.070    19489635.730
     -1591.705       -1237.996          47.900          49.200



 118219716.630 7  92119453.36545  22496402.875                    22496412.059
     -1041.101        -811.246          46.800          32.400



 114261474.825 6  88870132.758 7  21382456.438    21382456.047    21382466.285
      2367.515        1841.384          41.700          44.400



 110691939.339 8  86253544.19946  21063954.797                    21063963.941
      -454.833        -354.410          48.900          38.200



 128976347.939 6 100314921.569 5  24085483.766    24085483.254    24085518.523
     -2270.737       -1766.139          36.100          34.700



 116658077.221 7  90902483.32345  22199279.617                    22199290.449
      1574.541        1226.913          46.100          32.400



 109340777.563 8  85200882.62146  20806772.984                    20806783.535
     -1840.655       -1434.282          50.700          41.800    81650820.225 9
  20806783.805       -1374.515          54.600


 120766403.742 7  94103860.38444  22981045.023                    22981062.176
      3315.259        2583.308          44.300          28.600



 133607273.407 6 104109914.22842  25424683.813                    25424723.133
      -530.915        -413.706          37.200          16.900



 106323672.579 8  82849848.85247  20232645.227                    20232653.703
       625.723         487.573          48.100          43.200



 128160938.520 6  99680748.272 6  23975155.664    23975153.211    23975168.281
     -1699.605       -1321.897          37.000          39.500



 144903778.253 6                  27574317.383
     -1466.480                          40.900                   108207348.274 6
  27574356.109       -1095.074          41.400   111030152.234 6  27574350.906
     -1123.650          39.600   109618761.361 7  27574354.004       -1109.359
        44.600
 144873805.619 6                  27568554.094
      2772.653                          39.400                   108185137.384 6
  27568582.461        2070.445          41.700   111007336.260 6  27568577.535
      2124.466          40.200

 196195597.889 7                  37334777.750
        -0.539                          43.500                   146509606.265 7
  37334776.578          -0.442          45.600


 200644304.102 7                  38181335.922
        -3.919                          45.100                   149831743.719 7
  38181336.625          -2.865          47.200


 213738692.423 6                  40673096.406
        -1.876                          37.000                   159610052.780 6
  40673096.570          -1.524          38.700


 200902247.444 6                  38230433.984
         2.352                          38.900



 14  3  9  0 31  0.0000000  0 25G32R24G31R14G01G03G07R18R17G16R15G23
                                R04G13G27G11G20G19R05E19E12S33S38S35
                                S20
 132383716.196 5 103156283.64142  25191789.258                    25191812.578
      -521.712        -406.516          32.800          13.900



 125085465.693 5  97288757.130 7  23391533.563    23391531.625    23391542.129
     -4137.355       -3217.927          35.700          42.400



 122666659.639 7  95584480.29945  23342711.086                    23342742.676
     -2041.842       -1591.044          45.500          32.000



 111406602.533 6  86649757.820 6  20899549.680    20899549.570    20899562.773
       126.925          98.730          41.100          40.000



 130431326.355 6 101634823.95243  24820294.875                    24820329.004
      3120.597        2431.680          37.600          18.300    97400036.200 7
  24820333.113        2330.385          42.100


 105368157.308 8  82105309.16346  20050815.055                    20050825.059
      -661.435        -515.401          51.200          41.300



 132556394.369 6 103290742.53944  25224642.102                    25224652.996
      3193.253        2488.245          39.200          24.000



 104427666.789 7  81221727.922 7  19583411.500    19583409.895    19583417.816
     -1798.414       -1398.766          46.300          44.400



 104341383.839 8  81154596.882 8  19498620.828    19498619.184    19498626.492
     -1615.077       -1256.174          48.700          49.000



 118250913.228 7  92143762.39845  22502338.906                    22502348.363
     -1038.749        -809.414          46.200          32.400



 114190460.328 7  88814899.333 7  21369167.664    21369165.984    21369176.402
      2366.742        1840.818          42.300          44.800



 110705865.547 8  86264395.75846  21066605.180                    21066614.125
      -472.971        -368.548          50.000          38.600



 129044342.667 5 100367808.045 5  24098181.266    24098179.699    24098214.078
     -2262.558       -1759.826          34.800          32.800



 116611115.322 7  90865889.67045  22190343.328                    22190353.559
      1556.842        1213.120          46.700          31.800



 109396187.086 8  85244058.86346  20817316.500                    20817328.051
     -1852.893       -1443.816          50.500          41.900    81692197.457 9
  20817328.203       -1383.653          54.600


 120666992.951 7  94026397.81044  22962128.141                    22962144.477
      3312.207        2580.936          44.100          29.000



 133623067.064 5 104122221.67742  25427688.680                    25427727.727
      -522.303        -407.000          33.600          16.300



 106305199.493 8  82835454.28647  20229129.750                    20229138.316
       606.467         472.575          48.700          42.800



 128212016.834 6  99720475.713 6  23984710.734    23984708.750    23984724.273
     -1705.388       -1326.403          38.400          38.700



 144947658.937 6                  27582668.273
     -1459.138                          40.400                   108240115.497 6
  27582706.531       -1089.594          40.000   111063774.346 6  27582701.277
     -1118.015          38.600   109651956.029 7  27582705.145       -1103.797
        43.300
 144790675.631 6                  27552734.523
      2769.444                          38.600                   108123060.889 6
  27552761.578        2068.057          40.800   110943640.238 6  27552757.781
      2122.017          39.900

 196195610.947 7                  37334778.141
        -0.372                          43.200                   146509615.925 7
  37334778.984          -0.246          45.800


 200644422.094 7                  38181356.766
        -3.929                          44.100                   149831832.319 7
  38181359.461          -3.024          47.500


 213738743.821 6                  40673104.328
        -1.746                          37.100                   159610091.021 6
  40673105.594          -1.295          38.900


 200902182.921 6                  38230423.891
         2.307                          40.000



 14  3  9  0 31 30.0000000  0 25G32R24G31R14G01G03G07R18R17G16R15G23
                                R04G13G27G11G20G19R05E19E12S33S38S35
                                S20
 132399207.714 5 103168355.48042  25194737.500                    25194760.523
      -511.313        -398.486          35.200          16.300



 125209653.446 6  97385347.591 6  23414757.383    23414757.793    23414765.105
     -4141.705       -3221.290          39.300          39.800



 122728078.677 7  95632339.01544  23354398.492                    23354430.418
     -2052.408       -1599.281          43.300          29.100



 111402987.129 6  86646945.750 6  20898872.711    20898871.547    20898884.578
       114.533          89.059          40.600          40.200



 130337618.941 6 101561803.56043  24802464.938                    24802499.191
      3126.366        2436.185          39.200          19.000    97330058.009 7
  24802503.828        2334.681          42.200


 105388232.426 8  82120952.13046  20054635.063                    20054644.719
      -676.392        -527.064          51.100          40.500



 132460524.299 5 103216038.82442  25206397.164                    25206409.488
      3197.909        2491.871          32.200          16.900



 104481980.406 7  81263971.836 7  19593597.734    19593595.309    19593603.418
     -1821.733       -1416.897          46.200          44.400



 104390198.753 8  81192564.041 8  19507742.672    19507741.500    19507748.645
     -1638.432       -1274.334          49.000          49.000



 118282038.563 7  92168015.91045  22508261.773                    22508271.160
     -1036.357        -807.548          46.600          33.000



 114119470.566 7  88759685.136 7  21355881.992    21355881.836    21355891.945
      2365.931        1840.181          42.300          44.600



 110720335.236 8  86275670.79946  21069358.680                    21069367.355
      -491.064        -382.648          50.000          38.700



 129112091.712 6 100420503.789 5  24110831.633    24110830.652    24110864.680
     -2254.285       -1753.407          38.100          35.200



 116564684.641 7  90829709.95145  22181508.125                    22181518.449
      1539.135        1199.322          46.900          33.100



 109451962.676 8  85287520.34047  20827930.602                    20827941.449
     -1865.048       -1453.282          50.300          42.300    81733848.041 9
  20827941.898       -1392.728          54.700


 120567674.678 7  93949007.32944  22943228.188                    22943244.457
      3309.092        2578.498          45.600          28.600



 133638601.382 5 104134327.18342  25430643.703                    25430682.805
      -513.649        -400.291          34.200          16.300



 106287304.130 8  82821509.89647  20225724.195                    20225732.359
       587.212         457.566          48.100          43.000



 128263267.826 6  99760337.479 6  23994299.008    23994296.203    23994311.801
     -1711.119       -1330.861          37.700          37.300



 144991318.852 6                  27590977.039
     -1451.741                          40.400                   108272717.905 7
  27591016.488       -1084.066          42.300   111097227.349 6  27591010.301
     -1112.355          39.900   109684983.739 7  27591014.008       -1098.214
        44.600
 144707644.042 6                  27536932.547
      2766.141                          38.300                   108061057.843 6
  27536960.266        2065.591          41.100   110880019.618 6  27536957.031
      2119.481          40.600

 196195627.075 7                  37334781.719
        -0.613                          43.200                   146509627.581 7
  37334782.445          -0.572          45.800


 200644540.888 7                  38181381.000
        -4.113                          44.900                   149831921.146 7
  38181382.406          -3.061          46.900


 213738794.158 6                  40673114.125
        -1.582                          36.500                   159610128.401 6
  40673115.461          -1.169          39.300


 200902118.056 6                  38230405.734
         1.965                          39.700



 14  3  9  0 32  0.0000000  0 25G32R24G31R14G01G03G07R18R17G16R15G23
                                R04G13G27G11G20G19R05E19E12S33S38S35
                                S20
 132414386.474 5 103180183.60842  25197624.945                    25197646.848
      -500.890        -390.318          34.300          15.600



 125333969.139 6  97482037.677 6  23438005.195    23438004.551    23438012.188
     -4145.875       -3224.544          37.300          38.500



 122789814.267 7  95680444.37444  23366146.078                    23366178.910
     -2062.944       -1607.481          43.000          29.600



 111399745.852 6  86644424.659 6  20898264.219    20898262.469    20898276.191
       101.966          79.332          41.400          39.700



 130243739.106 6 101488648.86643  24784600.898                    24784635.988
      3132.101        2440.635          38.400          20.900    97259951.038 7
  24784640.570        2338.965          42.000


 105408755.817 8  82136944.39146  20058540.445                    20058550.648
      -691.306        -538.684          50.700          41.300



 132364515.675 6 103141227.01743  25188128.766                    25188138.758
      3202.494        2495.467          40.200          20.100



 104536991.534 7  81306758.266 7  19603913.984    19603911.910    19603920.430
     -1844.871       -1434.886          45.900          44.800



 104439711.821 8  81231074.213 8  19516995.453    19516994.516    19517001.285
     -1661.621       -1292.373          48.800          48.600



 118313092.466 7  92192213.74845  22514171.516                    22514180.953
     -1033.952        -805.677          46.400          33.100



 114048506.945 7  88704491.277 7  21342602.641    21342601.664    21342612.113
      2365.003        1839.448          42.700          43.700



 110735346.973 8  86287368.20746  21072215.500                    21072224.141
      -509.073        -396.683          50.300          38.000



 129179591.549 6 100473006.008 5  24123435.375    24123434.160    24123467.492
     -2245.909       -1746.888          36.600          34.600



 116518786.183 7  90793944.94645  22172773.727                    22172784.496
      1521.377        1185.485          46.900          33.300



 109508101.739 8  85331265.05347  20838613.422                    20838624.414
     -1877.117       -1462.689          50.800          42.300    81775770.051 9
  20838624.449       -1401.745          54.500


 120468451.775 7  93871691.12644  22924346.992                    22924362.789
      3305.881        2576.005          46.000          29.100



 133653875.338 5 104146229.89542  25433548.852                    25433589.230
      -504.888        -393.461          35.500          16.900



 106269986.535 8  82808015.71747  20222428.859                    20222437.016
       567.974         442.579          48.800          43.200



 128314687.957 6  99800330.899 6  24003917.664    24003915.211    24003930.961
     -1716.656       -1335.211          37.600          37.300



 145034756.671 6                  27599243.453
     -1444.336                          40.100                   108305154.516 6
  27599282.313       -1078.540          41.100   111130510.219 6  27599277.809
     -1106.678          38.900   109717843.478 7  27599280.680       -1092.612
        44.000
 144624712.227 6                  27521150.898
      2762.796                          39.800                   107999129.296 6
  27521177.867        2063.092          41.300   110816475.404 6  27521173.930
      2116.919          40.000

 196195646.026 7                  37334784.734
        -1.036                          43.600                   146509642.481 7
  37334785.531          -0.761          45.300


 200644658.811 7                  38181403.047
        -3.750                          45.000                   149832009.299 7
  38181403.422          -2.832          47.300


 213738845.316 6                  40673123.859
        -1.668                          36.900                   159610166.891 6
  40673124.914          -1.268          38.900


 200902051.842 6                  38230397.031
         2.187                          39.500



 14  3  9  0 32 30.0000000  0 25G32R24G31R14G01G03G07R18R17G16R15G23
                                R04G13G27G11G20G19R05E19E12S33S38S35
                                S20
 132429251.846 5 103191767.43642  25200454.094                    25200476.230
      -490.434        -382.223          35.400          14.800



 125458409.224 6  97578824.396 6  23461275.531    23461274.414    23461282.879
     -4149.987       -3227.744          37.600          40.700



 122851865.862 7  95728795.99244  23377954.445                    23377986.410
     -2073.460       -1615.674          42.600          28.900



 111396881.467 6  86642196.760 6  20897727.133    20897725.852    20897739.043
        89.424          69.514          41.000          39.900



 130149688.968 6 101415361.51743  24766704.641                    24766740.703
      3137.702        2445.017          38.000          19.900    97189717.001 7
  24766745.109        2343.154          42.900


 105429725.724 8  82153284.58446  20062530.859                    20062541.219
      -706.164        -550.258          50.700          41.200



 132268369.820 6 103066308.19243  25169832.203                    25169843.320
      3207.080        2499.033          39.800          23.400



 104592695.338 7  81350083.459 7  19614360.313    19614358.004    19614366.289
     -1867.903       -1452.838          46.100          44.400



 104489920.186 8  81270125.164 8  19526377.977    19526376.332    19526383.598
     -1684.779       -1310.381          48.300          49.100



 118344074.530 7  92216355.60945  22520066.578                    22520076.754
     -1031.560        -803.810          46.200          33.700



 113977573.124 7  88649320.602 7  21329328.328    21329327.352    21329337.152
      2363.960        1838.649          42.600          44.400



 110750899.233 8  86299486.81446  21075174.492                    21075183.758
      -527.103        -410.729          48.900          38.300



 129246839.593 6 100525312.446 6  24135990.922    24135990.410    24136023.707
     -2237.550       -1740.365          38.100          37.900



 116473421.323 7  90758595.73745  22164140.875                    22164151.992
      1503.554        1171.597          46.800          33.200



 109564601.721 8  85375290.99946  20849365.078                    20849376.320
     -1889.114       -1472.042          50.500          41.800    81817961.575 9
  20849376.301       -1410.703          54.600


 120369326.919 7  93794451.34045  22905483.641                    22905499.867
      3302.552        2573.410          45.700          31.000



 133668887.455 6 104157928.68743  25436405.188                    25436444.969
      -496.157        -386.654          36.300          18.600



 106253246.427 7  82794971.52047  20219243.305                    20219251.684
       548.705         427.563          47.800          43.400



 128366273.319 6  99840452.675 6  24013565.695    24013565.590    24013581.305
     -1722.126       -1339.408          36.400          38.900



 145077971.284 6                  27607467.727
     -1436.858                          40.400                   108337424.485 6
  27607506.746       -1072.962          40.800   111163622.117 6  27607501.445
     -1100.956          38.600   109750534.409 7  27607504.766       -1086.956
        44.000
 144541881.776 6                  27505388.094
      2759.368                          39.700                   107937276.391 6
  27505414.258        2060.528          39.900   110753008.825 6  27505411.352
      2114.287          41.700

 196195667.263 7                  37334790.953
        -0.708                          44.400                   146509657.749 7
  37334789.781          -0.539          45.700


 200644776.630 7                  38181425.781
        -3.789                          45.400                   149832096.883 7
  38181426.367          -2.686          46.700


 213738896.517 6                  40673133.641
        -1.730                          36.900                   159610205.381 6
  40673134.391          -1.276          38.900


 200901987.696 6                  38230381.828
         2.235                          39.200



 14  3  9  0 33  0.0000000  0 25G32R24G31R14G01G03G07R18R17G16R15G23
                                R04G13G27G11G20G19R05E19E12S33S38S35
                                S20
 132443803.258 5 103203106.67142  25203221.258                    25203244.707
      -480.009        -374.024          35.800          16.300



 125582969.086 6  97675704.321 6  23484571.313    23484569.844    23484576.355
     -4153.908       -3230.808          40.700          40.000



 122914232.589 7  95777393.24644  23389822.375                    23389854.723
     -2083.992       -1623.892          42.200          29.700



 111394396.101 6  86640263.585 6  20897260.797    20897260.102    20897273.246
        76.668          59.656          40.400          40.100



 130055470.275 6 101341942.84043  24748777.391                    24748812.730
      3143.286        2449.362          38.300          21.800    97119357.100 7
  24748817.133        2347.317          44.100


 105451140.296 8  82169971.27946  20066605.828                    20066616.270
      -720.982        -561.808          50.900          40.800



 132172087.749 5 102991283.37843  25151508.273                    25151521.691
      3211.555        2502.496          32.600          18.300



 104649089.275 7  81393945.385 7  19624935.039    19624933.551    19624942.242
     -1890.888       -1470.677          46.500          44.000



 104540820.385 8  81309714.220 8  19535889.148    19535888.328    19535895.559
     -1707.803       -1328.285          48.200          48.700



 118374984.466 7  92240441.26945  22525948.719                    22525958.832
     -1029.184        -801.964          45.600          33.000



 113906670.893 7  88594174.485 7  21316059.406    21316058.898    21316069.117
      2362.810        1837.744          42.600          44.100



 110766990.371 8  86312025.31646  21078236.820                    21078246.012
      -545.060        -424.717          50.800          38.400



 129313832.018 6 100577420.246 6  24148500.508    24148498.824    24148531.527
     -2228.918       -1733.758          38.800          37.100



 116428590.888 7  90723662.96145  22155609.844                    22155620.309
      1485.695        1157.684          46.700          33.100



 109621459.710 8  85419595.90347  20860184.664                    20860195.391
     -1901.028       -1481.321          49.700          42.300    81860420.441 9
  20860195.664       -1419.602          55.000


 120270302.499 7  93717289.81745  22886638.859                    22886655.840
      3299.157        2570.766          45.300          31.100



 133683635.659 6 104169421.88142  25439211.125                    25439249.883
      -487.333        -379.760          37.200          17.400



 106237082.945 8  82782376.64547  20216167.688                    20216175.563
       529.469         412.576          49.400          43.100



 128418020.010 6  99880699.948 6  24023246.414    24023245.957    24023261.680
     -1727.493       -1343.565          37.000          38.500



 145120961.262 6                  27615648.508
     -1429.399                          40.400                   108369526.779 6
  27615687.609       -1067.391          40.900   111196561.913 6  27615682.777
     -1095.239          39.500   109783055.457 7  27615685.773       -1081.315
        44.100
 144459153.756 6                  27489644.578
      2755.918                          39.300                   107875499.944 6
  27489671.246        2057.956          41.100   110689620.741 6  27489667.824
      2111.646          41.400

 196195689.968 7                  37334794.641
        -0.787                          43.800                   146509675.377 7
  37334794.313          -0.594          45.600


 200644896.053 7                  38181448.219
        -3.850                          44.600                   149832186.172 7
  38181448.852          -2.851          47.500


 213738947.153 6                  40673143.484
        -1.557                          37.600                   159610243.243 6
  40673144.539          -1.176          38.800


 200901925.487 6                  38230368.547
         2.086                          39.000



 14  3  9  0 33 30.0000000  0 25G32R24G31R14G01G03G07R18R17G16R15G23
                                R04G13G27G11G20G19R05E19E12S33S38S35
                                S20
 132458040.270 5 103214200.86942  25205931.430                    25205954.008
      -469.462        -365.810          34.300          15.600



 125707645.293 6  97772674.843 6  23507884.969    23507884.324    23507890.117
     -4157.691       -3233.791          36.300          37.200



 122976914.463 6  95826236.09244  23401750.969                    23401782.715
     -2094.454       -1632.036          41.400          28.100



 111392292.580 6  86638627.429 6  20896866.289    20896865.594    20896878.340
        63.953          49.733          40.900          40.000



 129961085.512 6 101268394.80643  24730817.672                    24730854.313
      3148.819        2453.672          36.900          22.000    97048873.254 7
  24730859.066        2351.451          43.700


 105472997.779 8  82187003.09146  20070765.352                    20070775.277
      -735.701        -573.272          50.300          40.600



 132075671.067 6 102916153.76743  25133162.750                    25133173.914
      3216.040        2506.026          38.400          19.000



 104706169.968 7  81438341.495 7  19635640.305    19635638.348    19635646.398
     -1913.691       -1488.451          46.400          43.800



 104592409.898 8  81349839.374 8  19545529.992    19545528.820    19545536.328
     -1730.725       -1346.119          48.000          49.100



 118405822.071 7  92264470.55045  22531816.867                    22531826.848
     -1026.750        -800.063          46.200          33.400



 113835804.726 7  88539056.429 7  21302797.289    21302796.781    21302806.766
      2361.600        1836.807          42.700          44.600



 110783619.059 8  86324982.69546  21081401.344                    21081410.441
      -562.921        -438.632          50.200          38.400



 129380566.334 6 100629327.205 5  24160959.539    24160959.145    24160990.688
     -2220.260       -1726.981          38.700          35.200



 116384296.358 7  90689147.77145  22147181.133                    22147191.215
      1467.848        1143.776          47.000          32.600



 109678673.463 8  85464178.04147  20871072.109                    20871083.230
     -1912.825       -1490.513          49.700          42.700    81903144.990 9
  20871083.617       -1428.415          54.600


 120171381.755 7  93640209.07345  22867815.352                    22867831.809
      3295.669        2568.038          45.200          30.800



 133698119.602 6 104180709.25242  25441966.609                    25442005.125
      -478.477        -372.896          39.100          17.400



 106221496.058 8  82770231.06147  20213201.500                    20213209.488
       510.287         397.626          48.800          43.300



 128469924.127 6  99921069.694 6  24032957.414    24032956.488    24032970.672
     -1732.649       -1347.632          37.500          38.100



 145163725.785 6                  27623786.273
     -1421.811                          39.400                   108401460.732 6
  27623826.469       -1061.720          40.700   111229329.009 6  27623820.516
     -1089.416          39.400   109815405.985 7  27623824.211       -1075.572
        44.000
 144376530.102 6                  27473921.141
      2752.435                          39.700                   107813801.488 6
  27473948.164        2055.363          41.100   110626312.628 6  27473944.086
      2108.983          40.700   109219853.166 7  27473946.328        2082.163
        45.300
 196195715.048 7                  37334798.188
        -0.941                          43.300                   146509693.623 7
  37334798.258          -0.766          45.800


 200645013.925 7                  38181470.781
        -3.938                          44.500                   149832274.840 7
  38181471.391          -2.866          47.500


 213738997.931 6                  40673153.719
        -1.677                          37.300                   159610281.478 6
  40673153.367          -1.218          39.000


 200901863.311 6                  38230358.016
         2.042                          39.600



 14  3  9  0 34  0.0000000  0 25G32R24G31R14G01G03G07R18R17G16R15G23
                                R04G13G27G11G20G19R05E19E12S33S38S35
                                S20
 132471962.971 5 103225050.17042  25208580.414                    25208603.613
      -459.003        -357.673          31.500          15.600



 125832434.587 6  97869733.221 6  23531219.320    23531219.379    23531227.621
     -4161.383       -3236.656          37.900          39.600



 123039911.049 7  95875324.14344  23413739.313                    23413770.777
     -2104.931       -1640.200          42.600          27.800



 111390573.642 6  86637290.408 6  20896544.977    20896542.637    20896555.961
        51.072          39.731          40.800          40.100



 129866537.066 6 101194719.28843  24712826.445                    24712863.621
      3154.265        2457.915          36.400          21.300    96978267.231 7
  24712867.730        2355.512          44.100


 105495296.587 8  82204378.79246  20075008.727                    20075018.777
      -750.361        -584.694          50.000          40.900



 131979122.020 6 102840920.78143  25114790.602                    25114800.453
      3220.447        2509.432          41.100          21.700



 104763934.141 7  81483269.156 7  19646472.703    19646470.512    19646479.035
     -1936.429       -1506.099          46.600          44.200



 104644685.691 7  81390498.318 8  19555299.180    19555297.891    19555305.449
     -1753.544       -1363.856          47.500          49.600



 118436587.608 7  92288443.67245  22537671.094                    22537681.328
     -1024.338        -798.182          44.900          32.900



 113764976.316 7  88483967.734 7  21289543.391    21289542.648    21289552.945
      2360.289        1835.790          42.600          44.400



 110800784.059 8  86338357.96846  21084667.625                    21084676.398
      -580.770        -452.543          49.800          37.900



 129447039.953 6 100681031.367 6  24173370.094    24173369.816    24173400.945
     -2211.535       -1720.153          37.700          36.100



 116340539.080 7  90655051.23245  22138854.164                    22138865.242
      1449.916        1129.809          46.500          32.600



 109736240.691 8  85509035.61047  20882027.211                    20882038.063
     -1924.571       -1499.670          50.200          42.300    81946133.490 9
  20882038.453       -1437.176          54.600


 120072567.217 7  93563211.09145  22849010.563                    22849027.355
      3292.072        2565.232          45.200          30.500



 133712337.868 6 104191789.62843  25444670.961                    25444709.563
      -469.617        -365.975          38.100          20.100



 106206485.687 8  82758534.71047  20210345.148                    20210353.145
       491.077         382.657          48.900          43.800



 128521982.609 6  99961559.504 6  24042696.836    24042695.203    24042709.426
     -1737.731       -1351.541          37.600          38.600



 145206264.128 6                  27631881.742
     -1414.252                          39.600                   108433225.823 6
  27631921.848       -1056.080          40.300   111261922.813 6  27631916.078
     -1083.633          39.600   109847585.429 7  27631919.602       -1069.853
        44.100
 144294012.610 6                  27458218.172
      2748.885                          39.800                   107752182.267 6
  27458244.965        2052.712          41.400   110563085.817 6  27458240.836
      2106.258          40.400   109157430.151 7  27458242.863        2079.485
        45.100
 196195742.788 7                  37334803.719
        -0.929                          43.800                   146509714.723 7
  37334804.633          -0.785          45.800


 200645132.767 7                  38181493.563
        -3.957                          44.600                   149832363.151 7
  38181494.898          -3.045          47.200


 213739048.377 6                  40673163.406
        -1.588                          37.100                   159610318.864 6
  40673162.961          -1.125          38.900


 200901798.981 6                  38230348.469
         2.304                          39.000



 14  3  9  0 34 30.0000000  0 25G32R24G31R14G01G03G07R18R17G16R15G23
                                R04G13G27G11G20G19R05E19E12S33S38S35
                                S20
 132485570.005 5 103235653.53242  25211168.734                    25211192.035
      -448.439        -349.434          33.700          15.600



 125957332.257 6  97966875.886 6  23554577.406    23554577.113    23554585.070
     -4164.976       -3239.437          39.900          41.000



 123103221.454 7  95924656.74244  23425786.945                    23425818.742
     -2115.405       -1648.361          43.200          28.900



 111389241.494 6  86636254.205 6  20896293.852    20896292.219    20896306.113
        38.108          29.646          40.700          39.500



 129771826.663 6 101120917.60443  24694804.414                    24694841.672
      3159.598        2462.055          37.700          21.300    96907540.320 7
  24694846.605        2359.491          43.700


 105518034.323 8  82222096.50246  20079334.727                    20079345.684
      -764.983        -596.090          49.600          40.900



 131882441.284 6 102765585.20443  25096391.586                    25096402.926
      3224.770        2512.801          37.300          19.000



 104822378.783 7  81528726.098 7  19657432.125    19657430.758    19657439.281
     -1959.126       -1523.763          46.500          43.900



 104697644.236 8  81431688.299 8  19565195.969    19565194.680    19565202.262
     -1776.256       -1381.519          48.200          48.700



 118467280.402 7  92312360.11545  22543512.070                    22543521.434
     -1021.926        -796.308          44.700          32.900



 113694188.983 7  88428910.984 7  21276295.148    21276295.695    21276306.441
      2358.881        1834.675          42.600          44.400



 110818483.381 8  86352149.60846  21088036.031                    21088044.953
      -598.589        -466.427          49.200          37.500



 129513249.706 6 100732530.387 6  24185733.914    24185733.168    24185764.242
     -2202.717       -1713.318          36.300          38.000



 116297319.744 7  90621373.86745  22130629.609                    22130640.695
      1431.953        1115.808          46.100          32.600



 109794158.203 8  85554166.13147  20893048.094                    20893059.434
     -1936.206       -1508.732          49.600          42.600    81989383.570 9
  20893059.469       -1445.864          54.300


 119973861.359 7  93486297.77145  22830227.328                    22830243.379
      3288.396        2562.379          44.200          31.500



 133726288.781 6 104202661.67442  25447325.156                    25447362.668
      -460.699        -359.025          36.700          17.800



 106192051.107 8  82747287.03247  20207598.188                    20207606.156
       471.885         367.702          48.200          43.700



 128574190.852 6 100002165.710 6  24052462.633    24052462.176    24052477.570
     -1742.683       -1355.363          36.900          38.100



 145248574.600 6                  27639934.000
     -1406.657                          39.800                   108464820.825 6
  27639973.734       -1050.411          41.400   111294342.072 6  27639968.621
     -1077.813          39.700   109879592.562 7  27639971.305       -1064.118
        44.400
 144211602.223 6                  27442535.391
      2745.260                          40.100                   107690642.966 6
  27442561.172        2050.007          40.200   110499941.036 7  27442557.844
      2103.480          42.000   109095088.106 7  27442559.711        2076.747
        45.400
 196195772.161 7                  37334808.922
        -1.086                          43.700                   146509736.283 7
  37334809.813          -0.931          45.400


 200645250.632 7                  38181515.219
        -4.061                          44.600                   149832451.391 7
  38181516.180          -3.008          47.300


 213739100.285 6                  40673172.406
        -1.692                          37.400                   159610358.268 6
  40673172.523          -1.336          39.000


 200901735.796 6                  38230333.344
         2.058                          39.200



