     2.10           OBSERVATION DATA    M (MIXED)           RINEX VERSION / TYPE
                                        20130318 203115 UTC PGM / RUN BY / DATE 
GPSTSubBD2T 20739                                           COMMENT             
P206                                                        MARKER NAME         
                                                            MARKER NUMBER       
                                                            OBSERVER / AGENCY   
                                                            REC # / TYPE / VERS 
                                                            ANT # / TYPE        
 -2605664.2063  4741930.2998  3365930.5378                  APPROX POSITION XYZ 
        0.0000        0.0000        0.0000                  ANTENNA: DELTA H/E/N
     1     1                                                WAVELENGTH FACT L1/2
     6    C1    L1    D1    P2    L2    D2                  # / TYPES OF OBSERV 
    15.000                                                  INTERVAL            
  2013     3    17     1    10   12.0000000     GPS         TIME OF FIRST OBS   
                                                            END OF HEADER       
 13  3 17  1 11 30.0000000  0 22G02G05G08G29G26G15G09R02R12R11R01R24
                                R17C01C02C03C04C10C06C07C08C09
  21829964.49307 114717227.81107     -2641.588    21829964.57407  89390039.31607
     -2058.385  
  21428146.99807 112605663.60007     -1167.786    21428146.66707  87744671.72407
      -909.964  
  24064760.56906 126461164.33506      -603.230    24064763.06706  98541180.29206
      -470.051  
  21883123.26007 114996582.90707      -610.055    21883123.18207  89607727.32607
      -475.370  
  19806596.90108 104084369.41708      -661.336    19806596.77107  81104702.69807
      -515.327  
  20718974.07508 108878947.31808      1606.246    20718973.48607  84840739.12107
      1251.620  
  22397825.35207 117701379.40907      2886.248    22397828.09407  91715376.02407
      2249.026  
  20616221.78407 110012107.97907       471.562    20616225.59607  85564993.48107
       366.770  
  22927735.39106 122475880.29106      3531.901    22927744.24806  95259047.06006
      2747.039  
  22090532.07906 118045115.85906       933.674    22090537.74506  91812893.05806
       726.193  
  21342565.13507 114088236.23807     -1906.752    21342570.45007  88735307.53607
     -1483.033  
  20851377.72807 111501671.44307     -3467.246    20851379.91107  86723528.12707
     -2696.750  
  20183548.68707 108006244.92307       593.403    20183549.75408  84004858.40408
       461.534  
  37380285.51708  -1169752.53408        29.874    37380280.35707  -1153825.58707
        25.044  
  38347672.24607  -1180821.55607        40.061    38347668.05407  -1159625.12907
        26.382  
  37132836.72408  -1141154.87208         8.605    37132833.60707  -1129098.68007
         6.085  
  38469448.87507  -1142515.73707         8.302    38469448.26707  -1131514.82107
         6.015  
  40135837.76906  -2914540.83806      1595.544    40135841.10506  -2484610.77406
      1229.407  
  36120349.22608  -1360568.16008       213.741    36120344.80507  -1299046.92807
       166.017  
  38231272.46107  -3150486.69807      1631.289    38231268.34507  -2678305.34807
      1260.687  
  40341729.90307   1065799.76307     -1758.265    40341728.94906    579241.06606
     -1359.036  
  37130541.04608  -1403753.50508       259.067    37130540.32707  -1330869.74307
       201.226  
 13  3 17  1 11 45.0000000  0 22G02G05G08G29G26G15G09R02R12R11R01R24
                                R17C01C02C03C04C10C06C07C08C09
  21837513.30307 114756897.25507     -2647.892    21837513.42907  89420950.53707
     -2063.295  
  21431483.24907 112623196.17607     -1170.172    21431482.99307  87758333.45207
      -911.823  
  24066493.99406 126470273.29506      -611.563    24066496.68806  98548278.15706
      -476.545  
  21884877.44407 115005801.70507      -619.249    21884877.66207  89614910.78407
      -482.534  
  19808499.27008 104094366.05808      -671.727    19808499.08207  81112492.28007
      -523.425  
  20714400.24308 108854911.32808      1598.291    20714399.73307  84822009.77407
      1245.421  
  22389594.44207 117658125.79607      2880.831    22389597.11906  91681671.96006
      2244.807  
  20614900.95407 110005059.53707       468.081    20614904.64107  85559511.36807
       364.063  
  22917821.06106 122422921.03106      3529.018    22917829.66706  95217856.61306
      2744.798  
  22087927.84506 118031199.63706       921.861    22087933.46206  91802069.35106
       717.004  
  21347917.01707 114116845.11007     -1907.736    21347922.56707  88757558.84607
     -1483.796  
  20861114.95107 111553740.08907     -3475.369    20861117.17207  86764025.92707
     -2703.067  
  20181904.75407 107997447.60607       579.563    20181905.74508  83998016.03308
       450.770  
  37380192.28208  -1170239.47608        31.891    37380186.43807  -1154202.09807
        23.666  
  38347555.39907  -1181428.87607        39.243    38347551.53107  -1160094.70407
        27.042  
  37132806.29908  -1141313.71108         8.620    37132803.15607  -1129221.45707
         6.059  
  38469419.02607  -1142672.03107         9.516    38469417.86507  -1131635.64607
         7.816  
  40131239.41906  -2938481.06106      1595.984    40131243.26506  -2503122.76806
      1234.089  
  36119724.40608  -1363820.23808       216.037    36119720.13607  -1301561.61607
       165.437  
  38226569.17307  -3174976.35807      1628.085    38226565.23407  -2697242.25507
      1259.130  
  40346785.88707   1092128.71207     -1756.341    40346785.73506    599600.28206
     -1356.530  
  37129785.98008  -1407687.78908       262.772    37129784.97607  -1333911.95607
       200.752  
 13  3 17  1 12  0.0000000  0 22G02G05G08G29G26G15G09R02R12R11R01R24
                                R17C01C02C03C04C10C06C07C08C09
  21845080.19807 114796661.45407     -2654.191    21845080.37007  89451935.57007
     -2068.204  
  21434826.53907 112640765.15107     -1172.701    21434826.39207  87772023.54207
      -913.794  
  24068252.13506 126479513.13306      -620.344    24068255.06106  98555477.98406
      -483.389  
  21886657.82707 115015158.38007      -628.571    21886658.32107  89622201.65707
      -489.797  
  19810431.34208 104104519.19208      -682.236    19810431.13607  81120403.79307
      -531.613  
  20709848.94607 108830994.67607      1590.269    20709848.72307  84803373.41907
      1239.171  
  22381378.41507 117614950.32307      2875.530    22381381.02006  91648028.73806
      2240.673  
  20613589.78407 109998062.49907       464.563    20613593.25707  85554069.20307
       361.325  
  22907914.57506 122370002.96606      3526.192    22907922.83306  95176698.17906
      2742.598  
  22085357.08806 118017462.60606       909.708    22085362.52006  91791385.01206
       707.552  
  21353271.57007 114145467.51107     -1908.840    21353276.84906  88779820.68706
     -1484.655  
  20870874.65707 111605929.32407     -3483.397    20870876.82307  86804617.50307
     -2709.311  
  20180299.59108 107988856.88608       565.660    20180300.44808  83991334.34508
       439.957  
  37380096.45808  -1170737.07408        32.450    37380090.84107  -1154586.84307
        28.680  
  38347437.15307  -1182046.55407        41.996    38347433.61407  -1160572.30207
        30.164  
  37132773.30108  -1141483.35908        12.549    37132770.12907  -1129352.62707
         9.250  
  38469386.37607  -1142838.71507        12.048    38469385.27407  -1131764.49107
        10.653  
  40126640.85206  -2962430.13106      1596.496    40126644.24406  -2521641.63606
      1239.131  
  36119096.25808  -1367093.17908       218.558    36119091.94107  -1304092.42707
       168.367  
  38221867.46307  -3199458.89407      1631.386    38221863.63307  -2716173.67107
      1262.356  
  40351836.95407   1118433.20407     -1751.370    40351837.98206    619940.50506
     -1358.222  
  37129025.96108  -1411646.35708       263.092    37129024.61107  -1336972.94107
       205.788  
 13  3 17  1 12 15.0000000  0 22G02G05G08G29G26G15G09R02R12R11R01R24
                                R17C01C02C03C04C10C06C07C08C09
  21852664.09007 114836515.24307     -2659.989    21852664.35507  89482990.42407
     -2072.722  
  21438175.78507 112658365.46007     -1174.544    21438175.76507  87785738.03607
      -915.231  
  24070034.27206 126488878.50906      -628.711    24070037.16306  98562775.68506
      -489.906  
  21888463.61607 115024647.76507      -637.046    21888464.19607  89629595.97607
      -496.401  
  19812392.19108 104114823.57808      -692.132    19812391.99807  81128433.17107
      -539.325  
  20705319.38207 108807192.28607      1582.879    20705319.38607  84784826.10407
      1233.412  
  22373176.37307 117571848.29507      2870.961    22373178.84906  91614442.78106
      2237.115  
  20612287.30307 109991111.76807       461.753    20612290.72607  85548663.07107
       359.140  
  22898014.91606 122317121.36506      3524.204    22898022.97206  95135568.14706
      2741.053  
  22082818.91606 118003899.81506       898.312    22082824.22006  91780836.21906
       698.691  
  21358627.54207 114174098.23307     -1909.188    21358632.70807  88802088.98707
     -1484.927  
  20880655.69107 111658233.76007     -3490.913    20880658.13407  86845298.67407
     -2715.158  
  20178731.94108 107980467.92708       552.460    20178732.95108  83984809.58508
       429.690  
  37380002.61908  -1171226.63808        28.108    37379996.85907  -1154965.38007
        22.388  
  38347319.99207  -1182655.87807        40.564    38347316.69007  -1161043.42707
        32.400  
  37132742.24808  -1141645.18308         7.089    37132739.29707  -1129477.71807
         5.030  
  38469356.31407  -1142997.13307         8.626    38469355.50407  -1131887.00307
         7.062  
  40122043.65506  -2986369.45206      1593.655    40122046.14106  -2540152.94706
      1233.067  
  36118467.05308  -1370368.33208       215.059    36118462.83207  -1306624.95007
       165.695  
  38217170.56007  -3223915.47407      1626.269    38217167.09907  -2735084.98507
      1256.943  
  40356887.58007   1144731.78107     -1755.177    40356888.25506    640276.15306
     -1356.819  
  37128264.52808  -1415610.55508       261.177    37128263.07707  -1340038.27507
       203.949  
 13  3 17  1 12 30.0000000  0 22G02G05G08G29G26G15G09R02R12R11R01R24
                                R17C01C02C03C04C10C06C07C08C09
  21860265.01807 114876458.59007     -2665.753    21860265.48107  89514115.06807
     -2077.212  
  21441530.87407 112675997.15007     -1176.648    21441530.96407  87799476.98907
      -916.869  
  24071840.45906 126498369.69806      -637.110    24071843.06606  98570171.38606
      -496.452  
  21890294.62507 115034269.92607      -645.987    21890295.31707  89637093.73607
      -503.368  
  19814381.81808 104125279.14608      -702.009    19814381.67507  81136580.36007
      -547.020  
  20700811.65607 108783504.33907      1575.436    20700811.80607  84766367.98807
      1227.615  
  22364988.40107 117528820.29407      2866.055    22364990.82506  91580914.51806
      2233.294  
  20610993.40708 109984207.27708       458.741    20610996.88507  85543292.90307
       356.798  
  22888122.16706 122264277.17206      3522.133    22888129.92306  95094467.16306
      2739.443  
  22080313.41806 117990511.99606       886.506    22080318.80506  91770423.49806
       689.507  
  21363985.21107 114202737.33107     -1909.524    21363990.42207  88824363.82407
     -1485.186  
  20890458.19307 111710652.82607     -3498.314    20890460.94707  86886069.00607
     -2720.914  
  20177201.93508 107972280.76208       539.049    20177203.11608  83978441.76608
       419.259  
  37379905.78208  -1171729.89108        32.216    37379900.06507  -1155354.49307
        25.991  
  38347200.12007  -1183278.57107        39.021    38347196.74907  -1161524.91407
        31.160  
  37132708.24008  -1141820.84408        11.698    37132705.51707  -1129613.50907
         7.452  
  38469323.82807  -1143169.05807         8.636    38469322.15607  -1132019.87807
        10.723  
  40117444.81607  -3010320.41607      1595.610    40117447.04706  -2558673.24506
      1233.829  
  36117833.42808  -1373667.35508       219.610    36117828.85307  -1309175.94607
       169.269  
  38212475.44107  -3248367.82207      1627.933    38212471.03407  -2753993.04607
      1261.221  
  40361932.89007   1171002.56007     -1752.454    40361933.58806    660590.34506
     -1351.563  
  37127498.14708  -1419602.00608       265.210    37127496.75007  -1343124.67907
       204.019  
 13  3 17  1 12 45.0000000  0 22G02G05G08G29G26G15G09R02R12R11R01R24
                                R17C01C02C03C04C10C06C07C08C09
  21867883.50807 114916494.02307     -2672.331    21867884.09107  89545311.43507
     -2082.339  
  21444892.47807 112693662.72307     -1179.046    21444892.56107  87813242.33507
      -918.739  
  24073671.15006 126507989.38506      -646.150    24073673.32906  98577667.18906
      -503.498  
  21892151.29207 115044027.21707      -655.298    21892152.05607  89644696.78807
      -510.623  
  19816400.70208 104135888.35108      -712.601    19816400.57307  81144847.25307
      -555.274  
  20696326.29208 108759933.68808      1567.230    20696326.45707  84748001.24107
      1221.219  
  22356815.09807 117485869.39307      2860.751    22356817.47806  91547446.31106
      2229.158  
  20609708.64807 109977351.45007       455.172    20609712.03107  85537960.58507
       354.023  
  22878237.07906 122211473.52106      3518.618    22878245.12306  95053397.74506
      2736.709  
  22077841.10306 117977301.65106       874.590    22077846.58406  91760148.79006
       680.237  
  21369344.97107 114231387.12707     -1910.539    21369350.01606  88846646.96506
     -1485.976  
  20900282.59907 111763188.61407     -3506.513    20900285.37107  86926930.10907
     -2727.292  
  20175710.18608 107964298.24208       525.138    20175711.37108  83972233.11208
       408.439  
  37379811.34708  -1172219.17108        34.342    37379806.28307  -1155732.80107
        27.452  
  38347083.36307  -1183886.92207        42.607    38347080.11207  -1161995.30907
        31.317  
  37132677.61308  -1141982.71108        11.629    37132674.61707  -1129738.63207
         8.564  
  38469292.78107  -1143326.74007        11.716    38469291.43207  -1132141.79807
         6.963  
  40112848.15007  -3034255.44307      1593.568    40112850.66506  -2577181.21306
      1233.713  
  36117200.58708  -1376962.52108       221.537    36117196.39907  -1311723.94907
       173.001  
  38207785.96407  -3272788.21307      1626.915    38207782.11807  -2772876.39207
      1258.463  
  40366977.27707   1197273.24107     -1750.329    40366978.36606    680904.43706
     -1353.973  
  37126730.90708  -1423593.06908       266.526    37126730.48707  -1346210.80507
       207.291  
 13  3 17  1 13  0.0000000  0 23G02G05G08G29G26G15G09R02R12R11R01R24
                                R17R03C01C02C03C04C10C06C07C08C09
  21875519.46707 114956620.83407     -2678.271    21875519.95807  89576579.03007
     -2086.968  
  21448260.53307 112711361.87207     -1180.959    21448260.68007  87827033.85507
      -920.229  
  24075525.99406 126517737.07606      -654.146    24075528.22806  98585262.72206
      -509.731  
  21894033.80507 115053919.07007      -663.943    21894034.23307  89652404.72107
      -517.359  
  19818448.64608 104146650.52608      -722.657    19818448.57107  81153233.34207
      -563.110  
  20691863.23807 108736479.88107      1559.692    20691863.23607  84729725.53907
      1215.344  
  22348656.48007 117442995.60007      2855.770    22348658.80507  91514038.19507
      2225.279  
  20608432.89007 109970543.73207       452.328    20608436.05107  85532665.69407
       351.811  
  22868359.59206 122158710.48906      3516.353    22868368.43706  95012359.90906
      2734.947  
  22075402.16306 117964268.87606       862.932    22075407.33106  91750012.20706
       671.170  
  21374706.28507 114260047.25407     -1911.015    21374711.31706  88868938.11906
     -1486.348  
  20910128.81507 111815840.31407     -3513.983    20910131.34007  86967881.38407
     -2733.101  
  20174256.79008 107956520.01508       511.710    20174257.73908  83966183.36908
       397.997  
  23273449.48005 124584602.30205      2102.189    23273453.88706  96899146.48706
      1635.036  
  37379716.58108  -1172713.83108        36.985    37379711.20807  -1156115.28107
        26.373  
  38346965.44507  -1184500.27207        41.624    38346962.29007  -1162469.56007
        34.958  
  37132645.66208  -1142150.03908        14.185    37132642.27907  -1129868.00907
         9.079  
  38469261.58507  -1143489.53307        12.689    38469260.81907  -1132267.63507
         8.264  
  40108251.12407  -3058193.84307      1594.005    40108253.19906  -2595691.80406
      1239.641  
  36116564.54208  -1380273.15108       221.579    36116560.49707  -1314283.90007
       171.851  
  38203097.84607  -3297195.82707      1627.561    38203094.96907  -2791749.86007
      1259.246  
  40372019.13507   1223524.49907     -1745.689    40372020.03206    701203.53606
     -1354.785  
  37125961.56108  -1427603.11408       271.567    37125959.74807  -1349311.58007
       209.989  
 13  3 17  1 13 15.0000000  0 23G02G05G08G29G26G15G09R02R12R11R01R24
                                R17R03C01C02C03C04C10C06C07C08C09
  21883172.93907 114996839.10607     -2684.708    21883173.16707  89607917.88707
     -2091.984  
  21451635.06007 112729094.82907     -1183.622    21451635.27607  87840851.71007
      -922.305  
  24077405.15606 126527613.11106      -662.918    24077407.76806  98592958.26506
      -516.566  
  21895941.98707 115063945.69607      -673.230    21895942.21107  89660217.65507
      -524.597  
  19820525.70408 104157565.75408      -733.183    19820525.73208  81161738.70608
      -571.312  
  20687422.44807 108713143.05807      1551.542    20687422.32007  84711541.00307
      1208.994  
  22340512.64707 117400199.61507      2850.384    22340515.05207  91480690.69907
      2221.080  
  20607166.31208 109963784.33308       448.695    20607169.30207  85527408.37607
       348.984  
  22858490.06006 122105988.97706      3512.964    22858499.62006  94971354.35906
      2732.310  
  22072996.64006 117951414.19806       850.738    22073001.18906  91740014.13206
       661.685  
  21380069.75207 114288718.08807     -1912.043    21380074.71507  88891237.61707
     -1487.148  
  20919996.62507 111868607.55707     -3521.933    20919998.91007  87008922.52007
     -2739.286  
  20172841.51308 107948946.33508       497.776    20172842.45008  83960292.71808
       387.159  
  23267561.65005 124553088.25605      2099.144    23267567.09406  96874635.55906
      1632.664  
  37379621.34707  -1173210.95907        32.172    37379616.06807  -1156499.65407
        24.673  
  38346847.03707  -1185115.74507        39.518    38346843.82407  -1162945.45807
        30.634  
  37132612.63908  -1142320.04408         9.919    37132609.33907  -1129999.41407
         8.719  
  38469229.99407  -1143654.59307        11.462    38469228.95207  -1132395.23507
         8.527  
  40103653.92307  -3082132.49107      1595.647    40103656.30906  -2614202.57006
      1232.011  
  36115926.68108  -1383596.30508       220.287    36115922.44607  -1316853.54507
       172.870  
  38198413.71007  -3321587.76007      1624.914    38198410.08607  -2810611.20507
      1258.321  
  40377056.87006   1249759.02806     -1748.831    40377057.75806    721489.66306
     -1350.721  
  37125188.18708  -1431629.20508       267.814    37125186.37207  -1352424.78007
       205.967  
 13  3 17  1 13 30.0000000  0 23G02G05G08G29G26G15G09R02R12R11R01R24
                                R17R03C01C02C03C04C10C06C07C08C09
  21890844.11407 115037150.66407     -2690.101    21890844.13807  89639329.43207
     -2096.186  
  21455016.44307 112746863.50807     -1185.438    21455016.54007  87854697.42507
      -923.719  
  24079309.24506 126537619.28806      -670.974    24079312.07506  98600755.25706
      -522.839  
  21897875.99207 115074108.73507      -681.760    21897876.27807  89668136.88207
      -531.243  
  19822632.23408 104168635.73908      -742.698    19822632.33708  81170364.66508
      -578.727  
  20683004.16107 108689925.32907      1544.125    20683004.10207  84693449.27207
      1203.215  
  22332383.96507 117357483.76707      2845.453    22332386.49207  91447405.67407
      2217.239  
  20605909.03507 109957075.06807       446.079    20605912.07007  85522190.05307
       346.950  
  22848628.61606 122053311.44806      3510.526    22848638.82206  94930383.05606
      2730.417  
  22070624.90206 117938739.84206       839.322    22070629.10806  91730156.31906
       652.807  
  21385435.44507 114317401.17707     -1912.214    21385440.58107  88913546.65007
     -1487.280  
  20929886.27707 111921491.56607     -3528.957    20929888.29507  87050054.48707
     -2744.748  
  20171464.79207 107941579.40107       484.521    20171466.04308  83954562.84908
       376.847  
  23261677.35605 124521611.32305      2098.133    23261685.92706  96850153.52206
      1631.882  
  37379527.03508  -1173702.71808        35.200    37379521.72007  -1156879.89207
        29.265  
  38346729.96207  -1185725.54907        44.001    38346727.16907  -1163416.97007
        28.846  
  37132580.81008  -1142484.81408        12.109    37132577.86907  -1130126.78707
        11.273  
  38469199.49907  -1143814.06307        11.422    38469198.17007  -1132518.51507
        10.388  
  40099058.16007  -3106063.62607      1596.277    40099060.69606  -2632707.54406
      1234.280  
  36115287.67208  -1386924.17908       222.506    36115283.26307  -1319426.83507
       172.596  
  38193734.06907  -3345956.07807      1624.857    38193731.32107  -2829454.28807
      1254.176  
  40382092.52006   1275984.55606     -1749.919    40382094.57506    741768.83706
     -1352.777  
  37124412.61908  -1435663.52908       270.376    37124411.61107  -1355544.34707
       210.867  
 13  3 17  1 13 45.0000000  0 23G02G05G08G29G26G15G09R02R12R11R01R24
                                R17R03C01C02C03C04C10C06C07C08C09
  21898531.97007 115077550.33207     -2696.385    21898531.97607  89670809.62207
     -2101.083  
  21458403.59607 112764662.71807     -1187.865    21458403.49707  87868566.91107
      -925.610  
  24081237.07906 126547750.63806      -680.091    24081240.31506  98608649.75606
      -529.946  
  21899834.88907 115084402.99307      -690.841    21899835.29907  89676158.33407
      -538.321  
  19824767.26208 104179855.22408      -753.160    19824767.40307  81179107.10207
      -586.879  
  20678607.62108 108666821.64408      1536.108    20678607.55807  84675446.39807
      1196.967  
  22324269.65607 117314843.31707      2840.005    22324272.13306  91414179.37706
      2212.993  
  20604660.08007 109950410.69307       442.578    20604663.17407  85517006.63107
       344.225  
  22838774.57806 122000673.38906      3507.526    22838784.66706  94889442.40006
      2728.080  
  22068285.92306 117926240.93806       827.197    22068290.27606  91720434.95806
       643.375  
  21390802.45607 114346091.32607     -1913.224    21390807.84007  88935861.16407
     -1488.065  
  20939796.86107 111974486.95807     -3536.957    20939798.66207  87091273.06907
     -2750.970  
  20170125.64607 107934414.11207       470.699    20170127.07108  83948989.82208
       366.097  
  23255803.26105 124490166.61105      2094.979    23255810.64406  96825696.57506
      1629.436  
  37379430.58308  -1174204.68308        32.854    37379424.78707  -1157268.01307
        23.737  
  38346611.21907  -1186345.18407        40.287    38346607.75807  -1163896.08307
        31.723  
  37132547.87908  -1142659.92708        11.457    37132544.22507  -1130262.16207
         8.603  
  38469166.82907  -1143983.45207         9.077    38469165.45207  -1132649.46907
         9.080  
  40094460.83607  -3130002.70807      1592.377    40094462.35706  -2651218.63306
      1232.070  
  36114644.79408  -1390272.28808       223.106    36114639.96507  -1322015.76807
       173.482  
  38189055.68807  -3370316.35407      1625.206    38189053.22707  -2848291.13507
      1255.824  
  40387125.09406   1302185.54406     -1749.540    40387127.22706    762029.05406
     -1349.097  
  37123633.48408  -1439721.62808       270.627    37123631.94807  -1358682.29807
       211.689  
 13  3 17  1 14  0.0000000  0 23G02G05G08G29G26G15G09R02R12R11R01R24
                                R17R03C01C02C03C04C10C06C07C08C09
  21906237.45607 115118042.29507     -2702.462    21906237.41907  89702361.76707
     -2105.817  
  21461797.38407 112782496.97707     -1189.906    21461797.17107  87882463.69907
      -927.202  
  24083189.81206 126558011.47806      -688.458    24083192.99206  98616645.17206
      -536.466  
  21901819.54307 115094832.64507      -699.739    21901820.25607  89684285.30207
      -545.253  
  19826931.52108 104191228.43508      -763.166    19826931.67108  81187969.34108
      -594.675  
  20674233.67407 108643836.52607      1528.599    20674233.64007  84657535.92607
      1191.117  
  22316170.73507 117272283.15007      2834.972    22316173.07507  91381015.64707
      2209.071  
  20603420.16007 109943795.26607       439.616    20603423.36207  85511861.30107
       341.924  
  22828928.71206 121948079.83406      3504.798    22828938.45506  94848536.40306
      2725.960  
  22065980.36006 117913922.24406       815.289    22065985.55406  91710853.77206
       634.114  
  21396171.87007 114374793.03907     -1913.641    21396177.18907  88958184.70107
     -1488.389  
  20949728.99607 112027597.63907     -3544.386    20949730.67707  87132581.32907
     -2756.747  
  20168825.06608 107927454.84608       457.285    20168826.53408  83943577.03908
       355.664  
  23249936.50405 124458758.26005      2092.461    23249943.37006  96801267.89206
      1627.474  
  37379337.25907  -1174691.25207        29.483    37379331.49107  -1157644.22007
        24.762  
  38346495.55007  -1186949.14707        36.282    38346491.29307  -1164363.08007
        30.420  
  37132516.73908  -1142819.83008         9.443    37132513.60107  -1130385.77707
         7.754  
  38469137.41907  -1144137.30907        11.998    38469136.38807  -1132768.39007
         4.186  
  40089867.35907  -3153924.00807      1597.633    40089868.79506  -2669715.97706
      1234.573  
  36114002.44908  -1393614.95508       222.221    36113998.12507  -1324600.49807
       170.246  
  38184383.92407  -3394642.90707      1617.563    38184382.31007  -2867101.93007
      1254.655  
  40392155.71606   1328387.54806     -1746.543    40392159.05606    782290.00006
     -1352.146  
  37122854.51808  -1443777.92608       270.399    37122852.91207  -1361818.85307
       208.657  
 13  3 17  1 14 15.0000000  0 23G02G05G08G29G26G15G09R02R12R11R01R24
                                R17R03C01C02C03C04C10C06C07C08C09
  21913959.88407 115158623.25507     -2708.588    21913959.78907  89733983.24607
     -2110.591  
  21465197.09107 112800363.13007     -1192.343    21465196.91907  87896385.35107
      -929.099  
  24085166.47406 126568398.54706      -696.998    24085169.52906  98624738.95106
      -543.119  
  21903829.35707 115105394.42907      -708.700    21903830.30107  89692515.24307
      -552.234  
  19829124.42108 104202752.03908      -773.499    19829124.49607  81196948.76707
      -602.726  
  20669881.64208 108620966.88008      1520.610    20669881.75707  84639715.43407
      1184.893  
  22308086.64807 117229800.66607      2829.287    22308088.76007  91347912.44807
      2204.642  
  20602189.03707 109937225.76207       436.232    20602192.05407  85506751.68507
       339.292  
  22819090.95106 121895528.23706      3501.731    22819099.80106  94807662.99606
      2723.573  
  22063708.20006 117901780.94706       803.219    22063713.82606  91701410.55706
       624.728  
  21401542.74107 114403502.94907     -1914.545    21401547.80806  88980514.59506
     -1489.093  
  20959681.78507 112080819.79907     -3552.059    20959683.43107  87173976.29307
     -2762.715  
  20167562.53107 107920698.80707       443.423    20167563.96708  83938322.31608
       344.884  
  23244075.70905 124427383.11305      2090.386    23244081.91106  96776864.96606
      1625.858  
  37379240.29107  -1175195.17207        32.674    37379234.52107  -1158033.86307
        24.835  
  38346376.21807  -1187570.02307        40.002    38346372.61607  -1164843.14407
        31.372  
  37132482.63608  -1142997.20208         8.727    37132479.44407  -1130522.89607
         8.555  
  38469104.66107  -1144308.18907         8.471    38469103.48507  -1132900.50107
         6.692  
  40085269.71506  -3177860.27906      1590.066    40085272.37306  -2688224.95206
      1236.795  
  36113355.51208  -1396984.93008       224.276    36113350.71007  -1327206.36607
       172.357  
  38179712.90907  -3418968.39707      1619.455    38179710.40307  -2885911.88007
      1253.058  
  40397182.27306   1354557.51906     -1741.286    40397184.46906    802526.24506
     -1352.375  
  37122069.68508  -1447865.14408       270.737    37122067.97207  -1364979.32807
       210.035  
 13  3 17  1 14 30.0000000  0 23G02G05G08G29G26G15G09R02R12R11R01R24
                                R17R03C01C02C03C04C10C06C07C08C09
  21921700.93207 115199302.62307     -2714.381    21921700.94307  89765681.37607
     -2115.106  
  21468604.68507 112818270.84707     -1194.639    21468604.48507  87910339.39007
      -930.889  
  24087168.89906 126578921.47806      -705.473    24087172.05506  98632938.57906
      -549.723  
  21905866.27807 115116097.84707      -717.493    21905867.16407  89700855.53607
      -559.086  
  19831347.69308 104214435.36708      -783.531    19831347.69107  81206052.64807
      -610.544  
  20665553.48008 108598222.33108      1512.785    20665553.72608  84621992.41608
      1178.793  
  22300019.15407 117187405.80607      2824.206    22300021.30807  91314877.53807
      2200.684  
  20600968.40107 109930711.69907       432.997    20600971.19707  85501685.19107
       336.775  
  22809262.90406 121843028.65506      3499.123    22809270.11906  94766830.06006
      2721.545  
  22061471.31106 117889826.92806       791.377    22061476.87906  91692112.99406
       615.516  
  21406917.04507 114432230.83307     -1915.134    21406921.64206  89002858.45406
     -1489.551  
  20969657.21207 112134162.69807     -3559.576    20969658.76607  87215465.14307
     -2768.563  
  20166339.69907 107914155.53407       429.712    20166341.12008  83933233.08508
       334.218  
  23238222.85505 124396050.96305      2088.271    23238228.36006  96752495.51806
      1624.215  
  37379146.94108  -1175681.44408        36.342    37379141.37607  -1158409.84007
        28.892  
  38346260.10307  -1188172.95807        45.044    38346256.62207  -1165309.33007
        35.068  
  37132452.14208  -1143157.07608        12.721    37132448.64007  -1130646.48007
        10.114  
  38469075.50807  -1144461.22607        12.308    38469073.60107  -1133018.81807
        12.425  
  40080676.62506  -3201776.36506      1599.171    40080679.00106  -2706718.23806
      1238.837  
  36112709.46508  -1400347.23508       227.659    36112704.77907  -1329806.27407
       176.839  
  38175048.44307  -3443257.74007      1622.943    38175045.75107  -2904693.88407
      1253.261  
  40402208.44606   1380730.57906     -1745.779    40402210.73806    822764.87606
     -1350.606  
  37121285.72008  -1451948.32108       275.971    37121284.22207  -1368136.66807
       212.404  
 13  3 17  1 14 45.0000000  0 23G02G05G08G29G26G15G09R02R12R11R01R24
                                R17R03C01C02C03C04C10C06C07C08C09
  21929457.66707 115240064.89807     -2720.224    21929457.85307  89797444.13307
     -2119.658  
  21472017.35307 112836204.59007     -1196.432    21472016.99107  87924313.70407
      -932.288  
  24089194.39306 126589564.86706      -713.529    24089197.43806  98641232.07406
      -556.002  
  21907927.12907 115126927.30607      -726.171    21907927.96307  89709294.06607
      -565.847  
  19833598.43908 104226262.87408      -793.304    19833598.37207  81215268.88107
      -618.160  
  20661246.33408 108575587.47708      1505.398    20661246.48507  84604354.86707
      1173.037  
  22291965.58607 117145083.58107      2819.141    22291967.71807  91281899.21507
      2196.735  
  20599755.12207 109924237.55407       430.427    20599758.11507  85496649.73507
       334.776  
  22799441.98306 121790566.23206      3496.258    22799448.68406  94726026.00506
      2719.315  
  22059266.37306 117878044.87606       779.699    22059272.15106  91682949.19206
       606.432  
  21412291.82607 114460960.94207     -1915.352    21412296.06106  89025204.06706
     -1489.720  
  20979652.29007 112187610.04107     -3566.607    20979653.71607  87257035.24907
     -2774.031  
  20165153.83907 107907809.62107       416.547    20165155.26908  83928297.34408
       323.979  
  23232375.50105 124364745.87705      2085.790    23232380.40906  96728147.10106
      1622.282  
  37379052.24907  -1176174.89007        37.839    37379046.62607  -1158791.37707
        29.661  
  38346143.25807  -1188782.70207        42.647    38346139.80407  -1165780.79407
        33.555  
  37132420.20208  -1143324.27108        15.645    37132416.82307  -1130775.73707
        10.395  
  38469044.24407  -1144621.21707        15.552    38469043.70507  -1133142.49207
        10.494  
  40076083.34606  -3225697.21206      1597.217    40076085.32506  -2725215.23106
      1234.310  
  36112060.38108  -1403726.66808       229.890    36112055.90707  -1332419.43307
       177.573  
  38170385.43507  -3467535.70707      1623.532    38170383.62707  -2923467.09507
      1254.915  
  40407230.03206   1406881.80706     -1738.205    40407233.04406    842986.57506
     -1343.067  
  37120497.46808  -1456052.28608       276.124    37120495.45307  -1371310.06907
       216.275  
 13  3 17  1 15  0.0000000  0 23G02G05G08G29G26G15G09R02R12R11R01R24
                                R17R03C01C02C03C04C10C06C07C08C09
  21937231.18907 115280915.41007     -2726.464    21937231.47607  89829275.64207
     -2124.521  
  21475436.02207 112854169.87107     -1198.869    21475435.59307  87938312.60007
      -934.185  
  24091243.94806 126600334.13806      -721.821    24091246.65906  98649623.67106
      -562.464  
  21910012.96207 115137887.95007      -735.157    21910013.74807  89717834.80207
      -572.851  
  19835877.62408 104238239.76108      -803.534    19835877.51108  81224601.51408
      -626.131  
  20656961.04108 108553067.76508      1497.347    20656961.07507  84586807.04307
      1166.763  
  22283926.93707 117102839.86307      2813.507    22283929.03607  91248982.06707
      2192.346  
  20598550.23207 109917808.43007       426.925    20598553.40007  85491649.30007
       332.052  
  22789629.13806 121738146.94006      3493.313    22789635.72006  94685255.52106
      2717.027  
  22057094.78206 117866440.61606       767.604    22057100.83206  91673923.67706
       597.027  
  21417667.79007 114489698.78707     -1916.350    21417672.08006  89047555.67906
     -1490.497  
  20989667.87507 112241166.85907     -3574.225    20989669.26707  87298690.50007
     -2779.956  
  20164005.80108 107901666.62908       402.699    20164007.26708  83923519.44708
       313.210  
  23226534.64605 124333473.40305      2083.228    23226539.74106  96703824.09106
      1620.291  
  37378954.69508  -1176681.20208        31.123    37378949.44807  -1159182.85907
        23.002  
  38346024.36807  -1189404.95407        34.446    38346019.88507  -1166261.93007
        28.846  
  37132385.32608  -1143504.49008         8.655    37132382.01307  -1130915.05607
         7.065  
  38469010.92907  -1144793.83707         6.478    38469010.43907  -1133275.94807
         5.755  
  40071486.64406  -3249628.20006      1592.060    40071488.36806  -2743720.11306
      1230.962  
  36111407.17408  -1407128.78708       224.401    36111402.88607  -1335050.15407
       171.979  
  38165724.51507  -3491807.98407      1612.974    38165721.80807  -2942235.90807
      1246.318  
  40412248.34106   1433005.38006     -1742.622    40412250.26106    863186.96306
     -1350.332  
  37119704.14708  -1460182.67008       273.104    37119702.47507  -1374503.90007
       211.781  
 13  3 17  1 15 15.0000000  0 23G02G05G08G29G26G15G09R02R12R11R01R24
                                R17R03C01C02C03C04C10C06C07C08C09
  21945021.81907 115321855.51507     -2732.137    21945022.16607  89861176.96007
     -2128.944  
  21478860.94607 112872168.31707     -1201.030    21478860.68007  87952337.33207
      -935.870  
  24093317.60806 126611231.03306      -730.764    24093319.92406  98658114.71706
      -569.427  
  21912124.02907 115148981.32507      -743.917    21912124.74907  89726478.95807
      -579.677  
  19838185.51708 104250367.52808      -813.516    19838185.33207  81234051.71307
      -633.909  
  20652697.97307 108530665.07907      1489.759    20652697.97107  84569350.40707
      1160.851  
  22275903.56307 117060676.77907      2808.265    22275905.62507  91216127.75007
      2188.260  
  20597354.10207 109911425.92007       424.016    20597357.26607  85486685.11607
       329.790  
  22779824.76406 121685773.19206      3490.187    22779831.47806  94644520.46306
      2714.594  
  22054956.94706 117855016.11206       755.709    22054963.06506  91665037.95706
       587.774  
  21423045.54107 114518445.81707     -1916.634    21423049.90706  89069914.44806
     -1490.717  
  20999704.10307 112294834.44807     -3581.436    20999705.56607  87340431.89507
     -2785.565  
  20162896.14507 107895728.37607       389.125    20162897.42108  83918900.77908
       302.651  
  23220699.61105 124302234.98105      2081.602    23220704.68006  96679527.50706
      1619.018  
  37378859.67908  -1177175.87308        31.470    37378854.63107  -1159565.32107
        24.013  
  38345906.91307  -1190015.21007        39.538    38345902.98007  -1166733.78707
        30.608  
  37132352.67808  -1143673.23408         8.664    37132349.37207  -1131045.51107
         8.612  
  38468980.23507  -1144954.62707         9.468    38468978.65407  -1133400.24207
         6.184  
  40066894.17306  -3273544.93806      1589.258    40066895.68206  -2762213.92606
      1233.458  
  36110754.13808  -1410529.20408       225.849    36110749.46007  -1337679.54907
       175.144  
  38161069.03407  -3516049.94007      1612.506    38161066.83207  -2960981.26407
      1249.349  
  40417263.62706   1459125.76806     -1742.117    40417265.65006    883384.84506
     -1352.196  
  37118910.79308  -1464315.02108       277.386    37118909.42107  -1377699.24807
       210.616  
 13  3 17  1 15 30.0000000  0 23G02G05G08G29G26G15G09R02R12R11R01R24
                                R17R03C01C02C03C04C10C06C07C08C09
  21952829.51007 115362884.90007     -2738.496    21952829.88207  89893147.85907
     -2133.896  
  21482292.16407 112890199.66807     -1203.390    21482292.15707  87966387.71207
      -937.709  
  24095415.42006 126622255.18706      -739.752    24095417.98706  98666704.90106
      -576.435  
  21914260.30107 115160207.06007      -753.232    21914260.94507  89735226.24507
      -586.938  
  19840522.05008 104262645.66108      -823.957    19840521.69307  81243619.07907
      -642.046  
  20648457.00307 108508379.24307      1481.583    20648457.21507  84551984.82707
      1154.480  
  22267895.51307 117018594.44407      2802.534    22267897.59007  91183336.36807
      2183.796  
  20596166.77707 109905089.68507       420.506    20596169.83407  85481756.93407
       327.058  
  22770029.02106 121633445.18006      3486.797    22770035.99606  94603820.98006
      2711.958  
  22052852.82006 117843771.31706       743.254    22052858.70206  91656292.02106
       578.087  
  21428424.73407 114547201.65707     -1917.740    21428429.53607  89092280.06007
     -1491.580  
  21009760.75507 112348611.77607     -3589.117    21009762.29107  87382258.65807
     -2791.541  
  20161824.75207 107889994.57307       375.146    20161825.83908  83914441.14908
       291.779  
  23214870.26205 124271030.46505      2078.763    23214874.72106  96655257.28806
      1616.808  
  37378764.30308  -1177672.98508        34.140    37378758.60207  -1159949.69807
        27.028  
  38345788.82607  -1190627.57107        41.987    38345785.44307  -1167207.26707
        33.297  
  37132320.03508  -1143844.58508        12.318    37132316.86507  -1131177.97207
        10.072  
  38468948.79507  -1145117.57507         9.658    38468947.69207  -1133526.21907
         5.270  
  40062300.69406  -3297461.28706      1593.966    40062302.84706  -2780707.54906
      1234.744  
  36110098.21708  -1413941.88608       227.745    36110093.90407  -1340318.42407
       174.805  
  38156417.70807  -3540275.65207      1616.161    38156414.86607  -2979714.06607
      1247.520  
  40422276.62406   1485228.77106     -1741.543    40422278.37006    903569.26206
     -1345.491  
  37118114.17108  -1468463.43308       277.768    37118112.20807  -1380907.04507
       215.493  
 13  3 17  1 15 45.0000000  0 23G02G05G08G29G26G15G09R18R02R12R11R01
                                R24R17C01C02C03C04C10C06C07C08C09
  21960653.93607 115404001.50907     -2744.041    21960654.23907  89925186.72707
     -2138.217  
  21485729.35607 112908262.16707     -1205.345    21485729.50507  87980462.38207
      -939.230  
  24097537.16506 126633404.78706      -747.273    24097540.14205  98675392.88105
      -582.294  
  21916421.35807 115171563.23307      -761.542    21916421.88007  89744075.18207
      -593.412  
  19842886.71208 104275072.16108      -833.352    19842886.24907  81253302.06507
      -649.365  
  20644237.92807 108486208.28007      1474.133    20644238.22107  84534708.76307
      1148.676  
  22259902.61807 116976591.54507      2797.448    22259904.68307  91150606.87207
      2179.832  
  23286666.46706 124305810.13806      3441.712    23286674.16706  96682319.61006
      2676.888  
  20594987.74907 109898797.79707       417.935    20594990.71707  85476863.22807
       325.059  
  22760241.33406 121581161.74606      3484.040    22760248.67306  94563156.17406
      2709.815  
  22050781.69006 117832704.45306       731.745    22050787.39506  91647684.49406
       569.138  
  21433805.38707 114575964.61707     -1917.770    21433810.48906  89114651.20906
     -1491.602  
  21019837.57307 112402496.59907     -3595.972    21019839.26707  87424169.02407
     -2796.870  
  20160791.13907 107884463.51507       361.902    20160792.25008  83910139.20108
       281.478  
  37378668.12708  -1178174.82308        32.637    37378662.42807  -1160337.71807
        25.791  
  38345670.23807  -1191244.31107        40.541    38345666.46707  -1167684.13707
        30.762  
  37132286.28308  -1144020.81608        11.356    37132283.09707  -1131314.20207
         8.777  
  38468916.25707  -1145284.99607        11.204    38468916.08907  -1133655.64207
         7.520  
  40057707.52106  -3321379.53806      1596.403    40057709.65206  -2799202.51506
      1230.591  
  36109440.32308  -1417369.15208       227.580    36109435.61907  -1342968.56707
       176.607  
  38151767.81307  -3564487.24707      1613.347    38151764.11507  -2998435.94707
      1248.391  
  40427285.71706   1511312.06806     -1739.577    40427288.00506    923738.49106
     -1346.745  
  37117313.69908  -1472630.12608       277.353    37117312.50907  -1384128.96807
       215.240  
 13  3 17  1 16  0.0000000  0 23G02G05G08G29G26G15G09R18R02R12R11R01
                                R24R17C01C02C03C04C10C06C07C08C09
  21968496.09107 115445212.05307     -2750.445    21968496.47707  89957298.77607
     -2143.208  
  21489173.83807 112926362.62307     -1207.928    21489173.87707  87994566.61407
      -941.244  
  24099683.84506 126644686.79006      -756.143    24099687.20006  98684184.01906
      -589.205  
  21918608.42707 115183056.59607      -770.637    21918608.87607  89753031.02407
      -600.499  
  19845280.83008 104287653.76008      -843.839    19845280.36407  81263105.90807
      -657.537  
  20640042.11708 108464159.30308      1466.052    20640042.33607  84517527.74507
      1142.378  
  22251926.31007 116934675.44807      2791.715    22251928.20706  91117944.99906
      2175.364  
  23277006.21305 124254246.43305      3433.875    23277013.56206  96642214.51406
      2670.792  
  20593818.17707 109892557.14507       414.406    20593821.25307  85472009.39207
       322.315  
  22750463.54406 121528930.52306      3480.395    22750471.14306  94522531.95406
      2706.978  
  22048745.29606 117821823.08406       719.406    22048750.96106  91639221.22906
       559.539  
  21439188.64207 114604741.62007     -1918.809    21439193.70106  89137033.30006
     -1492.409  
  21029935.71607 112456495.51107     -3603.614    21029937.63807  87466168.12807
     -2802.815  
  20159796.83607 107879142.38807       347.769    20159797.78108  83906000.53108
       270.486  
  37378572.73408  -1178670.39208        34.293    37378567.18407  -1160720.90007
        26.297  
  38345553.45507  -1191854.47507        40.172    38345549.47007  -1168155.91807
        33.491  
  37132253.15508  -1144190.97408        12.855    37132250.38707  -1131445.75507
         8.002  
  38468886.04407  -1145446.00207        12.465    38468884.80707  -1133780.12907
         9.358  
  40053114.85306  -3345288.69406      1592.635    40053115.95806  -2817690.52306
      1229.886  
  36108781.43508  -1420799.95108       230.243    36108777.07307  -1345621.46807
       177.841  
  38147122.52307  -3588673.72407      1611.500    38147119.37007  -3017138.41207
      1248.262  
  40432292.58606   1537386.53406     -1737.117    40432295.19506    943900.85506
     -1344.505  
  37116512.46608  -1476804.18408       279.988    37116510.93907  -1387356.58507
       218.400  
 13  3 17  1 16 15.0000000  0 23G02G05G08G29G26G15G09R18R02R12R11R01
                                R24R17C01C02C03C04C10C06C07C08C09
  21976355.39107 115486513.06207     -2756.256    21976355.78807  89989481.31707
     -2147.736  
  21492624.86607 112944497.74407     -1210.089    21492624.87507  88008697.85307
      -942.928  
  24101855.21606 126656097.65706      -764.958    24101858.88906  98693075.57506
      -596.071  
  21920820.87607 115194683.47107      -779.357    21920821.27707  89762090.89607
      -607.293  
  19847703.74208 104300386.84508      -853.781    19847703.27807  81273027.78007
      -665.285  
  20635868.88908 108442228.96008      1458.218    20635869.07007  84500439.16807
      1136.274  
  22243965.94207 116892843.17407      2786.044    22243967.68807  91085348.44607
      2170.945  
  23267365.99805 124202790.00005      3426.705    23267372.83206  96602192.84906
      2665.212  
  20592657.61708 109886364.24208       411.426    20592660.60307  85467192.68807
       319.997  
  22740694.77406 121476748.55406      3477.392    22740702.54606  94481946.05806
      2704.643  
  22046743.22707 117811124.16307       707.426    22046748.73106  91630899.83706
       550.221  
  21444573.74207 114633528.99307     -1919.477    21444578.81206  89159423.44306
     -1492.929  
  21040054.32907 112510604.36607     -3610.749    21040056.56607  87508252.74507
     -2808.364  
  20158841.03207 107874027.59707       334.257    20158842.05208  83902022.34508
       259.976  
  37378477.28008  -1179167.75808        29.385    37378471.24107  -1161105.46507
        24.610  
  38345435.81307  -1192466.06407        36.509    38345432.05007  -1168628.82007
        31.735  
  37132220.16508  -1144363.09208         9.152    37132217.13107  -1131578.82207
         7.462  
  38468854.54107  -1145608.50607         5.799    38468853.72207  -1133905.76107
        10.361  
  40048523.59506  -3369196.75506      1591.253    40048524.46706  -2836177.65806
      1233.694  
  36108120.15808  -1424242.31408       225.347    36108115.84107  -1348283.28807
       175.327  
  38142481.63107  -3612843.14207      1607.278    38142478.07607  -3035827.67107
      1241.918  
  40437295.74106   1563444.02206     -1738.044    40437299.90206    964050.10306
     -1348.026  
  37115707.65508  -1480993.59708       277.710    37115706.93007  -1390596.05907
       215.898  
 13  3 17  1 16 30.0000000  0 23G02G05G08G29G26G15G09R18R02R12R11R01
                                R24R17C01C02C03C04C10C06C07C08C09
  21984231.22607 115527901.36107     -2762.189    21984231.66707  90021731.89507
     -2152.357  
  21496081.90807 112962664.67607     -1212.381    21496082.00807  88022853.87307
      -944.714  
  24104050.63906 126667634.47606      -773.133    24104054.05506  98702065.26006
      -602.441  
  21923058.18007 115206440.97107      -788.209    21923058.65207  89771252.54307
      -614.191  
  19850154.99908 104313268.27408      -863.858    19850154.41007  81283065.24307
      -673.136  
  20631717.65308 108420414.31308      1450.311    20631717.84307  84483440.74707
      1130.113  
  22236020.98607 116851092.34407      2780.680    22236022.74207  91052815.35807
      2166.765  
  23257744.94306 124151438.48106      3419.806    23257753.04006  96562252.76106
      2659.849  
  20591505.44308 109880215.81708       408.365    20591508.42207  85462410.57907
       317.617  
  22730934.99406 121424613.52106      3473.977    22730942.74106  94441396.69106
      2701.990  
  22044774.81306 117800604.70806       695.449    22044780.05106  91622718.04206
       540.905  
  21449960.28607 114662323.77907     -1919.942    21449965.58906  89181819.32806
     -1493.292  
  21050192.87007 112564819.74807     -3617.933    21050195.31907  87550420.20307
     -2813.952  
  20157923.28908 107869116.45008       320.550    20157924.39908  83898202.52508
       249.314  
  37378380.45308  -1179670.15108        34.597    37378375.40407  -1161493.91007
        25.493  
  38345317.61807  -1193082.32107        38.893    38345313.55307  -1169105.31007
        28.467  
  37132186.13508  -1144540.36908        11.687    37132183.11207  -1131715.86407
         7.320  
  38468822.55607  -1145775.83607        10.034    38468821.05607  -1134035.13207
         8.816  
  40043932.06206  -3393106.72406      1592.583    40043933.96706  -2854666.23106
      1234.734  
  36107456.25308  -1427699.43608       229.925    36107452.26707  -1350956.54307
       176.274  
  38137842.27907  -3636998.61607      1611.222    38137838.82007  -3054506.16407
      1242.795  
  40442297.04806   1589481.19206     -1732.064    40442300.10006    984183.65306
     -1345.414  
  37114899.77208  -1485201.65908       281.054    37114898.40107  -1393849.98007
       215.698  
 13  3 17  1 16 45.0000000  0 23G02G05G08G29G26G15G09R18R02R12R11R01
                                R24R17C01C02C03C04C10C06C07C08C09
  21992124.00607 115569377.96907     -2768.136    21992124.31407  90054051.25907
     -2156.994  
  21499545.20707 112980864.34607     -1214.554    21499545.21807  88037035.41407
      -946.407  
  24106270.26406 126679298.32406      -782.040    24106273.59606  98711153.93406
      -609.381  
  21925320.44107 115218329.83607      -797.077    21925320.96507  89780516.57307
      -621.100  
  19852634.71908 104326298.91508      -873.728    19852634.11707  81293218.97307
      -680.828  
  20627588.75008 108398716.69208      1442.588    20627588.93608  84466533.51408
      1124.095  
  22228091.79507 116809424.48007      2775.066    22228093.58307  91020346.91707
      2162.391  
  23248144.59206 124100193.45706      3412.858    23248152.66306  96522395.48306
      2654.442  
  20590361.87207 109874112.92407       405.315    20590365.03607  85457663.88707
       315.245  
  22721184.12006 121372526.93906      3470.827    22721191.89506  94400884.99506
      2699.538  
  22042840.07006 117790266.07806       683.226    22042845.08306  91614676.89706
       531.399  
  21455348.70007 114691127.13207     -1920.606    21455353.97906  89204221.91206
     -1493.807  
  21060351.32407 112619142.21807     -3625.232    21060353.98807  87592670.95107
     -2819.629  
  20157043.73907 107864409.95907       306.814    20157044.93808  83894541.90708
       238.632  
  37378285.10408  -1180168.54708        30.467    37378279.42007  -1161879.27407
        19.841  
  38345199.29807  -1193694.28107        36.590    38345195.48807  -1169578.49007
        28.752  
  37132152.41608  -1144713.82408         7.539    37132149.52707  -1131849.95407
         8.042  
  38468791.07107  -1145938.96707         8.872    38468790.32907  -1134161.23407
         2.961  
  40039340.66906  -3417009.53906      1593.948    40039343.52206  -2873149.30406
      1230.298  
  36106791.23208  -1431162.24408       226.301    36106787.62207  -1353634.18107
       175.738  
  38133207.62707  -3661131.04707      1604.280    38133205.07407  -3073166.84507
      1240.962  
  40447295.06506   1615507.11506     -1735.635    40447298.05406   1004308.47006
     -1343.674  
  37114089.62508  -1489419.27708       277.535    37114088.65707  -1397111.24807
       214.027  
 13  3 17  1 17  0.0000000  0 23G02G05G08G29G26G15G09R18R02R12R11R01
                                R24R17C01C02C03C04C10C06C07C08C09
  22000033.74207 115610943.94607     -2774.328    22000034.03107  90086440.28507
     -2161.816  
  21503014.98707 112999097.95707     -1216.779    21503014.83207  88051243.40607
      -948.140  
  24108514.20506 126691090.32106      -790.700    24108517.38806  98720342.49206
      -616.129  
  21927608.02307 115230351.21707      -805.998    21927608.38007  89789883.85507
      -628.051  
  19855143.04008 104339479.92908      -883.877    19855142.53207  81303489.88007
      -688.735  
  20623482.34108 108377137.30408      1434.643    20623482.52007  84449718.41407
      1117.905  
  22220178.51907 116767841.22707      2769.385    22220180.52107  90987944.41707
      2157.965  
  23238565.22106 124049056.66906      3405.592    23238573.15706  96482622.45806
      2648.797  
  20589226.99607 109868056.68207       402.062    20589230.12707  85452953.46407
       312.714  
  22711442.73106 121320490.92906      3467.133    22711450.41006  94360412.63106
      2696.665  
  22040939.36106 117780109.89306       671.050    22040944.20906  91606777.64206
       521.927  
  21460738.91807 114719940.22907     -1921.424    21460743.97906  89226632.05606
     -1494.443  
  21070529.85307 112673572.33407     -3632.359    21070532.81007  87635005.42707
     -2825.172  
  20156202.63107 107859909.58707       292.961    20156204.01408  83891041.59208
       227.857  
  37378188.58808  -1180668.83708        35.710    37378183.38107  -1162266.09407
        26.938  
  38345082.01207  -1194307.70907        43.202    38345078.44107  -1170052.79607
        33.812  
  37132118.91008  -1144889.29408        12.416    37132116.04607  -1131985.61407
        10.238  
  38468758.93307  -1146103.70707        10.699    38468758.11307  -1134288.58607
         8.090  
  40034750.99306  -3440911.07706      1596.246    40034753.42106  -2891631.42806
      1235.312  
  36106124.16908  -1434636.61808       232.610    36106120.19907  -1356320.76107
       180.787  
  38128576.33207  -3685246.27507      1605.623    38128573.61307  -3091814.20207
      1244.485  
  40452290.25506   1641515.71506     -1730.682    40452291.82606   1024419.90506
     -1340.733  
  37113276.98208  -1493652.34508       282.354    37113275.51007  -1400384.48907
       220.909  
 13  3 17  1 17 15.0000000  0 23G02G05G08G29G26G15G09R18R02R12R11R01
                                R24R17C01C02C03C04C10C06C07C08C09
  22007960.55307 115652599.57207     -2780.027    22007960.76307  90118899.16007
     -2166.257  
  21506491.44007 113017366.22207     -1218.937    21506491.21507  88065478.39907
      -949.822  
  24110782.50706 126703010.89406      -798.667    24110785.61306  98729631.24706
      -622.336  
  21929920.95207 115242505.46707      -814.656    21929921.24707  89799354.68207
      -634.797  
  19857679.93808 104352811.44908      -893.763    19857679.63407  81313878.06707
      -696.439  
  20619398.57908 108355676.61008      1426.919    20619398.68208  84432995.80008
      1111.886  
  22212281.52607 116726343.51107      2763.604    22212283.79207  90955608.56207
      2153.461  
  23229006.49506 123998029.04906      3397.907    23229014.10406  96442934.36106
      2642.822  
  20588100.87907 109862047.53907       398.987    20588103.77107  85448279.67107
       310.323  
  22701710.94706 121268506.40206      3463.905    22701718.40106  94319980.30906
      2694.155  
  22039073.03206 117770136.78306       658.815    22039077.90306  91599020.79206
       512.414  
  21466131.14707 114748763.39107     -1921.871    21466135.88106  89249050.04006
     -1494.790  
  21080728.58807 112728110.34807     -3639.366    21080731.62107  87677423.84207
     -2830.620  
  20155400.16707 107855615.65807       279.498    20155401.74608  83887701.84508
       217.386  
  37378091.77408  -1181172.08508        31.919    37378086.07707  -1162655.22407
        24.266  
  38344963.73607  -1194923.79907        38.066    38344959.80807  -1170529.18507
        31.751  
  37132084.66508  -1145067.92008         9.463    37132081.51307  -1132123.70607
         6.215  
  38468727.14107  -1146271.27307         9.754    38468725.67207  -1134418.12007
         6.111  
  40030161.29206  -3464812.30806      1596.855    40030163.19406  -2910113.29706
      1234.671  
  36105454.30108  -1438123.66708       229.016    36105451.19107  -1359017.14407
       178.923  
  38123947.61407  -3709345.30507      1605.744    38123945.92807  -3110449.05707
      1241.731  
  40457282.06906   1667505.88206     -1730.929    40457284.74106   1044517.10206
     -1340.902  
  37112461.09908  -1497902.03408       283.277    37112459.57007  -1403670.59207
       218.016  
 13  3 17  1 17 30.0000000  0 23G02G05G08G29G26G15G09R18R02R12R11R01
                                R24R17C01C02C03C04C10C06C07C08C09
  22015904.10207 115694342.78007     -2785.746    22015904.17407  90151426.28107
     -2170.715  
  21509973.91507 113035666.97207     -1221.181    21509973.85107  88079738.69307
      -951.571  
  24113074.96506 126715058.09906      -807.598    24113078.21006  98739018.64806
      -629.297  
  21932258.73307 115254790.27007      -823.425    21932259.16107  89808927.21907
      -641.632  
  19860245.08408 104366291.20908      -903.631    19860244.88107  81324381.76107
      -704.128  
  20615336.97708 108334332.49308      1418.985    20615336.99007  84416364.01707
      1105.704  
  22204400.51707 116684929.67707      2757.949    22204403.08607  90923338.06907
      2149.053  
  23219467.79706 123947108.97706      3390.925    23219475.10806  96403329.88606
      2637.386  
  20586982.99407 109856083.17207       395.927    20586985.70007  85443640.71807
       307.944  
  22691988.69006 121216571.85906      3460.718    22691996.09606  94279586.84806
      2691.675  
  22037240.72406 117760345.14806       646.715    22037245.52106  91591405.07506
       503.001  
  21471524.53007 114777594.40507     -1922.334    21471529.28706  89271474.13306
     -1495.150  
  21090947.07307 112782753.37307     -3646.428    21090949.99607  87719923.92807
     -2836.114  
  20154635.91307 107851526.43107       265.745    20154637.65508  83884521.30408
       206.689  
  37377996.39608  -1181667.81508        33.851    37377990.87607  -1163038.52607
        27.343  
  38344846.77307  -1195532.03007        40.761    38344843.12707  -1170999.45407
        34.415  
  37132051.52808  -1145239.16208        12.373    37132048.50207  -1132256.09707
        11.301  
  38468696.46307  -1146431.06907        11.622    38468695.16407  -1134541.66907
         4.904  
  40025573.85806  -3488702.73706      1593.793    40025576.24406  -2928586.76406
      1229.832  
  36104784.24608  -1441612.74608       233.614    36104781.19907  -1361715.08907
       178.730  
  38119325.13107  -3733417.61107      1607.560    38119322.93407  -3129063.22907
      1241.375  
  40462270.46906   1693488.06406     -1728.013    40462272.81006   1064608.12406
     -1341.206  
  37111643.98308  -1502157.69908       285.873    37111642.02507  -1406961.29607
       220.109  
 13  3 17  1 17 45.0000000  0 24G02G05G08G29G26G15G09R18R02R12R11R01
                                R24R17R03C01C02C03C04C10C06C07C08C09
  22023864.04707 115736172.54207     -2791.381    22023864.13807  90184020.83707
     -2175.105  
  21513462.42907 113053999.36707     -1222.977    21513462.38807  88094023.65407
      -952.970  
  24115391.50006 126727231.04206      -815.509    24115394.63306  98748504.04706
      -635.463  
  21934621.09407 115267204.46307      -831.623    21934621.71307  89818600.58707
      -648.019  
  19862838.24808 104379918.22508      -913.084    19862838.06107  81335000.20107
      -711.494  
  20611297.40108 108313104.31108      1411.576    20611297.37007  84399822.57407
      1099.930  
  22196535.48407 116643599.35007      2752.715    22196538.10607  90891132.64207
      2144.975  
  23209948.60506 123896296.19506      3384.429    23209956.18606  96363808.84506
      2632.335  
  20585873.44608 109850162.77608       393.456    20585875.99207  85439035.96607
       306.022  
  22682275.67207 121164687.03707      3457.652    22682282.94706  94239232.07006
      2689.291  
  22035442.18007 117750734.18007       635.145    22035446.89806  91583929.89406
       494.002  
  21476919.03707 114806432.41607     -1922.509    21476924.02506  89293903.65906
     -1495.286  
  21101184.78907 112837500.21107     -3653.043    21101187.64807  87762504.74407
     -2841.260  
  20153909.66508 107847640.88808       252.440    20153911.49208  83881499.19508
       196.341  
  23162693.54305 123991735.53805      2059.495    23162698.43906                
      1601.830  
  37377899.59307  -1182172.57607        29.662    37377894.46107  -1163428.80507
        25.202  
  38344728.37407  -1196148.94007        40.262    38344724.88707  -1171476.46107
        30.662  
  37132016.81908  -1145419.61208         8.847    37132013.28707  -1132395.59007
         7.356  
  38468663.79607  -1146599.65607         8.096    38468662.72107  -1134672.00407
         8.124  
  40020984.77806  -3512598.83406      1590.017    40020987.85606  -2947064.67606
      1233.681  
  36104110.63708  -1445120.52008       230.147    36104107.45507  -1364427.50607
       177.619  
  38114705.01807  -3757479.62507      1601.350    38114701.21507  -3147669.45407
      1241.347  
  40467256.42506   1719445.53606     -1731.097    40467259.07006   1084680.02306
     -1337.486  
  37110822.13808  -1506436.00508       283.628    37110820.41107  -1410269.51507
       219.383  
 13  3 17  1 18  0.0000000  0 24G02G05G08G29G26G15G09R18R02R12R11R01
                                R24R17R03C01C02C03C04C10C06C07C08C09
  22031840.60607 115778089.59907     -2797.455    22031840.79207  90216683.40907
     -2179.839  
  21516957.16207 113072364.31107     -1225.532    21516957.08807  88108333.98507
      -954.961  
  24117732.07006 126739530.64606      -824.216    24117735.60306  98758088.17006
      -642.246  
  21937008.28607 115279748.88407      -840.728    21937009.06407  89828375.42407
      -655.115  
  19865459.49508 104393693.13608      -923.398    19865459.31608  81345733.89508
      -719.531  
  20607280.04307 108291993.10307      1403.423    20607279.99007  84383372.29207
      1093.578  
  22188686.63407 116602353.84607      2746.678    22188689.32807  90858993.32107
      2140.271  
  23200449.69806 123845592.06606      3376.510    23200457.45006  96324372.30506
      2626.174  
  20584772.40108 109844287.07008       390.134    20584775.14307  85434465.97407
       303.439  
  22672572.35507 121112853.55307      3453.699    22672579.21206  94198917.21206
      2686.215  
  22033677.64007 117741305.19507       622.362    22033682.69106  91576596.26906
       484.061  
  21482315.15807 114835278.26707     -1923.396    21482320.12706  89316339.30306
     -1495.976  
  21111442.08407 112892351.21807     -3660.242    21111444.99407  87805166.58107
     -2846.858  
  20153221.97108 107843960.14408       238.469    20153223.64208  83878636.38708
       185.476  
  23156929.15605 123960869.65705      2056.844    23156934.62607  96414007.07007
      1599.774  
  37377802.76608  -1182677.49808        31.105    37377797.64907  -1163819.21707
        25.212  
  38344610.17207  -1196765.70507        37.590    38344605.67807  -1171953.38707
        32.429  
  37131981.99708  -1145600.42708        10.250    37131979.41207  -1132535.36907
         8.378  
  38468631.68807  -1146768.20407         8.969    38468630.39507  -1134802.30307
        10.054  
  40016395.99206  -3536491.67906      1590.803    40016397.74006  -2965540.09906
      1231.920  
  36103435.18208  -1448638.08108       232.807    36103431.91607  -1367147.47707
       181.057  
  38110087.28507  -3781522.50707      1598.655    38110083.69707  -3166260.86907
      1238.271  
  40472237.75706   1745387.16206     -1726.294    40472240.23806   1104739.68206
     -1340.945  
  37109997.79008  -1510728.14508       284.856    37109995.84707  -1413588.44007
       220.685  
 13  3 17  1 18 15.0000000  0 24G02G05G08G29G26G15G09R18R02R12R11R01
                                R24R17R03C01C02C03C04C10C06C07C08C09
  22039834.04807 115820095.75007     -2802.984    22039834.34707  90249415.40107
     -2184.149  
  21520458.40407 113090763.94707     -1227.335    21520458.56607  88122671.35807
      -956.366  
  24120097.00006 126751958.92706      -832.357    24120100.72606  98767772.53206
      -648.590  
  21939420.39307 115292425.38907      -849.146    21939421.16807  89838253.18707
      -661.675  
  19868109.24308 104407617.82908      -932.967    19868109.03507  81356584.28707
      -726.989  
  20603285.26008 108271000.82908      1396.065    20603285.22107  84367014.68007
      1087.843  
  22180854.53107 116561195.68007      2741.300    22180857.19707  90826922.02107
      2136.079  
  23190971.73206 123794999.10906      3369.660    23190979.92606  96285022.27106
      2620.850  
  20583680.12308 109838458.01008       387.514    20583683.09907  85429932.25807
       301.399  
  22662879.09006 121061073.95806      3450.488    22662886.09806  94158644.26006
      2683.718  
  22031947.51307 117732060.47807       610.468    22031952.86806  91569405.95306
       474.809  
  21487713.18507 114864134.05607     -1923.724    21487718.03606  89338782.67206
     -1496.232  
  21121719.46407 112947307.92607     -3666.954    21121722.05607  87847910.65207
     -2852.077  
  20152572.87008 107840486.07708       225.157    20152574.30308  83875934.32508
       175.121  
  23151168.11004 123929976.38904      2054.729    23151175.89407  96390040.24107
      1598.123  
  37377707.86608  -1183171.27208        32.901    37377702.66407  -1164201.01607
        25.730  
  38344493.62907  -1197370.98307        41.516    38344489.49907  -1172421.37207
        31.068  
  37131949.59908  -1145770.24408        11.056    37131946.22707  -1132666.66507
         8.635  
  38468601.38507  -1146925.39007        10.916    38468599.81507  -1134923.81507
         8.798  
  40011810.75406  -3560369.86406      1591.848    40011812.45306  -2984004.15206
      1228.266  
  36102759.70308  -1452154.04308       233.898    36102756.90107  -1369866.21407
       181.680  
  38105475.79607  -3805534.86607      1600.725    38105472.51607  -3184828.69507
      1236.385  
  40477217.99006   1771324.13906     -1731.629    40477220.97206   1124795.73806
     -1336.294  
  37109173.15908  -1515022.70208       286.483    37109171.69707  -1416909.22207
       222.507  
 13  3 17  1 18 30.0000000  0 24G02G05G08G29G26G15G09R18R02R12R11R01
                                R24R17R03C01C02C03C04C10C06C07C08C09
  22047844.35607 115862189.84307     -2809.473    22047844.75807  90282215.92307
     -2189.204  
  21523966.05907 113109197.38507     -1230.093    21523966.46207  88137035.04007
      -958.517  
  24122486.25506 126764514.79306      -841.419    24122490.05806  98777556.31606
      -655.650  
  21941857.56007 115305232.96207      -858.424    21941858.09007  89848233.09707
      -668.903  
  19870787.31408 104421691.06508      -943.342    19870786.93507  81367550.42507
      -735.073  
  20599312.95108 108250126.57708      1387.416    20599312.88807  84350749.01207
      1081.103  
  22173038.74107 116520124.26507      2734.987    22173041.62707  90794918.35707
      2131.160  
  23181514.82506 123744517.01906      3361.416    23181523.19706  96245758.43306
      2614.435  
  20582596.34708 109832674.52208       383.868    20582599.29507  85425433.96907
       298.563  
  22653195.71406 121009347.94206      3446.428    22653202.83606  94118412.96806
      2680.561  
  22030251.80506 117722999.11406       597.990    22030257.14706  91562358.21706
       465.102  
  21493112.99407 114892998.69707     -1924.874    21493117.68406  89361232.88506
     -1497.128  
  21132016.25407 113002368.88207     -3674.400    21132018.68107  87890735.77507
     -2857.871  
  20151962.12708 107837218.04808       210.670    20151963.53308  83873392.49908
       163.853  
  23145417.21705 123899178.82205      2052.045    23145422.42207  96366086.57707
      1596.038  
  37377612.25808  -1183668.89608        32.031    37377606.71507  -1164585.76907
        24.803  
  38344376.79107  -1197979.73007        40.774    38344372.67107  -1172892.04207
        32.184  
  37131916.09608  -1145944.05108        11.263    37131912.99107  -1132801.03007
         7.457  
  38468570.79307  -1147086.13407        11.949    38468569.75807  -1135048.09807
        11.334  
  40007224.51506  -3584248.21006      1594.278    40007227.80406  -3002468.34606
      1233.095  
  36102081.89308  -1455683.36108       235.653    36102079.18807  -1372595.27207
       182.540  
  38100867.77707  -3829531.61807      1598.929    38100863.69807  -3203384.46407
      1235.458  
  40482196.10706   1797241.46006     -1727.400    40482197.93806   1144836.59406
     -1342.053  
  37108344.90108  -1519334.68408       288.669    37108343.33407  -1420243.48207
       222.069  
 13  3 17  1 18 45.0000000  0 24G02G05G08G29G26G15G09R18R02R12R11R01
                                R24R17R03C01C02C03C04C10C06C07C08C09
  22055871.04207 115904370.03807     -2815.001    22055871.57507  90315083.56607
     -2193.511  
  21527479.89407 113127662.86407     -1232.100    21527480.27607  88151423.72207
      -960.079  
  24124899.48506 126777196.47106      -849.688    24124902.95106  98787438.15006
      -662.095  
  21944319.47907 115318169.66907      -866.770    21944319.82707  89858313.63207
      -675.406  
  19873493.28108 104435910.93908      -952.928    19873492.80907  81378630.84607
      -742.542  
  20595362.79507 108229368.57307      1379.934    20595362.80107  84334573.95907
      1075.273  
  22165239.31707 116479138.41107      2729.317    22165242.21807  90762981.36707
      2126.742  
  23172078.77206 123694144.43906      3354.602    23172086.73006  96206579.78006
      2609.137  
  20581520.61007 109826934.64407       381.176    20581523.36607  85420969.62807
       296.471  
  22643522.13206 120957674.29206      3443.225    22643529.45206  94078222.46306
      2678.071  
  22028590.19606 117714119.76406       585.842    22028595.27806  91555452.08606
       455.658  
  21498514.26507 114921870.47007     -1925.127    21498518.80106  89383688.67506
     -1497.323  
  21142332.04107 113057531.59107     -3680.977    21142334.48807  87933640.04507
     -2862.987  
  20151389.74108 107834154.21108       197.365    20151391.03608  83871009.50508
       153.505  
  23139670.67905 123868413.11605      2049.383    23139674.09307  96342157.68307
      1593.965  
  37377515.86208  -1184171.90008        30.936    37377510.48707  -1164974.69707
        23.005  
  38344258.85207  -1198593.54207        39.626    38344254.87907  -1173366.66807
        26.643  
  37131881.90108  -1146123.44908         8.043    37131878.46907  -1132939.74007
         8.319  
  38468538.43807  -1147252.06207         9.940    38468537.71907  -1135176.36807
         8.378  
  40002639.22806  -3608128.40006      1586.017    40002641.77906  -3020933.97606
      1229.045  
  36101401.33208  -1459227.54508       233.970    36101398.66407  -1375335.84207
       180.934  
  38096262.33407  -3853514.23407      1594.079    38096258.28707  -3221929.26107
      1233.416  
  40487168.97806   1823137.44106     -1727.925    40487170.48506   1164860.96406
     -1338.745  
  37107512.49308  -1523665.60008       288.068    37107511.37107  -1423592.37907
       220.527  
 13  3 17  1 19  0.0000000  0 24G02G05G08G29G26G15G09R18R02R12R11R01
                                R24R17R03C01C02C03C04C10C06C07C08C09
  22063914.21007 115946636.86207     -2820.694    22063914.81407  90348018.68007
     -2197.947  
  21530999.98807 113146160.84607     -1234.339    21531000.19307  88165837.70807
      -961.823  
  24127336.76306 126790004.56906      -858.004    24127340.29406  98797418.49106
      -668.571  
  21946806.10307 115331235.96907      -875.289    21946806.45107  89868495.14207
      -682.043  
  19876227.26508 104450277.91908      -962.662    19876226.80708  81389825.88108
      -750.126  
  20591434.89407 108208727.66907      1372.274    20591435.08807  84318490.14407
      1069.306  
  22157456.50307 116438239.14207      2723.685    22157459.21307  90731111.83507
      2122.354  
  23162663.34306 123643882.50606      3347.172    23162670.54506  96167487.20306
      2603.361  
  20580453.12907 109821239.14207       378.222    20580455.88307  85416539.79607
       294.174  
  22633858.67706 120906054.23606      3439.792    22633866.29406  94038073.62106
      2675.400  
  22026962.62906 117705423.39106       573.652    22026967.71006  91548688.26906
       446.177  
  21503916.90607 114950749.94207     -1925.587    21503921.30506  89406150.44706
     -1497.681  
  21152666.83607 113112796.33807     -3687.673    21152669.19707  87976623.67307
     -2868.195  
  20150855.61807 107831295.39107       183.783    20150856.81708  83868785.96008
       142.942  
  23133930.87205 123837679.62705      2048.157    23133932.71206  96318253.92306
      1593.013  
  37377418.98708  -1184675.87108        32.482    37377413.33207  -1165364.38707
        27.346  
  38344140.67107  -1199207.90107        41.510    38344137.35307  -1173841.71907
        32.474  
  37131846.96708  -1146303.90608        13.902    37131843.74907  -1133079.21607
         8.487  
  38468506.37707  -1147418.70207        10.485    38468505.59907  -1135305.20407
         7.253  
  39998054.31706  -3632005.78206      1592.325    39998057.13006  -3039397.43006
      1230.289  
  36100718.95808  -1462782.08708       238.263    36100715.95307  -1378084.40507
       186.113  
  38091659.97208  -3877478.17508      1597.878    38091656.83107  -3240459.65107
      1238.845  
  40492138.50706   1849016.46806     -1726.851    40492140.30206   1184872.24206
     -1337.693  
  37106678.22708  -1528011.02208       290.167    37106676.51407  -1426952.48807
       225.793  
 13  3 17  1 19 15.0000000  0 24G02G05G08G29G26G15G09R18R02R12R11R01
                                R24R17R03C01C02C03C04C10C06C07C08C09
  22071973.95007 115988990.56607     -2826.290    22071974.58707  90381021.49607
     -2202.309  
  21534526.48707 113164692.02207     -1236.532    21534526.56807  88180277.55807
      -963.533  
  24129798.21806 126802939.57806      -866.531    24129801.57106  98807497.72206
      -675.218  
  21949317.40507 115344432.25407      -884.013    21949317.83207  89878777.93507
      -688.844  
  19878989.31908 104464792.26708      -972.435    19878988.91708  81401135.74808
      -757.743  
  20587529.49308 108188204.45008      1364.351    20587529.75708  84302498.03108
      1063.130  
  22149690.36807 116397427.48207      2717.772    22149692.94207  90699310.53907
      2117.743  
  23153268.71606 123593732.36706      3339.521    23153275.43206  96128481.57006
      2597.407  
  20579394.23008 109815588.38808       375.220    20579397.05807  85412144.74907
       291.838  
  22624205.40907 120854488.92207      3435.732    22624213.43307  93997967.37407
      2672.242  
  22025369.59106 117696910.77006       561.502    22025374.74306  91542067.35406
       436.724  
  21509320.86907 114979637.72407     -1926.135    21509325.30206  89428618.68306
     -1498.107  
  21163020.80707 113168162.98407     -3694.521    21163023.16007  88019686.54507
     -2873.521  
  20150359.69608 107828641.96708       170.095    20150360.92108  83866722.15408
       132.294  
  23128195.10705 123806979.17905      2045.465    23128197.46806  96294375.83106
      1590.917  
  37377323.20508  -1185173.24808        33.851    37377317.68507  -1165748.96307
        26.055  
  38344024.11707  -1199815.30907        39.037    38344020.36007  -1174311.37607
        31.945  
  37131813.44408  -1146477.90608        12.803    37131810.52607  -1133213.74307
         9.803  
  38468475.68207  -1147578.49607        11.807    38468474.93107  -1135428.74307
         9.605  
  39993470.58706  -3655872.78906      1591.418    39993474.07906  -3057852.85906
      1229.015  
  36100035.56308  -1466339.45708       239.679    36100032.60407  -1380835.14807
       185.491  
  38087063.32807  -3901415.87307      1595.050    38087059.70807  -3258969.76507
      1235.936  
  40497106.98506   1874886.07606     -1723.089    40497108.55006   1204876.17006
     -1329.270  
  37105842.22808  -1532363.37008       291.478    37105841.31407  -1430317.97607
       224.584  
 13  3 17  1 19 30.0000000  0 24G02G05G08G29G26G15G09R18R02R12R11R01
                                R24R17R03C01C02C03C04C10C06C07C08C09
  22080050.52507 116031432.37707     -2832.362    22080051.15507  90414092.97107
     -2207.042  
  21538059.55307 113183257.73807     -1238.751    21538059.60907  88194744.32407
      -965.262  
  24132284.12306 126816002.87006      -875.122    24132287.71606  98817676.89306
      -681.915  
  21951853.49707 115357759.59007      -892.724    21951854.06507  89889162.83507
      -695.632  
  19881779.62908 104479455.08708      -982.440    19881779.28808  81412561.31108
      -765.539  
  20583646.78408 108167800.29408      1356.436    20583646.98908  84286598.68708
      1056.963  
  22141941.22707 116356705.10707      2711.843    22141943.57607  90667578.84407
      2113.126  
  23143895.20606 123543695.67406      3332.218    23143901.72206  96089564.18706
      2591.728  
  20578343.91107 109809983.46207       372.184    20578346.88107  85407785.36207
       289.477  
  22614562.82907 120802980.29207      3432.032    22614571.46807  93957905.22107
      2669.364  
  22023811.14906 117688583.25106       549.198    22023816.55206  91535590.41706
       427.155  
  21514726.56207 115008534.74307     -1926.791    21514731.26306  89451094.13206
     -1498.617  
  21173394.02607 113223632.54607     -3701.365    21173396.48607  88062829.47507
     -2878.843  
  20149902.50808 107826195.54108       156.303    20149903.85608  83864819.35608
       121.567  
  23122467.00305 123776312.84005      2043.490    23122468.05706  96270524.23406
      1589.381  
  37377225.17508  -1185685.07108        31.655    37377219.34907  -1166144.70207
        25.755  
  38343904.56507  -1200436.86707        37.849    38343901.41207  -1174791.97207
        28.084  
  37131777.42208  -1146666.58508         9.833    37131774.11307  -1133359.61207
         7.408  
  38468442.51107  -1147752.58807         6.248    38468440.63707  -1135563.31507
         7.123  
  39988885.11206  -3679750.42906      1590.526    39988887.78406  -3076316.51906
      1229.758  
  36099348.14808  -1469920.73208       237.367    36099344.56607  -1383604.37207
       184.790  
  38082467.22107  -3925348.38207      1593.245    38082463.62107  -3277475.83407
      1229.973  
  40502069.21806   1900724.97906     -1723.172    40502071.34206   1224856.37206
     -1332.066  
  37105001.02408  -1536743.78808       289.754    37104999.55307  -1433705.15307
       223.993  
 13  3 17  1 19 45.0000000  0 25G10G02G05G08G29G26G15G09R18R02R12R11
                                R01R24R17R03C01C02C03C04C10C06C07C08
                                C09
  25382129.10605                     -2596.378                                  
                
  22088143.03807 116073958.08407     -2838.236    22088143.36707  90447229.82907
     -2211.616  
  21541598.37807 113201854.06307     -1241.132    21541598.47907  88209234.94907
      -967.117  
  24134793.79706 126829190.45706      -883.431    24134797.33306  98827952.92306
      -688.390  
  21954413.73207 115371214.08407      -901.665    21954414.47007  89899646.82107
      -702.598  
  19884597.32308 104494262.27608      -992.307    19884597.12408  81424099.37108
      -773.228  
  20579785.98008 108147511.35908      1348.356    20579786.06207  84270789.13207
      1050.667  
  22134208.40107 116316068.49207      2705.882    22134210.55707  90635913.97507
      2108.481  
  23134542.18405 123493769.17005      3324.118    23134548.99306  96050732.47206
      2585.427  
  20577301.44107 109804420.38107       369.190    20577304.54107  85403458.52307
       287.148  
  22604930.43306 120751524.92206      3428.254    22604939.23606  93917884.44106
      2666.424  
  22022286.57906 117680437.29806       536.620    22022292.14806  91529254.70206
       417.372  
  21520133.54107 115037437.27507     -1927.328    21520138.45106  89473573.85406
     -1499.035  
  21183785.66807 113279200.24307     -3708.088    21183788.03507  88106048.73207
     -2884.073  
  20149483.31407 107823952.01207       142.457    20149484.67808  83863074.38308
       110.798  
  23116744.29305 123745676.51805      2040.890    23116744.38906  96246695.99106
      1587.362  
  37377128.88807  -1186187.85707        31.965    37377123.31807  -1166533.46507
        26.687  
  38343787.77307  -1201049.11407        42.902    38343783.55207  -1175265.34307
        27.479  
  37131742.24308  -1146846.39808         9.724    37131739.58507  -1133498.63007
         7.642  
  38468411.00807  -1147917.44907         8.106    38468409.12107  -1135690.76807
        10.232  
  39984302.51306  -3703615.09706      1585.824    39984304.59006  -3094770.14606
      1222.645  
  36098659.71808  -1473502.33808       236.955    36098657.11507  -1386373.86307
       183.458  
  38077876.51507  -3949252.13107      1591.604    38077873.63307  -3295959.65507
      1231.877  
  40507029.07306   1926556.66206     -1717.583    40507030.73406   1244831.00406
     -1329.848  
  37104158.88508  -1541128.77008       291.414    37104157.36707  -1437095.87307
       221.799  
 13  3 17  1 20  0.0000000  0 25G10G02G05G08G29G26G15G09R18R02R12R11
                                R01R24R17R03C01C02C03C04C10C06C07C08
                                C09
  25389539.39805 133422929.23705     -2595.830    25389532.52202 103965890.05602
     -2022.725  
  22096252.01807 116116570.78307     -2843.957    22096252.03606  90480434.48706
     -2216.072  
  21545143.63907 113220484.17207     -1243.061    21545143.76507  88223751.89207
      -968.620  
  24137327.73406 126842505.49006      -892.052    24137331.15906  98838328.25106
      -695.106  
  21956998.75807 115384798.46907      -909.970    21956999.57307  89910232.02407
      -709.069  
  19887443.01408 104509216.72208     -1002.036    19887442.88008  81435752.17608
      -780.808  
  20575947.62008 108127340.68008      1340.707    20575947.70308  84255071.72208
      1044.708  
  22126492.68107 116275521.38007      2700.176    22126494.65707  90604318.84207
      2104.035  
  23125210.35806 123443956.27206      3317.055    23125217.60206  96011989.11006
      2579.934  
  20576267.32207 109798902.13207       366.399    20576270.28507  85399166.54207
       284.976  
  22595308.66107 120700126.59907      3424.612    22595317.01806  93877908.03906
      2663.593  
  22020796.63406 117672476.22606       524.464    22020802.27206  91523062.76706
       407.919  
  21525542.12407 115066348.33007     -1927.578    21525547.15606  89496060.19606
     -1499.229  
  21194196.07607 113334869.12507     -3714.614    21194198.56207  88149346.69307
     -2889.148  
  20149102.62008 107821914.50408       128.919    20149103.97108  83861489.63108
       100.269  
  23111027.43105 123715073.43905      2039.200    23111027.22206  96222893.52906
      1586.042  
  37377031.99308  -1186691.17008        33.262    37377026.61607  -1166922.61507
        23.705  
  38343669.21507  -1201661.50307        39.076    38343665.03207  -1175738.87007
        33.344  
  37131707.89508  -1147026.90508        12.237    37131704.93907  -1133638.18207
         9.968  
  38468379.43507  -1148082.58307        11.731    38468377.98607  -1135818.42007
         8.333  
  39979719.91606  -3727476.25806      1590.771    39979723.13306  -3113221.07406
      1229.075  
  36097970.31708  -1477093.86008       239.928    36097966.72407  -1389151.01607
       184.964  
  38073289.48307  -3973136.49807      1591.027    38073286.68107  -3314428.51707
      1232.504  
  40511986.86806   1952371.57506     -1719.528    40511989.76806   1264792.65106
     -1327.661  
  37103313.98408  -1545527.81708       293.392    37103313.20407  -1440497.45307
       226.902  
 13  3 17  1 20 15.0000000  0 24G02G05G08G29G26G15G09R18R02R12R11R01
                                R24R17R03C01C02C03C04C10C06C07C08C09
  22104377.51007 116159270.27507     -2849.341    22104377.28506  90513706.76706
     -2220.268  
  21548695.48308 113239148.05508     -1245.193    21548695.48407  88238295.14507
      -970.282  
  24139885.81406 126855947.84306      -900.009    24139889.25706  98848802.77606
      -701.311  
  21959608.52607 115398512.50507      -918.314    21959609.23907  89920918.26207
      -715.571  
  19890316.66808 104524318.15308     -1011.569    19890316.54008  81447519.50808
      -788.237  
  20572131.64807 108107288.23907      1333.108    20572131.87107  84239446.44907
      1038.786  
  22118794.05307 116235064.15007      2694.258    22118795.85107  90572793.74607
      2099.424  
  23115900.07306 123394257.65106      3309.291    23115907.35406  95973334.64906
      2573.895  
  20575241.56707 109793428.48707       363.576    20575244.36707  85394909.25807
       282.781  
  22585697.62207 120648785.85207      3420.864    22585705.74506  93837976.43006
      2660.677  
  22019341.37906 117664700.17706       512.461    22019346.95006  91517014.74306
       398.582  
  21530952.19607 115095267.86407     -1927.999    21530957.11506  89518553.11906
     -1499.558  
  21204625.13907 113390638.38107     -3720.996    21204628.00307  88192722.71507
     -2894.113  
  20148760.28707 107820083.02607       115.481    20148761.83108  83860065.12308
        89.817  
  23105316.36305 123684503.24705      2037.453    23105317.32506  96199116.75806
      1584.689  
  37376935.38608  -1187194.72308        34.212    37376929.92107  -1167311.97107
        27.616  
  38343552.02907  -1202273.76707        42.920    38343548.31307  -1176212.29307
        31.213  
  37131673.46108  -1147207.78408        14.695    37131670.00507  -1133778.00807
         9.391  
  38468347.69507  -1148247.75307        11.342    38468345.83307  -1135946.12107
         9.531  
  39975138.09707  -3751333.59607      1590.731    39975141.47306  -3131669.04906
      1231.548  
  36097278.69008  -1480694.95508       241.286    36097274.93207  -1391935.57507
       186.796  
  38068706.19007  -3997001.20907      1593.415    38068704.10407  -3332882.16807
      1231.059  
  40516941.37906   1978169.90406     -1717.274    40516944.05106   1284741.48406
     -1335.183  
  37102466.63608  -1549940.61808       296.711    37102465.28107  -1443909.68607
       227.652  
 13  3 17  1 20 30.0000000  0 24G02G05G08G29G26G15G09R18R02R12R11R01
                                R24R17R03C01C02C03C04C10C06C07C08C09
  22112519.55507 116202057.03207     -2855.313    22112519.18407  90547047.04707
     -2224.922  
  21552253.82508 113257846.26708     -1247.802    21552253.82607  88252865.16507
      -972.315  
  24142468.12306 126869518.01406      -909.170    24142471.71406  98859376.91706
      -708.449  
  21962243.12807 115412356.70107      -927.448    21962243.70607  89931705.92507
      -722.688  
  19893218.40608 104539566.93808     -1021.592    19893218.21807  81459401.67107
      -796.046  
  20568338.38907 108087354.71507      1324.867    20568338.72507  84223913.84007
      1032.365  
  22111112.65707 116194697.77907      2688.204    22111114.26907  90541339.46507
      2094.706  
  23106611.55806 123344674.24206      3301.389    23106618.67506  95934769.82006
      2567.749  
  20574224.33608 109788000.27408       360.349    20574227.17207  85390687.32407
       280.273  
  22576097.57307 120597503.94207      3416.674    22576105.44807  93798090.59507
      2657.420  
  22017921.04006 117657110.13306       499.834    22017926.58706  91511111.40206
       388.762  
  21536363.81107 115124196.31807     -1928.868    21536368.77106  89541053.00606
     -1500.231  
  21215073.10107 113446507.94007     -3728.072    21215075.93607  88236176.77407
     -2899.614  
  20148456.79408 107818458.43008       101.340    20148458.32908  83858801.54508
        78.820  
  23099611.58105 123653966.75105      2034.672    23099613.12006  96175366.17106
      1582.523  
  37376839.55508  -1187692.08208        33.445    37376834.37007  -1167696.53707
        25.359  
  38343435.81007  -1202879.48907        39.842    38343432.21207  -1176680.64807
        30.201  
  37131639.91308  -1147382.62608        11.978    37131636.71407  -1133913.18307
         9.468  
  38468317.44007  -1148406.49807        13.008    38468315.35407  -1136068.86107
         8.269  
  39970559.44206  -3775180.63106      1585.412    39970562.70606  -3150109.02506
      1228.575  
  36096586.56408  -1484299.10908       241.060    36096583.26807  -1394722.50507
       184.929  
  38064128.02707  -4020839.83007      1587.991    38064125.44407  -3351315.64407
      1227.242  
  40521892.86306   2003957.87706     -1720.183    40521897.01206   1304682.33306
     -1331.648  
  37101617.59408  -1554360.81608       295.100    37101615.83807  -1447327.62607
       226.484  
 13  3 17  1 20 45.0000000  0 24G02G05G08G29G26G15G09R18R02R12R11R01
                                R24R17R03C01C02C03C04C10C06C07C08C09
  22120677.74307 116244929.45907     -2861.251    22120677.70806  90580454.06706
     -2229.551  
  21555818.28807 113276577.38407     -1249.929    21555818.45907  88267460.81907
      -973.972  
  24145074.31706 126883214.54406      -917.412    24145077.98606  98870049.56106
      -714.866  
  21964902.09507 115426329.46307      -936.044    21964902.73607  89942593.76507
      -729.387  
  19896147.87808 104554961.45708     -1031.336    19896147.68707  81471397.38807
      -803.640  
  20564567.44008 108067538.75308      1316.806    20564567.92708  84208472.84008
      1026.084  
  22103448.38807 116154421.38807      2682.042    22103449.89406  90509955.25606
      2089.904  
  23097344.37706 123295205.21306      3293.568    23097351.53906  95896293.93806
      2561.666  
  20573215.33208 109782615.67208       357.305    20573218.36307  85386499.30007
       277.904  
  22566508.13806 120546280.06006      3412.845    22566515.96306  93758249.90406
      2654.440  
  22016535.16906 117649704.75906       487.213    22016540.70406  91505351.69006
       378.945  
  21541776.83307 115153132.26707     -1929.617    21541781.92806  89563558.71906
     -1500.815  
  21225539.53207 113502476.00707     -3734.695    21225542.16007  88279707.44407
     -2904.766  
  20148191.60208 107817039.10708        87.582    20148193.10508  83857697.61808
        68.119  
  23093913.18306 123623462.33506      2032.518    23093914.99706  96151640.53306
      1580.849  
  37376741.19808  -1188204.50908        32.146    37376735.91307  -1168092.76107
        25.153  
  38343316.55807  -1203499.91907        40.546    38343312.77507  -1177160.36807
        32.715  
  37131603.42908  -1147572.70708         9.963    37131600.58707  -1134060.13307
         6.108  
  38468283.86207  -1148580.08607        10.219    38468282.06707  -1136203.04007
        10.066  
  39965976.80406  -3799038.37806      1591.652    39965980.07006  -3168557.30506
      1226.874  
  36095889.56508  -1487927.58308       239.127    36095886.47707  -1397528.24107
       186.034  
  38059550.76407  -4044673.48707      1587.641    38059548.98607  -3369745.30207
      1227.014  
  40526839.46106   2029714.26406     -1717.419    40526842.81706   1324598.73306
     -1330.381  
  37100763.07308  -1558809.58408       295.251    37100761.69807  -1450767.64707
       229.200  
 13  3 17  1 21  0.0000000  0 24G02G05G08G29G26G15G09R18R02R12R11R01
                                R24R17R03C01C02C03C04C10C06C07C08C09
  22128852.49607 116287888.30407     -2866.522    22128852.69806  90613928.42406
     -2233.657  
  21559389.17807 113295342.44807     -1251.972    21559389.40807  88282082.92507
      -975.564  
  24147704.94606 126897038.55506      -925.561    24147708.59106  98880821.47606
      -721.218  
  21967585.64807 115440431.50207      -944.310    21967586.37207  89953582.33007
      -735.829  
  19899105.28608 104570502.53708     -1040.834    19899105.03708  81483507.29908
      -811.041  
  20560819.10708 108047841.45108      1309.288    20560819.60408  84193124.29408
      1020.224  
  22095801.41307 116114236.31007      2676.278    22095802.85906  90478642.22906
      2085.411  
  23088098.77806 123245852.13906      3286.292    23088106.00806  95857908.22506
      2556.007  
  20572214.71608 109777275.73408       354.677    20572217.80007  85382345.99907
       275.858  
  22556929.99807 120495115.75607      3409.285    22556937.78106  93718455.51506
      2651.672  
  22015184.30307 117642485.44507       475.344    22015189.55306  91499736.67506
       369.713  
  21547191.56907 115182076.85407     -1929.647    21547196.64106  89586071.13506
     -1500.840  
  21236024.49307 113558542.99007     -3740.913    21236027.12807  88323315.02207
     -2909.604  
  20147964.86708 107815826.13208        74.143    20147966.35608  83856754.16308
        57.665  
  23088220.50906 123592990.90506      2030.699    23088223.10806  96127940.51806
      1579.433  
  37376643.23008  -1188714.35408        36.206    37376637.88207  -1168486.96907
        30.278  
  38343198.54807  -1204117.44007        42.731    38343194.33807  -1177637.84307
        32.664  
  37131567.17108  -1147760.43208        14.751    37131564.32807  -1134205.27007
        11.273  
  38468250.75707  -1148750.84807        13.983    38468250.26707  -1136335.05507
         9.532  
  39961397.22606  -3822889.37006      1590.526    39961400.51006  -3187000.39006
      1228.878  
  36095191.45408  -1491562.73208       245.183    36095188.21607  -1400339.13807
       191.001  
  38054977.61907  -4068484.51707      1588.587    38054975.57507  -3388157.44707
      1227.219  
  40531782.98506   2055456.55206     -1716.397    40531785.90806   1344504.24206
     -1326.037  
  37099906.91408  -1563269.42208       299.957    37099905.17007  -1454216.25107
       230.233  
 13  3 17  1 21 15.0000000  0 24G02G05G08G29G26G15G09R18R02R12R11R01
                                R24R17R03C01C02C03C04C10C06C07C08C09
  22137043.36107 116330931.14507     -2872.432    22137043.62406  90647468.22806
     -2238.264  
  21562965.97607 113314139.22007     -1253.943    21562966.25307  88296729.74807
      -977.099  
  24150359.49906 126910987.57406      -933.826    24150363.17206  98891690.79506
      -727.662  
  21970293.35507 115454660.48507      -952.744    21970293.99507  89964669.81407
      -742.399  
  19902090.06808 104586187.62508     -1050.351    19902089.82508  81495729.43908
      -818.455  
  20557092.99408 108028260.57008      1301.623    20557093.35408  84177866.45908
      1014.252  
  22088171.49307 116074140.80707      2670.051    22088172.87706  90447398.99106
      2080.560  
  23078874.78106 123196613.10706      3278.714    23078881.90706  95819611.24906
      2550.113  
  20571221.97907 109771977.97407       351.810    20571225.01707  85378225.50707
       273.628  
  22547362.66906 120444009.31006      3405.186    22547370.30906  93678706.13606
      2648.482  
  22013867.61506 117635449.93706       462.992    22013872.96306  91494264.63606
       360.106  
  21552607.49807 115211027.73107     -1930.081    21552612.52406  89608588.45106
     -1501.176  
  21246527.35707 113614706.19907     -3747.277    21246530.06907  88366997.46207
     -2914.552  
  20147776.27507 107814817.36507        60.418    20147777.82008  83855969.54608
        46.991  
  23082533.74706 123562550.19806      2028.193    23082536.30206  96104264.44806
      1577.485  
  37376547.74207  -1189214.39207        35.152    37376541.58007  -1168873.61007
        26.904  
  38343081.55607  -1204724.84007        41.881    38343077.25007  -1178107.50107
        35.030  
  37131533.07008  -1147938.54308        13.243    37131529.86307  -1134342.96707
         9.290  
  38468219.66907  -1148911.66407        11.741    38468218.98507  -1136459.40807
         8.225  
  39956818.66806  -3846726.32706      1588.063    39956821.81606  -3205432.59806
      1227.163  
  36094493.54208  -1495197.32608       242.243    36094490.14107  -1403149.61107
       189.309  
  38050410.91707  -4092265.64307      1586.049    38050408.56507  -3406546.45307
      1225.452  
  40536726.05706   2081192.01006     -1715.967    40536727.75806   1364404.46406
     -1326.494  
  37099049.88408  -1567733.01608       299.363    37099048.04807  -1457667.75307
       229.938  
 13  3 17  1 21 30.0000000  0 24G02G05G08G29G26G15G09R18R02R12R11R01
                                R24R17R03C01C02C03C04C10C06C07C08C09
  22145250.24307 116374058.40607     -2878.369    22145250.44407  90681073.81807
     -2242.891  
  21566548.97707 113332968.40907     -1256.597    21566549.24807  88311401.81807
      -979.169  
  24153037.97906 126925062.24506      -942.533    24153041.66806  98902658.07306
      -734.444  
  21973025.35107 115469016.77407      -961.672    21973025.88007  89975856.49107
      -749.358  
  19905102.32608 104602017.13008     -1060.331    19905102.14507  81508064.10507
      -826.233  
  20553389.09307 108008796.64907      1293.567    20553389.40208  84162699.76808
      1007.974  
  22080558.80807 116034135.89407      2663.710    22080560.23206  90416226.35006
      2075.620  
  23069672.35606 123147489.19606      3270.759    23069679.49707  95781403.80407
      2543.927  
  20570237.13007 109766722.92307       348.869    20570240.24907  85374138.23707
       271.342  
  22537806.49006 120392962.02706      3400.973    22537813.82406  93639002.76206
      2645.207  
  22012585.27606 117628599.16406       450.487    22012591.05706  91488936.28406
       350.379  
  21558024.63507 115239985.29407     -1930.950    21558029.54906  89631110.95506
     -1501.853  
  21257048.15807 113670965.54007     -3754.010    21257050.90707  88410754.65407
     -2919.790  
  20147626.00407 107814013.17307        46.567    20147627.59808  83855344.05008
        36.218  
  23076852.94305 123532140.64005      2025.546    23076855.15106  96080612.65006
      1575.432  
  37376449.44908  -1189723.32308        35.066    37376444.23007  -1169267.12407
        24.493  
  38342962.32707  -1205340.80207        36.626    38342959.28607  -1178583.79907
        31.850  
  37131497.08608  -1148125.69808        12.912    37131493.82907  -1134487.67607
         8.538  
  38468187.75507  -1149081.19707        11.335    38468185.60707  -1136590.44907
         5.756  
  39952240.76806  -3870567.66106      1589.839    39952243.29506  -3223868.22506
      1230.631  
  36093792.13408  -1498850.03508       243.717    36093788.64607  -1405974.07807
       187.521  
  38045846.50407  -4116035.52207      1580.596    38045843.59507  -3424926.78207
      1223.873  
  40541662.02106   2106901.68006     -1712.695    40541664.66206   1384284.76706
     -1323.748  
  37098188.23808  -1572219.03008       297.850    37098186.96407  -1461136.57207
       229.494  
 13  3 17  1 21 45.0000000  0 24G02G05G08G29G26G15G09R18R02R12R11R01
                                R24R17R03C01C02C03C04C10C06C07C08C09
  22153473.77507 116417273.02907     -2883.750    22153473.97906  90714747.48806
     -2247.083  
  21570138.84508 113351832.92208     -1258.673    21570138.94907  88326101.40807
      -980.786  
  24155740.79906 126939265.48206      -951.038    24155744.68406  98913725.48106
      -741.073  
  21975782.14107 115483503.07007      -969.833    21975782.50207  89987144.48507
      -755.717  
  19908142.62908 104617993.83108     -1069.806    19908142.48908  81520513.46808
      -833.616  
  20549708.01907 107989452.77907      1285.795    20549708.40207  84147626.62007
      1001.918  
  22072963.97507 115994224.96507      2657.707    22072965.44406  90385126.94106
      2070.940  
  23060492.22806 123098483.95106      3263.362    23060499.43007  95743288.65307
      2538.172  
  20569260.83907 109761513.64007       346.029    20569264.08707  85370086.55707
       269.131  
  22528261.92506 120341977.46706      3396.999    22528269.13806  93599348.19306
      2642.114  
  22011338.28106 117621936.48706       438.026    22011344.31106  91483754.22706
       340.689  
  21563443.59207 115268952.50007     -1931.260    21563448.43806  89653640.95506
     -1502.095  
  21267587.47807 113727323.54607     -3760.382    21267590.12107  88454588.58807
     -2924.746  
  20147514.66208 107813416.95508        32.977    20147516.27308  83854880.31508
        25.647  
  23071177.86005 123501765.10705      2024.383    23071180.88006  96056987.29406
      1574.524  
  37376352.64307  -1190227.64507        32.446    37376347.20307  -1169657.05007
        23.982  
  38342845.85007  -1205951.79507        43.267    38342842.27907  -1179056.22007
        30.117  
  37131461.89908  -1148308.40508        10.630    37131458.77107  -1134628.91707
         7.160  
  38468155.34007  -1149245.82407        11.549    38468154.76807  -1136717.69607
         8.766  
  39947663.14806  -3894399.82906      1588.069    39947666.10406  -3242296.73406
      1228.641  
  36093089.85708  -1502507.19708       243.204    36093085.92707  -1408801.97607
       188.651  
  38041286.59807  -4139780.45707      1580.269    38041284.20107  -3443287.82207
      1223.176  
  40546599.08206   2132599.22606     -1711.101    40546599.22306   1404155.64406
     -1329.189  
  37097325.21508  -1576713.94208       300.143    37097323.17207  -1464612.30107
       233.500  
 13  3 17  1 22  0.0000000  0 25G21G02G05G08G29G26G15G09R18R02R12R11
                                R01R24R17R03C01C02C03C04C10C06C07C08
                                C09
  24604160.09406 129295736.35806      3254.950    24604163.82605 100749933.78005
      2536.333  
  22161713.20107 116460571.28507     -2889.300    22161713.36106  90748486.30106
     -2251.408  
  21573734.82907 113370729.24507     -1260.751    21573734.59307  88340825.78907
      -982.405  
  24158467.43206 126953593.72206      -959.008    24158471.28406  98924890.33806
      -747.279  
  21978562.92807 115498115.79407      -978.330    21978563.28007  89998530.99007
      -762.338  
  19911210.28208 104634113.93108     -1079.496    19911210.09807  81533074.57207
      -841.166  
  20546049.19907 107970225.61507      1277.990    20546049.66007  84132644.41807
       995.838  
  22065386.55607 115954404.89107      2651.709    22065387.87806  90354098.31606
      2066.268  
  23051333.75406 123049594.47106      3255.436    23051341.18707  95705263.53107
      2532.008  
  20568292.35907 109756346.35807       342.930    20568295.73407  85366067.56507
       266.724  
  22518728.66406 120291052.53206      3393.091    22518735.87106  93559739.98606
      2639.076  
  22010125.91106 117615458.50106       425.865    22010132.04006  91478715.83106
       331.232  
  21568863.62107 115297925.83507     -1931.703    21568868.59506  89676175.74906
     -1502.437  
  21278144.50107 113783776.19307     -3766.547    21278147.36107  88498496.13307
     -2929.542  
  20147441.47907 107813024.87207        19.324    20147442.82408  83854575.33308
        15.028  
  23065508.59905 123471420.19405      2021.888    23065512.25106  96033385.73906
      1572.578  
  37376257.02207  -1190724.63407        34.504    37376251.84607  -1170041.32707
        27.378  
  38342729.57207  -1206555.05407        43.509    38342725.58307  -1179522.67907
        33.822  
  37131428.10108  -1148483.85708        15.232    37131425.02907  -1134764.56707
        12.134  
  38468125.21807  -1149402.91207        14.393    38468124.00607  -1136839.15907
        13.839  
  39943088.73706  -3918220.13206      1591.291    39943091.90206  -3260716.05106
      1231.369  
  36092387.06408  -1506166.20808       248.021    36092383.45707  -1411631.33307
       191.454  
  38036731.77407  -4163497.72507      1580.523    38036729.65507  -3461627.48007
      1226.572  
  40551530.58206   2158287.18106     -1713.053    40551532.18506   1424019.16006
     -1325.042  
  37096460.85108  -1581214.99208       303.878    37096459.41607  -1468092.76407
       234.085  
 13  3 17  1 22 15.0000000  0 25G21G02G05G08G29G26G15G09R18R02R12R11
                                R01R24R17R03C01C02C03C04C10C06C07C08
                                C09
  24594868.10906 129246910.21606      3254.519    24594871.48904 100711887.46504
      2535.989  
  22169969.06807 116503955.63407     -2894.948    22169969.14507  90782292.21507
     -2255.810  
  21577337.39507 113389660.18707     -1262.906    21577336.89107  88355577.14207
      -984.086  
  24161218.27206 126968049.63706      -967.875    24161222.03805  98936154.62805
      -754.193  
  21981368.11007 115512857.27507      -986.706    21981368.43807  90010017.82407
      -768.864  
  19914305.64108 104650379.88808     -1089.051    19914305.38707  81545749.32907
      -848.613  
  20542413.13008 107951117.62408      1270.244    20542413.56008  84117755.07308
       989.799  
  22057826.96107 115914678.93207      2645.611    22057828.18206  90323143.04606
      2061.515  
  23042197.43606 123000823.77306      3247.767    23042205.01707  95667330.79707
      2526.042  
  20567332.31407 109751223.61307       340.311    20567335.71207  85362083.19707
       264.684  
  22509207.02306 120240190.72306      3388.958    22509214.89306  93520180.89806
      2635.861  
  22008948.78306 117609168.08506       413.503    22008954.67806  91473823.28006
       321.613  
  21574285.26707 115326908.02507     -1932.011    21574290.42906  89698717.40506
     -1502.679  
  21288719.53507 113840325.60407     -3772.819    21288722.56907  88542478.93407
     -2934.421  
  20147406.89208 107812839.59608         5.848    20147408.15608  83854431.21508
         4.547  
  23059845.87205 123441108.38205      2019.903    23059849.41506  96009809.85206
      1571.036  
  37376158.67308  -1191237.56608        34.958    37376153.05707  -1170437.92907
        27.376  
  38342610.77907  -1207173.91807        44.445    38342607.15207  -1180001.19207
        33.354  
  37131391.33508  -1148675.50108        13.328    37131388.11307  -1134912.72907
         8.167  
  38468092.32207  -1149575.76107        11.319    38468090.47707  -1136972.77207
         9.110  
  39938512.11607  -3942051.77707      1591.401    39938515.12506  -3279144.14706
      1228.968  
  36091679.55408  -1509850.22408       245.955    36091675.66007  -1414480.01207
       192.005  
  38032178.21307  -4187210.59207      1580.621    38032175.07407  -3479963.72007
      1221.628  
  40556458.24706   2183942.14406     -1710.824    40556459.75406   1443857.13806
     -1320.457  
  37095590.99208  -1585745.53108       301.811    37095589.37107  -1471596.02407
       232.930  
 13  3 17  1 22 30.0000000  0 25G21G02G05G08G29G26G15G09R18R02R12R11
                                R01R24R17R03C01C02C03C04C10C06C07C08
                                C09
  24585577.52906 129198086.14806      3254.583    24585579.94806 100673842.70506
      2536.031  
  22178241.04907 116547423.96707     -2900.945    22178241.01106  90816163.56506
     -2260.481  
  21580946.09907 113408623.90907     -1265.639    21580945.63807  88370354.04207
      -986.214  
  24163993.06206 126982631.19506      -976.373    24163996.75406  98947516.85406
      -760.813  
  21984197.37207 115527725.55707      -995.680    21984197.73007  90021603.47507
      -775.855  
  19917428.26608 104666789.60408     -1098.984    19917428.04207  81558536.10407
      -856.352  
  20538799.49908 107932127.09508      1261.860    20538799.82408  84102957.25708
       983.268  
  22050284.89607 115875045.60707      2638.801    22050286.23307  90292259.95207
      2056.209  
  23033082.94406 122952170.55806      3239.509    23033090.33507  95629489.42007
      2519.617  
  20566380.42707 109746143.47507       336.984    20566383.76207  85358131.98207
       262.099  
  22499697.02606 120189390.55606      3384.314    22499705.29406  93480669.74906
      2632.250  
  22007806.45106 117603063.26406       400.446    22007812.06706  91469075.09506
       311.459  
  21579708.15307 115355897.01707     -1933.166    21579713.70207  89721264.35407
     -1503.577  
  21299312.33107 113896969.46607     -3779.596    21299315.35707  88586535.19507
     -2939.690  
  20147410.64407 107812859.36807        -8.469    20147411.83608  83854446.57408
        -6.589  
  23054188.92705 123410827.73305      2017.337    23054192.40007  95986258.27807
      1569.041  
  37376061.46507  -1191743.48907        30.284    37376056.21107  -1170829.10907
        25.389  
  38342493.30807  -1207785.44607        39.830    38342489.31707  -1180474.03807
        32.490  
  37131355.74208  -1148860.29908        11.419    37131352.42807  -1135055.56907
         8.252  
  38468060.47207  -1149741.32007         9.672    38468059.19707  -1137100.79607
         6.704  
  39933937.90607  -3965871.69707      1585.761    39933940.69906  -3297563.16906
      1223.075  
  36090971.50108  -1513536.29908       244.546    36090967.95707  -1417330.28407
       188.137  
  38027629.58407  -4210896.09607      1575.982    38027626.16307  -3498278.78407
      1218.355  
  40561383.09906   2209587.04806     -1707.884    40561384.03306   1463687.35806
     -1320.297  
  37094719.78308  -1590282.62708       300.984    37094718.03907  -1475104.36407
       232.719  
 13  3 17  1 22 45.0000000  0 26G21G24G02G05G08G29G26G15G09R18R02R12
                                R11R01R24R17R03C01C02C03C04C10C06C07
                                C08C09
  24576287.03606 129149264.14706      3254.805    24576288.39805 100635799.61605
      2536.212  
  24555671.32305 129040931.82205      3486.359    24555679.46005 100551412.22905
      2716.640  
  22186528.97607 116590975.79307     -2906.446    22186528.69706  90850099.98306
     -2264.768  
  21584561.02507 113427620.16607     -1267.731    21584560.77707  88385156.28707
      -987.843  
  24166791.84906 126997338.25206      -984.539    24166795.06906  98958976.84606
      -767.173  
  21987050.73907 115542720.17407     -1003.995    21987051.14807  90033287.55307
      -782.337  
  19920578.13208 104683342.62708     -1108.444    19920577.92007  81571434.55107
      -863.723  
  20535208.02108 107913253.74608      1254.139    20535208.33607  84088250.75607
       977.253  
  22042760.49407 115835504.96407      2632.750    22042761.82407  90261449.08007
      2051.495  
  23023990.33806 122903634.96606      3231.410    23023997.27107  95591739.53007
      2513.321  
  20565436.33108 109741105.45008       334.302    20565439.77907  85354213.49407
       260.012  
  22490198.66807 120138652.53007      3380.300    22490207.07906  93441206.91506
      2629.129  
  22006698.76407 117597144.26307       388.156    22006704.40206  91464471.44506
       301.901  
  21585132.38107 115384892.42507     -1933.407    21585138.12106  89743816.30006
     -1503.763  
  21309922.46807 113953706.62307     -3785.773    21309925.80107  88630664.02007
     -2944.495  
  20147452.64408 107813083.92908       -21.978    20147453.63208  83854621.21108
       -17.095  
  23048538.00506 123380577.78206      2015.405    23048541.85707  95962730.60607
      1567.543  
  37375963.80108  -1192252.05408        34.024    37375958.13307  -1171222.33407
        25.066  
  38342375.76507  -1208399.26807        38.576    38342371.37107  -1180948.67807
        29.100  
  37131319.62008  -1149047.88908        11.376    37131316.96607  -1135200.60807
         9.233  
  38468027.60307  -1149909.31507        10.793    38468026.51207  -1137230.66407
        10.706  
  39929363.91707  -3989689.50207      1588.122    39929366.43906  -3315980.57306
      1227.636  
  36090261.60608  -1517234.01708       244.532    36090257.76107  -1420189.55107
       190.812  
  38023084.81507  -4234563.69307      1576.871    38023080.81507  -3516580.00607
      1216.862  
  40566303.80006   2235212.21206     -1707.520    40566305.16806   1483502.30806
     -1323.193  
  37093845.37508  -1594835.88508       302.949    37093843.44107  -1478625.19807
       235.329  
 13  3 17  1 23  0.0000000  0 26G21G24G02G05G08G29G26G15G09R18R02R12
                                R11R01R24R17R03C01C02C03C04C10C06C07
                                C08C09
  24566997.12006 129100444.28906      3254.123    24566998.11805 100597758.16905
      2535.677  
  24545718.34205 128988624.66505      3487.288    24545724.74305 100510653.47005
      2717.372  
  22194832.73107 116634610.75207     -2912.017    22194832.28606  90884101.18406
     -2269.108  
  21588182.00107 113446648.46407     -1270.007    21588181.93607  88399983.52507
      -989.617  
  24169614.30506 127012170.31306      -993.376    24169617.23806  98970534.25306
      -774.058  
  21989928.10807 115557840.58207     -1012.387    21989928.50207  90045069.66507
      -788.875  
  19923755.00808 104700038.15408     -1117.932    19923754.91708  81584444.04608
      -871.117  
  20531638.67507 107894497.17707      1246.378    20531638.99107  84073635.26207
       971.205  
  22035253.80307 115796057.12407      2626.558    22035255.11507  90230710.51307
      2046.669  
  23014919.81806 122855217.17506      3223.626    23014926.73007  95554081.27807
      2507.269  
  20564500.02807 109736109.14707       331.525    20564503.51207  85350327.48907
       257.853  
  22480712.13306 120087976.78506      3375.884    22480720.59106  93401792.53106
      2625.693  
  22005625.82206 117591411.02506       375.564    22005631.43706  91460012.28306
       292.107  
  21590557.64307 115413894.01307     -1933.785    21590563.50506  89766373.05906
     -1504.057  
  21320549.93707 114010536.52807     -3791.922    21320553.39607  88674864.99307
     -2949.277  
  20147532.78007 107813512.91607       -35.746    20147533.75008  83854954.86508
       -27.803  
  23042892.47605 123350358.12605      2013.327    23042896.79006  95939226.44306
      1565.922  
  37375865.83607  -1192760.68607        31.567    37375860.37907  -1171615.60607
        26.375  
  38342257.68907  -1209012.83307        37.382    38342254.23707  -1181423.09807
        29.372  
  37131283.54908  -1149235.73408        11.165    37131280.24907  -1135345.84107
         7.550  
  38467995.38707  -1150077.22007        10.630    38467994.52607  -1137360.44607
         2.457  
  39924791.70507  -4013502.64407      1589.222    39924793.16306  -3334394.35506
      1223.159  
  36089550.06408  -1520940.82208       245.178    36089545.87607  -1423055.86307
       188.465  
  38018543.41007  -4258210.83607      1575.333    38018540.09207  -3534865.43207
      1215.435  
  40571222.02506   2260820.02606     -1709.500    40571223.21006   1503303.78606
     -1317.402  
  37092967.87708  -1599402.70408       303.903    37092966.71007  -1482156.53907
       234.787  
 13  3 17  1 23 15.0000000  0 26G21G24G02G05G08G29G26G15G09R18R02R12
                                R11R01R24R17R03C01C02C03C04C10C06C07
                                C08C09
  24557707.59306 129051627.21406      3254.029    24557708.70005 100559718.91005
      2535.606  
  24535761.25705 128936298.80705      3488.223    24535768.36305 100469880.09205
      2718.097  
  22203152.37507 116678329.24407     -2917.943    22203151.71106  90918167.47606
     -2273.728  
  21591809.20007 113465709.54207     -1272.422    21591809.23907  88414836.28907
      -991.500  
  24172460.74606 127027127.95506     -1001.675    24172463.97106  98982189.50506
      -780.529  
  21992829.48807 115573087.20607     -1021.283    21992829.79607  90056950.12307
      -795.807  
  19926959.13408 104716876.83608     -1127.938    19926959.19308  81597565.08208
      -878.914  
  20528091.70908 107875858.11808      1237.986    20528091.93007  84059111.31407
       964.664  
  22027765.02007 115756703.25007      2619.884    22027766.35207  90200045.16807
      2041.468  
  23005871.90806 122806918.17206      3215.304    23005878.87807  95516515.42407
      2500.794  
  20563571.63807 109731155.22807       328.299    20563574.73907  85346474.40907
       255.340  
  22471237.37606 120037364.59006      3371.144    22471245.94306  93362427.58906
      2622.007  
  22004587.92106 117585864.20306       363.102    22004593.29906  91455698.09206
       282.412  
  21595984.21807 115442902.46607     -1934.733    21595990.11206  89788935.15406
     -1504.795  
  21331194.77207 114067459.09807     -3798.550    21331198.14807  88719138.04307
     -2954.431  
  20147651.14808 107814146.91408       -49.653    20147652.27408  83855447.94208
       -38.621  
  23037252.99006 123320169.57606      2011.045    23037256.91907  95915746.50607
      1564.146  
  37375768.37308  -1193268.88508        34.399    37375763.44607  -1172008.53207
        29.613  
  38342140.02607  -1209625.64107        43.497    38342135.72907  -1181896.92707
        30.277  
  37131247.50008  -1149423.31408        15.831    37131244.37207  -1135490.86207
        10.772  
  38467963.86307  -1150244.45007        13.229    38467962.13907  -1137489.72807
        10.748  
  39920219.04007  -4037310.29707      1589.219    39920220.67906  -3352803.90106
      1229.244  
  36088836.43608  -1524656.17508       248.551    36088832.11207  -1425928.77807
       191.146  
  38014005.85207  -4281836.95107      1577.065    38014002.63407  -3553134.57207
      1219.646  
  40576137.77706   2286410.96506     -1704.770    40576138.05006   1523092.29006
     -1316.136  
  37092088.55108  -1603982.63008       307.015    37092086.96107  -1485697.99007
       238.480  
 13  3 17  1 23 30.0000000  0 26G21G24G02G05G08G29G26G15G09R18R02R12
                                R11R01R24R17R03C01C02C03C04C10C06C07
                                C08C09
  24548419.05806 129002816.10306      3254.021    24548420.45405 100521684.30105
      2535.595  
  24525801.13205 128883957.33105      3490.037    24525807.93805 100429094.54005
      2719.509  
  22211488.36607 116722133.82507     -2923.037    22211487.41606  90952300.85906
     -2277.696  
  21595443.04507 113484806.16307     -1274.239    21595443.18307  88429716.73407
      -992.916  
  24175331.46006 127042213.98106     -1010.284    24175335.15406  98993944.80906
      -787.237  
  21995755.31107 115588462.69807     -1029.089    21995755.65907  90068930.99707
      -801.891  
  19930191.09808 104733861.19608     -1136.966    19930191.20908  81610799.63808
      -885.948  
  20524567.63607 107857339.48507      1230.672    20524567.88007  84044681.21607
       958.965  
  22020294.67807 115717446.48007      2614.183    22020296.13207  90169455.49607
      2037.026  
  22996846.97906 122758741.46106      3207.736    22996853.99307  95479044.66507
      2494.906  
  20562651.63307 109726246.19907       325.867    20562654.77907  85342656.28207
       253.453  
  22461775.04507 119986819.31707      3367.712    22461783.79706  93323114.63806
      2619.334  
  22003585.26506 117580506.89106       350.980    22003590.71606  91451531.33806
       272.987  
  21601412.68707 115471920.34907     -1934.769    21601418.28106  89811504.57606
     -1504.823  
  21341857.42307 114124476.73907     -3804.241    21341860.64007  88763485.04807
     -2958.858  
  20147808.43807 107814988.93207       -62.915    20147809.66108  83856102.83908
       -48.934  
  23031619.86906 123290014.79906      2009.124    23031623.29806  95892292.78606
      1562.656  
  37375671.39908  -1193775.47308        32.540    37375665.61707  -1172400.24307
        24.530  
  38342022.60907  -1210236.45007        40.538    38342019.25807  -1182369.22507
        27.988  
  37131211.82708  -1149609.46508        11.073    37131208.91307  -1135634.76107
         9.158  
  38467931.61907  -1150409.81107         8.390    38467930.42107  -1137617.57007
         9.385  
  39915648.89107  -4061111.43807      1583.105    39915649.52206  -3371208.43606
      1223.532  
  36088121.55708  -1528378.83408       247.402    36088117.55907  -1428807.34707
       192.075  
  38009473.08807  -4305440.78107      1571.673    38009469.86407  -3571386.49307
      1214.551  
  40581047.49706   2311986.17406     -1700.081    40581048.95706   1542868.54906
     -1317.698  
  37091206.46208  -1608574.41408       305.307    37091204.44807  -1489248.61207
       237.995  
 13  3 17  1 23 45.0000000  0 26G21G24G02G05G08G29G26G15G09R18R02R12
                                R11R01R24R17R03C01C02C03C04C10C06C07
                                C08C09
  24539131.22006 128954006.93806      3253.598    24539132.61706 100483651.18906
      2535.266  
  24515837.06905 128831596.18105      3491.266    24515843.65705 100388293.69805
      2720.469  
  22219839.85107 116766020.07407     -2928.669    22219838.79906  90986497.87706
     -2282.083  
  21599082.92907 113503934.07407     -1276.222    21599083.01807  88444621.56407
      -994.460  
  24178225.67306 127057423.92206     -1018.224    24178229.80705  99005796.67005
      -793.425  
  21998704.77907 115603962.47507     -1037.651    21998705.17507  90081008.71707
      -808.561  
  19933449.94808 104750986.60408     -1146.592    19933450.09208  81624144.10408
      -893.448  
  20521065.66207 107838936.95007      1222.712    20521066.06707  84030341.58707
       952.763  
  22012842.08607 115678282.93707      2607.761    22012843.70407  90138938.45907
      2032.024  
  22987844.13006 122710683.03706      3199.695    22987851.25606  95441665.88606
      2488.651  
  20561739.27207 109721377.81107       323.072    20561742.66807  85338869.75507
       251.278  
  22452324.65707 119936337.42807      3363.240    22452332.98006  93283851.01606
      2615.858  
  22002617.37406 117575334.85906       338.333    22002622.89806  91447508.66906
       263.150  
  21606842.20207 115500943.35107     -1935.117    21606847.37906  89834077.98906
     -1505.093  
  21352536.79507 114181584.40207     -3810.220    21352539.99807  88807902.04307
     -2963.510  
  20148003.72407 107816034.28907       -76.688    20148004.97508  83856915.87408
       -59.648  
  23025992.18006 123259889.18406      2007.426    23025995.24507  95868861.79007
      1561.332  
  37375573.62108  -1194283.13508        32.594    37375568.53007  -1172792.76307
        26.449  
  38341905.21007  -1210847.99407        39.736    38341901.38507  -1182842.09407
        33.347  
  37131175.70408  -1149796.86008        12.407    37131172.70607  -1135779.63507
         9.528  
  38467899.15407  -1150576.08207        10.714    38467899.21207  -1137746.10307
        10.256  
  39911078.70907  -4084908.62107      1584.230    39911081.01806  -3389609.87906
      1225.498  
  36087404.31408  -1532111.52508       247.776    36087400.82007  -1431693.66707
       192.882  
  38004943.43807  -4329024.93207      1569.771    38004940.27907  -3589623.20507
      1214.339  
  40585955.42406   2337542.84806     -1706.616    40585958.88706   1562630.51906
     -1318.299  
  37090321.88308  -1613180.76208       308.033    37090320.68207  -1492810.48507
       237.935  
 13  3 17  1 24  0.0000000  0 26G21G24G02G05G08G29G26G15G09R18R02R12
                                R11R01R24R17R03C01C02C03C04C10C06C07
                                C08C09
  24529844.13406 128905202.28806      3253.991    24529845.79406 100445621.64706
      2535.577  
  24505870.15306 128779218.24206      3492.293    24505876.87805 100347479.75905
      2721.276  
  22228207.21207 116809990.26907     -2934.002    22228206.11506  91020760.29606
     -2286.241  
  21602729.24907 113523095.87307     -1278.529    21602729.24307  88459552.80307
      -996.259  
  24181143.95406 127072760.18406     -1026.484    24181147.89306  99017746.94406
      -799.862  
  22001678.44907 115619588.80007     -1045.824    22001678.80907  90093185.06107
      -814.930  
  19936736.19608 104768255.31808     -1155.873    19936736.29307  81637600.22307
      -900.682  
  20517586.36108 107820652.97708      1215.004    20517586.84708  84016094.33408
       946.755  
  22005407.83907 115639215.54007      2601.249    22005409.54807  90108496.34907
      2026.948  
  22978863.93006 122662746.07206      3191.745    22978870.92107  95404381.59207
      2482.468  
  20560835.07407 109716552.50907       320.378    20560838.37707  85335116.72407
       249.181  
  22442886.57706 119885921.63006      3358.679    22442894.52706  93244638.78406
      2612.308  
  22001684.70706 117570350.86706       325.907    22001690.21706  91443632.24506
       253.485  
  21612273.03907 115529973.99007     -1935.641    21612278.19706  89856657.32506
     -1505.502  
  21363233.49007 114238784.23607     -3816.299    21363236.69007  88852390.73507
     -2968.237  
  20148237.50907 107817285.56307       -90.199    20148238.77708  83857889.05408
       -70.158  
  23020370.51806 123229795.27906      2004.779    23020373.32506  95845455.38606
      1559.271  
  37375476.18908  -1194790.69208        34.656    37375470.66607  -1173185.19707
        27.503  
  38341787.68207  -1211459.09707        40.454    38341783.45907  -1183314.60407
        30.448  
  37131139.68908  -1149984.34208        11.460    37131136.26007  -1135924.57407
         7.765  
  38467868.08307  -1150742.01007        12.758    38467867.19307  -1137874.38007
         7.852  
  39906509.30207  -4108700.58007      1582.369    39906512.37906  -3408007.27906
      1228.100  
  36086685.84708  -1535852.99308       250.199    36086682.52907  -1434586.78007
       192.766  
  38000417.96107  -4352588.27107      1570.401    38000415.48607  -3607843.81607
      1214.637  
  40590860.04406   2363082.06406     -1701.032    40590862.12106   1582378.98706
     -1316.506  
  37089434.86208  -1617800.56608       307.126    37089433.34007  -1496382.79207
       239.653  
 13  3 17  1 24 15.0000000  0 26G21G24G02G05G08G29G26G15G09R18R02R12
                                R11R01R24R17R03C01C02C03C04C10C06C07
                                C08C09
  24520557.51106 128856400.74506      3252.551    24520558.85205 100407594.49805
      2534.455  
  24495899.69706 128726822.23906      3493.543    24495905.72404 100306651.76804
      2722.250  
  22236590.00907 116854042.49707     -2940.033    22236589.10406  91055086.64906
     -2290.938  
  21606381.69107 113542289.61407     -1281.078    21606381.64707  88474508.93607
      -998.245  
  24184086.14506 127088221.10406     -1035.504    24184089.86706  99029794.38706
      -806.888  
  22004675.77607 115635339.82107     -1054.607    22004676.16607  90105458.56307
      -821.774  
  19940049.34008 104785665.42708     -1165.782    19940049.37707  81651166.52407
      -908.402  
  20514129.37408 107802485.84408      1206.822    20514129.73208  84001938.12808
       940.381  
  21997991.65907 115600242.99807      2594.656    21997993.41307  90078128.14507
      2021.810  
  22969906.14506 122614929.17106      3183.526    22969912.96907  95367190.67907
      2476.077  
  20559938.45007 109711768.19107       317.112    20559941.80507  85331395.59107
       246.643  
  22433460.69507 119835571.00307      3354.053    22433468.59106  93205477.23706
      2608.712  
  22000786.84606 117565553.23706       313.199    22000792.27806  91439900.76906
       243.600  
  21617704.99607 115559010.42907     -1936.405    21617710.12406  89879241.18706
     -1506.095  
  21373946.85907 114296073.73207     -3822.698    21373950.37507  88896949.16707
     -2973.214  
  20148509.60708 107818741.07408      -104.297    20148510.87908  83859021.11408
       -81.121  
  23014754.40605 123199731.18205      2002.982    23014756.86107  95822072.24907
      1557.876  
  37375378.44408  -1195300.60108        31.127    37375372.34207  -1173579.45807
        26.832  
  38341670.05007  -1212072.21507        42.186    38341665.95607  -1183788.67207
        28.625  
  37131103.06708  -1150174.32108        13.362    37131099.94207  -1136071.44807
         8.852  
  38467835.33107  -1150910.07307         9.415    38467834.53907  -1138004.31507
         7.659  
  39901941.02207  -4132489.75007      1586.854    39901943.84606  -3426402.56906
      1228.285  
  36085965.27208  -1539605.61108       249.801    36085961.64107  -1437488.51207
       192.276  
  37995896.52007  -4376133.04907      1569.322    37995894.53507  -3626050.07807
      1210.904  
  40595759.50906   2388601.34006     -1698.246    40595763.15606   1602112.08106
     -1314.534  
  37088544.37408  -1622436.16408       310.564    37088543.17207  -1499967.29107
       239.703  
 13  3 17  1 24 30.0000000  0 26G21G24G02G05G08G29G26G15G09R18R02R12
                                R11R01R24R17R03C01C02C03C04C10C06C07
                                C08C09
  24511272.18406 128807605.19006      3253.071    24511272.26905 100369571.95605
      2534.851  
  24485926.24306 128674410.81906      3494.865    24485932.96305 100265811.72405
      2723.272  
  22244988.85407 116898179.11107     -2945.341    22244988.31507  91089478.73207
     -2295.078  
  21610040.71207 113561517.99307     -1282.915    21610040.70207  88489492.05107
      -999.677  
  24187052.51606 127103809.01806     -1043.427    24187055.71806  99041940.75006
      -813.065  
  22007697.21207 115651217.84007     -1062.588    22007697.84307  90117831.00307
      -827.993  
  19943389.72008 104803219.07308     -1175.026    19943389.74307  81664844.67907
      -915.606  
  20510694.96708 107784438.06308      1199.218    20510695.35408  83987874.92008
       934.455  
  21990594.10507 115561368.33807      2588.365    21990595.82907  90047836.21907
      2016.908  
  22960971.46206 122567235.33106      3175.311    22960978.22707  95330095.49407
      2469.688  
  20559050.02708 109707027.37208       314.605    20559053.25507  85327708.27307
       244.692  
  22424047.76807 119785288.63607      3349.775    22424055.42106  93166368.79706
      2605.385  
  21999924.52306 117560944.99106       300.869    21999929.74706  91436316.59906
       234.011  
  21623138.61807 115588055.12707     -1936.574    21623143.73407  89901831.47507
     -1506.227  
  21384677.53007 114353455.16907     -3828.408    21384681.12807  88941579.10707
     -2977.656  
  20148820.30508 107820403.24708      -117.809    20148821.42008  83860313.89408
       -91.631  
  23009144.44206 123169699.35306      2000.950    23009146.63907  95798714.16007
      1556.297  
  37375279.28508  -1195814.96208        36.098    37375273.57307  -1173977.15607
        27.908  
  38341551.43107  -1212689.42607        41.605    38341546.91407  -1184265.90407
        30.394  
  37131065.87808  -1150368.94008        14.020    37131062.47307  -1136221.92607
        12.687  
  38467803.10807  -1151082.42807        10.021    38467801.57407  -1138137.55507
         8.933  
  39897371.94607  -4156278.10607      1587.897    39897375.39406  -3444797.19506
      1229.763  
  36085242.01608  -1543371.57808       250.599    36085238.41207  -1440400.56507
       194.266  
  37991377.44007  -4399661.44907      1568.630    37991376.43907  -3644243.66207
      1212.807  
  40600656.98006   2414098.48606     -1700.935    40600659.74505   1621828.06005
     -1313.214  
  37087650.81908  -1627089.70408       310.792    37087649.50407  -1503565.66507
       240.180  
 13  3 17  1 24 45.0000000  0 26G21G24G02G05G08G29G26G15G09R18R02R12
                                R11R01R24R17R03C01C02C03C04C10C06C07
                                C08C09
  24501987.37606 128758814.21206      3252.638    24501987.84605 100331553.05005
      2534.524  
  24475949.70906 128621982.90906      3495.576    24475957.39304 100224958.82604
      2723.824  
  22253403.37707 116942398.50807     -2950.576    22253403.25306  91123935.31806
     -2299.155  
  21613706.01107 113580779.50907     -1285.037    21613706.12707  88504500.98907
     -1001.330  
  24190042.70506 127119522.24406     -1051.594    24190045.65306  99054184.78906
      -819.426  
  22010742.50107 115667221.00607     -1070.952    22010743.38507  90130300.96407
      -834.510  
  19946757.04608 104820914.55908     -1184.303    19946757.11907  81678633.35807
      -922.834  
  20507282.98208 107766508.13308      1191.543    20507283.44108  83973903.55408
       928.475  
  21983215.00107 115522590.44107      2582.017    21983216.70507  90017619.68607
      2011.962  
  22952059.53806 122519663.56706      3167.224    22952066.28807  95293095.27207
      2463.399  
  20558169.46608 109702328.48508       311.943    20558172.68407  85324053.58207
       242.623  
  22414647.33407 119735073.64107      3345.481    22414655.05507  93127312.74907
      2602.044  
  21999097.19006 117556524.44406       288.435    21999102.33206  91432878.40206
       224.339  
  21628573.42507 115617106.61207     -1936.907    21628578.73907  89924427.02707
     -1506.486  
  21395424.99607 114410926.28707     -3834.246    21395428.61007  88986278.78807
     -2982.196  
  20149169.35107 107822270.57107      -131.176    20149170.33208  83861766.25508
      -102.026  
  23003540.03106 123139698.32206      1998.671    23003542.69107  95775380.05007
      1554.521  
  37375182.12708  -1196322.62908        35.881    37375176.32507  -1174369.68407
        26.882  
  38341434.22207  -1213299.60307        45.800    38341430.02807  -1184737.71007
        35.095  
  37131029.41408  -1150557.04808        15.566    37131026.44907  -1136367.34307
         9.827  
  38467770.42407  -1151247.84507        13.937    38467769.59307  -1138265.46107
         7.475  
  39892806.15307  -4180054.52607      1585.631    39892810.10407  -3463182.59207
      1226.658  
  36084518.21408  -1547139.68008       252.419    36084514.91607  -1443314.27107
       195.655  
  37986864.86107  -4423162.19107      1566.935    37986862.83307  -3662415.87407
      1216.768  
  40605551.83406   2439584.50206     -1699.825    40605553.88406   1641535.34906
     -1314.683  
  37086755.70708  -1631750.01808       313.520    37086754.44607  -1507169.28007
       243.740  
 13  3 17  1 25  0.0000000  0 26G21G24G02G05G08G29G26G15G09R18R02R12
                                R11R01R24R17R03C01C02C03C04C10C06C07
                                C08C09
  24492703.49806 128710027.70206      3251.699    24492704.34904 100293537.57604
      2533.785  
  24465969.87806 128569538.54306      3496.474    24465977.72405 100184093.15205
      2724.529  
  22261833.55907 116986700.00707     -2956.704    22261833.52906  91158455.90206
     -2303.929  
  21617377.60307 113600073.93307     -1287.941    21617377.79507  88519535.58407
     -1003.591  
  24193056.57306 127135360.43606     -1060.617    24193059.59406  99066526.20706
      -826.456  
  22013811.66807 115683348.94407     -1079.866    22013812.54207  90142868.16207
      -841.456  
  19950151.24108 104838751.39208     -1194.314    19950151.40107  81692532.18507
      -930.634  
  20503893.45908 107748695.90508      1182.970    20503893.89208  83960023.90008
       921.795  
  21975854.35807 115483909.36907      2574.881    21975856.04207  89987478.60507
      2006.403  
  22943170.28606 122472214.02306      3158.734    22943177.12707  95256190.10007
      2456.795  
  20557296.60507 109697671.20107       308.576    20557299.96907  85320431.25007
       240.005  
  22405259.51906 119684926.27706      3340.390    22405267.25407  93088309.34607
      2598.090  
  21998305.06106 117552291.51406       275.598    21998309.98006  91429586.11806
       214.355  
  21634009.48807 115646164.40707     -1937.781    21634014.63907  89947027.50507
     -1507.164  
  21406189.18307 114468486.25507     -3840.874    21406192.46707  89031047.59907
     -2987.349  
  20149556.49507 107824342.68607      -145.537    20149557.63808  83863377.88508
      -113.196  
  22997941.27606 123109727.44506      1996.879    22997944.03906  95752069.42706
      1553.134  
  37375085.18008  -1196825.41908        33.644    37375079.85007  -1174758.43307
        25.036  
  38341317.55107  -1213904.51107        38.533    38341313.98907  -1185205.46207
        29.064  
  37130994.16408  -1150740.41308        12.829    37130991.12107  -1136509.09907
         9.291  
  38467739.87007  -1151408.11007         8.457    38467738.90107  -1138389.35707
         3.418  
  39888241.91007  -4203820.66607      1585.943    39888245.95206  -3481560.04806
      1222.991  
  36083793.79508  -1550911.57408       250.485    36083790.96907  -1446230.89307
       192.837  
  37982356.96307  -4446637.01007      1564.494    37982354.60607  -3680568.04707
      1210.045  
  40610442.70306   2465057.63706     -1697.103    40610445.64505   1661232.74105
     -1310.859  
  37085858.98508  -1636418.94108       310.648    37085857.72407  -1510779.56207
       239.764  
 13  3 17  1 25 15.0000000  0 26G21G24G02G05G08G29G26G15G09R18R02R12
                                R11R01R24R17R03C01C02C03C04C10C06C07
                                C08C09
  24483421.16806 128661249.50106      3252.446    24483422.12605 100255528.66105
      2534.375  
  24455987.41206 128517081.49506      3497.985    24455995.23105 100143217.57805
      2725.709  
  22270280.14807 117031086.98307     -2961.732    22270279.78206  91193043.10206
     -2307.849  
  21621056.16807 113619404.73407     -1289.605    21621056.37207  88534598.51907
     -1004.889  
  24196095.00306 127151327.00106     -1068.213    24196098.25906  99078967.65806
      -832.376  
  22016905.07607 115699604.80707     -1087.440    22016905.82707  90155535.05207
      -847.358  
  19953572.96008 104856732.71308     -1203.165    19953573.19807  81706543.58807
      -937.533  
  20500527.04708 107731004.78108      1175.740    20500527.31008  83946238.61208
       916.161  
  21968512.77407 115445329.00407      2569.077    21968514.52507  89957416.00607
      2001.879  
  22934304.43106 122424890.70306      3150.955    22934311.47507  95219383.08007
      2450.742  
  20556432.16007 109693058.79107       306.380    20556435.61607  85316843.81707
       238.294  
  22395885.10406 119634850.66006      3336.298    22395892.92307  93049361.70107
      2594.901  
  21997549.03906 117548250.06306       263.433    21997553.69106  91426442.78306
       204.893  
  21639447.33907 115675232.14507     -1937.726    21639452.28407  89969635.71107
     -1507.124  
  21416970.52307 114526138.10107     -3846.217    21416973.70207  89075887.84907
     -2991.506  
  20149982.55608 107826623.06708      -158.693    20149983.84008  83865151.48408
      -123.431  
  22992348.99806 123079790.49106      1995.143    22992351.25007  95728785.10107
      1551.776  
  37374987.28308  -1197336.91008        34.340    37374981.57707  -1175153.91007
        27.459  
  38341200.20207  -1214517.81407        39.352    38341196.18607  -1185679.67107
        31.551  
  37130957.63108  -1150932.66408        14.468    37130954.30007  -1136657.74307
         9.793  
  38467707.41907  -1151576.95207        12.605    38467706.52307  -1138519.86607
         9.408  
  39883677.10307  -4227589.97807      1584.119    39883681.37806  -3499939.93506
      1226.996  
  36083065.96708  -1554700.92308       252.281    36083062.77907  -1449161.02207
       196.348  
  37977851.20607  -4470099.45507      1561.953    37977848.25107  -3698710.63407
      1209.144  
  40615328.53006   2490504.12706     -1699.620    40615331.91905   1680909.51005
     -1315.474  
  37084958.03408  -1641110.02208       313.289    37084956.70307  -1514406.95707
       242.670  
 13  3 17  1 25 30.0000000  0 25G21G24G02G05G08G29G26G15G09R18R02R12
                                R11R01R24R17R03C01C02C03C04C10C06C07
                                C09
  24474139.51006 128612474.30406      3251.649    24474140.44705 100217522.01705
      2533.756  
  24446001.62306 128464606.70406      3498.702    24446008.60205 100102328.14305
      2726.255  
  22278741.85007 117075553.60907     -2966.938    22278741.31206  91227692.33606
     -2311.904  
  21624740.47807 113638766.12307     -1291.661    21624740.70507  88549685.28807
     -1006.490  
  24199156.62606 127167416.34206     -1076.472    24199160.14606  99091504.78006
      -838.811  
  22020021.63007 115715982.81707     -1095.726    22020022.26307  90168297.10407
      -853.814  
  19957021.10508 104874852.64408     -1212.563    19957021.38708  81720663.00308
      -944.855  
  20497182.52608 107713429.13408      1167.890    20497182.64608  83932543.29908
       910.044  
  21961189.28307 115406844.18307      2562.521    21961191.21107  89927427.85507
      1996.771  
  22925461.12206 122377688.44206      3142.769    22925468.76507  95182670.23107
      2444.378  
  20555575.16407 109688485.26307       303.590    20555578.33007  85313286.62207
       236.125  
  22386523.24807 119584841.47607      3331.828    22386531.11007  93010465.75807
      2591.429  
  21996827.47206 117544394.45206       250.875    21996832.21606  91423443.98006
       195.123  
  21644885.83207 115704303.97507     -1938.085    21644890.87707  89992247.08107
     -1507.402  
  21427767.83507 114583875.41907     -3851.878    21427770.96807  89120794.57307
     -2995.911  
  20150446.57008 107829105.92508      -172.176    20150447.89608  83867082.57408
      -133.916  
  22986761.80106 123049881.44206      1993.534    22986763.90407  95705522.53307
      1550.528  
  37374888.19508  -1197851.09108        34.564    37374883.11507  -1175551.48607
        26.773  
  38341082.07807  -1215133.50807        40.996    38341078.11907  -1186155.73207
        35.236  
  37130919.77708  -1151127.79808        12.038    37130916.64907  -1136808.60307
         9.945  
  38467674.48007  -1151748.23407        12.684    38467672.95507  -1138652.26707
         9.008  
  39879112.87207  -4251356.45507      1585.495    39879117.95206  -3518317.66406
      1226.037  
  36082336.02508  -1558501.65208       254.513    36082333.19207  -1452099.95407
       195.441  
  37973348.86207  -4493543.44507      1563.801    37973346.56407  -3716838.97907
      1210.234  
  37084053.96908  -1645817.28108       314.199    37084052.67907  -1518046.87207
       243.602  
 13  3 17  1 25 45.0000000  0 25G21G24G02G05G08G29G26G15G09R18R02R12
                                R11R01R24R17R03C01C02C03C04C10C06C07
                                C09
  24464858.86306 128563704.19306      3251.271    24464859.91405 100179519.37305
      2533.460  
  24436012.87906 128412116.06006      3500.044    24436019.69504 100061426.35104
      2727.305  
  22287219.09407 117120101.51107     -2972.451    22287218.35406  91262404.90806
     -2316.200  
  21628430.91107 113658159.97607     -1293.877    21628431.13207  88564797.34607
     -1008.218  
  24202242.02507 127183630.23107     -1084.857    24202245.43606  99104138.95006
      -845.345  
  22023161.76507 115732484.61907     -1104.070    22023162.28807  90181155.61507
      -860.317  
  19960495.94508 104893112.79908     -1221.759    19960496.14007  81734891.67807
      -952.021  
  20493860.34608 107695970.63808      1160.131    20493860.36508  83918939.27808
       903.998  
  21953884.31607 115368457.08407      2556.010    21953886.38807  89897515.84707
      1991.696  
  22916641.40006 122330609.31306      3134.592    22916649.42807  95146053.15707
      2438.017  
  20554725.83708 109683952.66008       301.069    20554728.90507  85309761.25307
       234.165  
  22377174.45707 119534901.52207      3327.237    22377182.26307  92971623.64507
      2587.854  
  21996141.15106 117540726.49306       238.622    21996145.90206  91420591.13306
       185.595  
  21650325.43707 115733381.77307     -1938.492    21650330.51507  90014863.10707
     -1507.718  
  21438581.39207 114641699.60607     -3857.618    21438584.52507  89165768.86007
     -3000.375  
  20150948.66407 107831793.06607      -185.713    20150950.18008  83869172.55208
      -144.445  
  22981179.63806 123020002.07906      1991.226    22981182.38807  95682283.06707
      1548.734  
  37374789.54708  -1198364.09008        31.541    37374784.00707  -1175948.12007
        26.321  
  38340963.71007  -1215747.64007        40.185    38340959.77307  -1186630.58807
        29.459  
  37130882.65608  -1151321.89508        12.740    37130879.56007  -1136958.65807
         8.830  
  38467641.77707  -1151918.14107        10.022    38467640.52307  -1138783.62907
         8.155  
  39874549.94407  -4275116.19607      1583.811    39874553.63706  -3536690.16006
      1226.109  
  36081604.64608  -1562309.89108       254.645    36081601.54307  -1455044.68507
       197.242  
  37968851.28007  -4516965.07807      1559.434    37968849.07607  -3734950.01107
      1205.160  
  37083147.95408  -1650536.83808       312.620    37083146.49607  -1521696.29807
       243.710  
 13  3 17  1 26  0.0000000  0 25G21G24G02G05G08G29G26G15G09R18R02R12
                                R11R01R24R17R03C01C02C03C04C10C06C07
                                C09
  24455579.38906 128514940.28506      3250.730    24455580.47605 100141521.52605
      2533.041  
  24426021.61406 128359611.17406      3501.063    24426028.38205 100020513.55805
      2728.116  
  22295711.97207 117164731.61407     -2978.002    22295711.36706  91297181.54606
     -2320.526  
  21632127.80607 113677587.56007     -1296.202    21632127.91707  88579935.69107
     -1010.030  
  24205351.44307 127199969.73607     -1093.096    24205354.71005  99116870.99305
      -851.765  
  22026325.66307 115749110.98007     -1112.428    22026326.29607  90194111.19707
      -866.829  
  19963997.60308 104911513.92608     -1231.209    19963997.63607  81749230.20907
      -959.385  
  20490560.69608 107678630.62908      1152.197    20490560.66008  83905427.58908
       897.816  
  21946598.34907 115330169.32007      2549.376    21946600.43607  89867681.26007
      1986.528  
  22907845.55806 122283655.09406      3126.182    22907853.65207  95109533.23107
      2431.476  
  20553884.28707 109679461.92907       298.054    20553887.42607  85306268.44607
       231.820  
  22367838.82407 119485032.12807      3322.465    22367846.24406  92932836.41906
      2584.145  
  21995490.18706 117537247.92406       225.814    21995494.95606  91417885.58906
       175.634  
  21655766.25407 115762466.63607     -1938.967    21655771.40206  90037484.62706
     -1508.089  
  21449411.31407 114699611.29007     -3863.574    21449414.44007  89210811.22307
     -3005.007  
  20151489.18307 107834685.65807      -199.677    20151490.80408  83871422.33308
      -155.305  
  22975603.25705 122990153.44005      1989.318    22975606.63707  95659067.45507
      1547.243  
  37374691.15108  -1198877.51808        32.979    37374685.81607  -1176345.11107
        24.433  
  38340845.53407  -1216361.83907        41.104    38340842.60107  -1187105.49307
        33.566  
  37130845.09408  -1151516.64008        13.496    37130841.95807  -1137109.21307
         8.094  
  38467609.33107  -1152088.20907        11.611    38467607.77707  -1138915.11907
         8.979  
  39869988.60507  -4298870.73707      1581.826    39869992.06806  -3555058.62006
      1225.729  
  36080871.39908  -1566127.17608       252.771    36080868.81007  -1457996.40807
       196.477  
  37964357.69007  -4540365.88607      1558.043    37964354.86707  -3753044.94307
      1205.327  
  37082238.76108  -1655270.25908       315.257    37082236.63907  -1525356.44307
       243.626  
 13  3 17  1 26 15.0000000  0 25G21G24G02G05G08G29G26G15G09R18R02R12
                                R11R01R24R17R03C01C02C03C04C10C06C07
                                C09
  24446300.85606 128466181.11406      3250.961    24446301.94505 100103527.37705
      2533.220  
  24416027.19606 128307090.60206      3501.723    24416034.19705  99979588.45605
      2728.618  
  22304220.11207 117209441.93507     -2983.263    22304219.61807  91332020.67307
     -2324.627  
  21635830.82107 113697047.12607     -1298.245    21635830.84107  88595098.94407
     -1011.623  
  24208484.44206 127216432.87506     -1101.464    24208487.45906  99129699.37206
      -858.284  
  22029512.99607 115765859.90207     -1120.509    22029513.67207  90207162.27507
      -873.126  
  19967525.71308 104930054.16308     -1240.545    19967525.61907  81763677.13307
      -966.659  
  20487283.27708 107661407.35908      1144.430    20487283.09208  83892006.85608
       891.763  
  21939331.05007 115291979.52007      2542.764    21939333.12807  89837922.99107
      1981.375  
  22899072.95806 122236824.52706      3118.270    22899081.02107  95073109.47807
      2425.323  
  20553050.04307 109675011.03507       295.632    20553053.41107  85302806.64207
       229.936  
  22358516.28907 119435232.34807      3317.716    22358523.17107  92894103.32207
      2580.449  
  21994874.42206 117533956.83006       213.299    21994879.01006  91415325.82706
       165.898  
  21661208.07707 115791556.64807     -1939.337    21661213.41206  90060110.13606
     -1508.376  
  21460257.02807 114757607.91307     -3869.132    21460260.24807  89255919.62207
     -3009.331  
  20152067.75307 107837781.77007      -212.954    20152069.19908  83873830.39708
      -165.632  
  22970032.49405 122960333.71905      1986.787    22970035.71306  95635874.37106
      1545.284  
  37374593.70608  -1199383.03808        33.445    37374588.80507  -1176735.97207
        24.059  
  38340729.76607  -1216967.78507        39.458    38340725.65707  -1187574.02707
        34.658  
  37130809.16508  -1151703.63408        11.897    37130806.29207  -1137253.76807
         8.331  
  38467577.59307  -1152250.22807        11.565    38467576.59907  -1139040.36807
         6.655  
  39865428.99407  -4322611.61007      1583.736    39865433.32506  -3573416.51806
      1221.454  
  36080138.38208  -1569945.15808       254.716    36080135.35207  -1460948.70007
       197.424  
  37959869.69307  -4563737.50607      1556.163    37959866.19707  -3771117.32307
      1203.346  
  37081328.72108  -1660009.25508       316.736    37081326.65707  -1529020.88207
       244.218  
 13  3 17  1 26 30.0000000  0 25G21G24G02G05G08G29G26G15G09R18R02R12
                                R11R01R24R17R03C01C02C03C04C10C06C07
                                C09
  24437023.68806 128417429.33006      3249.595    24437024.73205 100065538.96405
      2532.153  
  24406030.21306 128254556.49306      3502.035    24406036.79704  99938652.87504
      2728.865  
  22312743.93807 117254234.35307     -2988.813    22312743.51906  91366923.79606
     -2328.950  
  21639540.28007 113716540.69007     -1300.738    21639540.37707  88610288.70607
     -1013.564  
  24211641.24506 127233021.65106     -1110.234    24211644.03806  99142625.65906
      -865.121  
  22032723.89907 115782733.33107     -1129.087    22032724.58507  90220310.38207
      -879.810  
  19971080.59308 104948735.17408     -1250.019    19971080.45607  81778233.75507
      -974.042  
  20484028.36008 107644302.90308      1136.299    20484028.10308  83878678.71208
       885.428  
  21932082.91407 115253890.24007      2535.945    21932085.02507  89808243.05107
      1976.062  
  22890323.94706 122190120.04806      3109.180    22890331.85007  95036783.79707
      2418.251  
  20552223.72408 109670602.24608       292.540    20552227.24907  85299377.58007
       227.530  
  22349207.21007 119385504.85007      3312.660    22349214.01607  92855426.46007
      2576.519  
  21994294.28907 117530855.45207       200.287    21994298.58806  91412913.63006
       155.777  
  21666651.33507 115820654.05607     -1940.143    21666656.86407  90082741.41507
     -1509.003  
  21471118.86607 114815691.51407     -3875.057    21471122.24507  89301095.67407
     -3013.940  
  20152684.83608 107841083.62108      -226.985    20152686.08708  83876398.50008
      -176.545  
  22964467.34805 122930544.90005      1984.526    22964470.67807  95612705.29807
      1543.518  
  37374495.69208  -1199895.52908        33.644    37374489.75407  -1177132.21907
        29.728  
  38340611.89407  -1217580.34407        40.146    38340608.87407  -1188047.67707
        36.008  
  37130771.78708  -1151897.73808        16.071    37130768.82007  -1137403.84107
        10.589  
  38467545.02707  -1152419.00407        10.495    38467544.66207  -1139170.83807
         8.715  
  39860869.39007  -4346353.69707      1586.147    39860873.16506  -3591775.36006
      1223.497  
  36079402.08508  -1573778.66008       258.448    36079399.11107  -1463912.97007
       198.629  
  37955383.80407  -4587094.73607      1559.214    37955381.32707  -3789178.56307
      1202.688  
  37080414.78008  -1664768.59508       319.414    37080412.73807  -1532701.08807
       245.434  
 13  3 17  1 26 45.0000000  0 25G21G24G02G05G08G29G26G15G09R18R02R12
                                R11R01R24R17R03C01C02C03C04C10C06C07
                                C09
  24427747.99106 128368685.32506      3249.579    24427749.13705 100027556.65205
      2532.138  
  24396030.95606 128202009.63306      3503.451    24396037.16305  99897707.30205
      2729.964  
  22321283.41907 117299109.01307     -2994.042    22321283.01506  91401890.99906
     -2333.023  
  21643256.34907 113736068.72307     -1302.815    21643256.41707  88625505.32107
     -1015.183  
  24214821.76106 127249736.37006     -1118.563    24214824.88106  99155650.09206
      -871.609  
  22035958.57507 115799731.39307     -1137.342    22035959.32407  90233555.60107
      -886.243  
  19974662.35608 104967557.20008     -1259.497    19974662.12107  81792900.25907
      -981.427  
  20480796.18008 107627317.48808      1128.333    20480795.81108  83865443.32508
       879.220  
  21924854.02307 115215902.14307      2529.016    21924856.18607  89778641.95307
      1970.663  
  22881598.27206 122143542.62606      3101.083    22881606.36007  95000556.90907
      2411.953  
  20551405.51008 109666235.70908       289.758    20551409.02507  85295981.36907
       225.367  
  22339911.72207 119335850.59707      3307.820    22339918.92307  92816806.57007
      2572.753  
  21993749.79107 117527944.43007       187.731    21993753.92506  91410649.48406
       146.012  
  21672096.14507 115849758.97507     -1940.459    21672101.58507  90105378.53807
     -1509.249  
  21481996.67807 114873861.42507     -3880.789    21482000.21107  89346338.85307
     -3018.398  
  20153340.41107 107844591.38707      -240.703    20153341.65508  83879126.74508
      -187.214  
  22958908.68905 122900787.24505      1983.138    22958911.67907  95589560.50307
      1542.447  
  37374398.25908  -1200401.79108        35.141    37374392.57607  -1177523.65407
        27.180  
  38340495.44307  -1218186.37707        41.108    38340491.96207  -1188516.27607
        30.439  
  37130735.93108  -1152085.89008        13.116    37130732.50307  -1137549.29407
        10.951  
  38467514.24307  -1152581.35707        11.742    38467512.94207  -1139296.35307
         7.820  
  39856312.45107  -4370083.77607      1580.299    39856316.39206  -3610124.91406
      1220.175  
  36078665.21608  -1577614.53208       257.599    36078662.43507  -1466879.07407
       199.812  
  37950904.20107  -4610424.38707      1555.287    37950901.50007  -3807218.47407
      1204.686  
  37079498.86708  -1669535.15808       317.681    37079497.45407  -1536386.86607
       245.144  
 13  3 17  1 27  0.0000000  0 25G21G24G02G05G08G29G26G15G09R18R02R12
                                R11R01R24R17R03C01C02C03C04C10C06C07
                                C09
  24418473.52406 128319948.00806      3249.036    24418474.94105  99989579.51505
      2531.718  
  24386028.89806 128149449.64406      3504.046    24386035.69205  99856751.54805
      2730.426  
  22329838.27607 117344064.31307     -2999.610    22329837.77806  91436921.02306
     -2337.363  
  21646978.71807 113755629.71207     -1305.210    21646978.73607  88640747.63607
     -1017.047  
  24218026.15306 127266575.47006     -1126.840    24218029.41206  99168771.45806
      -878.060  
  22039216.65607 115816852.34507     -1145.574    22039217.59807  90246896.57607
      -892.656  
  19978270.65408 104986518.46708     -1268.766    19978270.23807  81807675.26107
      -988.649  
  20477586.37508 107610449.74708      1120.553    20477586.00808  83852299.62808
       873.159  
  21917644.08407 115178014.15907      2522.631    21917646.22407  89749118.86707
      1965.689  
  22872896.14106 122097091.27606      3092.542    22872904.38007  94964428.10907
      2405.313  
  20550594.93307 109661909.72607       287.063    20550598.29407  85292616.71607
       223.272  
  22330629.82107 119286268.72307      3303.116    22330637.50607  92778242.95707
      2569.096  
  21993240.69706 117525222.51106       175.139    21993244.62306  91408532.42906
       136.219  
  21677541.99207 115878870.01507     -1940.834    21677547.35307  90128020.41607
     -1509.540  
  21492890.46107 114932115.85007     -3886.338    21492893.99607  89391647.78907
     -3022.711  
  20154034.07107 107848303.56907      -254.315    20154035.41608  83882013.98508
      -197.801  
  22953355.40105 122871059.19905      1980.756    22953358.00807  95566438.74707
      1540.589  
  37374299.82308  -1200915.40108        31.203    37374294.28307  -1177920.78307
        26.403  
  38340377.87607  -1218799.45507        42.623    38340374.24707  -1188990.30507
        30.798  
  37130698.64608  -1152281.59108        11.366    37130695.15607  -1137700.59707
         9.086  
  38467481.47807  -1152750.88207         9.445    38467480.39307  -1139427.39807
         3.725  
  39851754.76907  -4393815.27507      1580.493    39851758.23306  -3628475.55506
      1224.637  
  36077925.55108  -1581466.29608       256.752    36077922.41507  -1469857.46407
       199.163  
  37946426.30707  -4633739.87807      1550.347    37946423.47407  -3825247.44507
      1198.117  
  37078579.43508  -1674322.56508       318.103    37078578.00407  -1540088.76907
       246.387  
 13  3 17  1 27 15.0000000  0 25G21G24G02G05G08G29G26G15G09R18R02R12
                                R11R01R24R17R03C01C02C03C04C10C06C07
                                C09
  24409200.13606 128271217.11606      3248.740    24409201.66906  99951607.38706
      2531.484  
  24376024.43305 128096875.74805      3505.199    24376031.18605  99815784.95305
      2731.337  
  22338408.38707 117389099.79607     -3004.663    22338407.76006  91472013.53906
     -2341.300  
  21650707.32607 113775223.30707     -1307.198    21650707.35907  88656015.33307
     -1018.600  
  24221253.98607 127283538.56307     -1134.981    24221257.43806  99181989.43206
      -884.401  
  22042498.01407 115834095.61407     -1153.550    22042499.04007  90260332.85307
      -898.873  
  19981905.32208 105005618.40408     -1277.763    19981904.80707  81822558.30807
      -995.660  
  20474398.79608 107593699.29808      1112.977    20474398.55308  83839247.32608
       867.255  
  21910453.17507 115140226.47907      2516.094    21910455.31207  89719673.93807
      1960.594  
  22864217.60206 122050766.01306      3084.280    22864225.84607  94928397.37107
      2398.885  
  20549791.84408 109657623.97008       284.475    20549795.16907  85289283.32807
       221.256  
  22321361.63307 119236759.34607      3298.277    22321369.20907  92739735.76607
      2565.333  
  21992766.54906 117522689.42506       162.690    21992770.83206  91406562.22706
       126.535  
  21682988.65907 115907986.83807     -1941.282    21682994.09706  90150666.78006
     -1509.889  
  21503799.93207 114990453.91107     -3891.889    21503803.55407  89437021.76207
     -3027.030  
  20154765.89707 107852219.77207      -267.690    20154767.21108  83885059.89808
      -208.205  
  22947807.44206 122841360.43906      1979.107    22947810.05807  95543339.65207
      1539.303  
  37374200.33408  -1201430.65208        35.266    37374194.88407  -1178319.16707
        28.878  
  38340259.77607  -1219413.71807        40.249    38340256.53007  -1189465.26907
        34.437  
  37130660.11208  -1152479.03908        13.351    37130657.17007  -1137853.23007
        10.572  
  38467448.90407  -1152921.71707        11.739    38467447.10207  -1139559.51107
         8.395  
  39847198.35406  -4417542.32606      1581.972    39847202.09906  -3646822.75206
      1224.673  
  36077184.27808  -1585328.09408       258.510    36077181.06907  -1472843.61407
       200.102  
  37941951.97907  -4657035.43207      1552.193    37941950.30007  -3843260.98007
      1199.993  
  37077657.53008  -1679124.96708       321.735    37077655.96907  -1543802.25607
       247.360  
 13  3 17  1 27 30.0000000  0 24G21G02G05G08G29G26G15G09R18R02R12R11
                                R01R24R17R03C01C02C03C04C10C06C07C09
  24399928.35306 128222494.25306      3248.081    24399929.75705  99913641.52905
      2530.970  
  22346993.89507 117434216.44107     -3010.491    22346993.12606  91507169.28206
     -2345.843  
  21654442.38007 113794850.63907     -1309.574    21654442.50907  88671309.31407
     -1020.450  
  24224505.71407 127300626.83807     -1143.501    24224509.15306  99195304.91706
      -891.044  
  22045802.80007 115851462.19307     -1161.849    22045803.75207  90273865.22207
      -905.340  
  19985566.53108 105024857.93608     -1287.308    19985566.02907  81837550.14207
     -1003.098  
  20471233.77208 107577067.27408      1104.853    20471233.65108  83826287.31508
       860.925  
  21903281.68407 115102540.71907      2509.138    21903283.83307  89690308.42807
      1955.173  
  22855563.22506 122004568.54506      3075.534    22855571.19207  94892466.02907
      2392.083  
  20548996.38007 109653379.47007       281.625    20548999.71007  85285982.05007
       219.042  
  22312107.53707 119187324.36107      3293.319    22312114.79407  92701286.42007
      2561.476  
  21992328.08807 117520346.37807       149.823    21992332.59706  91404739.83006
       116.526  
  21688436.61007 115937110.35507     -1941.742    21688442.14306  90173318.36206
     -1510.247  
  21514725.07907 115048876.09507     -3897.588    21514728.85707  89482461.16207
     -3031.464  
  20155536.04507 107856341.07607      -281.555    20155537.46608  83888265.33208
      -218.989  
  22942265.34306 122811691.84706      1976.843    22942267.95307  95520264.13907
      1537.548  
  37374100.98308  -1201951.25908        33.040    37374095.06607  -1178721.70307
        25.979  
  38340141.12007  -1220032.99307        40.473    38340137.31707  -1189944.10007
        30.735  
  37130621.51808  -1152682.01208        12.358    37130617.94107  -1138010.15007
         8.430  
  38467414.85107  -1153097.75307        10.286    38467413.78507  -1139695.61107
         8.872  
  39842642.07806  -4441268.67406      1581.817    39842645.31706  -3665169.43706
      1223.404  
  36076440.15308  -1589203.68808       258.152    36076436.41007  -1475840.43807
       199.199  
  37937481.37307  -4680314.75807      1550.694    37937478.79507  -3861261.99007
      1198.002  
  37076731.70508  -1683946.08908       320.568    37076729.57307  -1547530.21107
       250.405  
 13  3 17  1 27 45.0000000  0 25G21G24G02G05G08G29G26G15G09R18R02R12
                                R11R01R24R17R03C01C02C03C04C10C06C07
                                C09
  24390658.24006 128173778.77606      3247.224    24390659.59805  99875681.44305
      2530.305  
  24356006.92705 127991682.21805      3506.865    24356015.72405  99733801.16805
      2732.645  
  22355594.60207 117479413.21807     -3016.002    22355593.85006  91542387.48506
     -2350.136  
  21658183.82407 113814511.08707     -1312.068    21658183.82607  88686629.10607
     -1022.393  
  24227781.15607 127317839.36707     -1152.131    24227784.59706  99208717.23306
      -897.769  
  22049130.79107 115868951.07607     -1170.288    22049131.49107  90287492.89707
      -911.914  
  19989254.03708 105044235.92308     -1296.707    19989253.65707  81852649.86007
     -1010.421  
  20468091.23208 107560553.02708      1096.685    20468091.12308  83813419.07408
       854.561  
  21896129.58407 115064956.58107      2501.819    21896131.68107  89661022.10707
      1949.471  
  22846932.83506 121958498.61306      3066.481    22846940.72507  94856633.90007
      2385.043  
  20548208.46907 109649175.34807       278.640    20548211.71807  85282712.17607
       216.719  
  22302867.09407 119137963.45907      3287.809    22302874.29407  92662894.67807
      2557.189  
  21991924.98706 117518192.76706       137.126    21991929.60106  91403064.76306
       106.651  
  21693885.81907 115966240.15807     -1942.672    21693891.50606  90195974.83006
     -1510.970  
  21525665.81507 115107381.25507     -3903.287    21525669.66107  89527965.10007
     -3035.895  
  20156344.37807 107860666.71707      -295.433    20156345.80508  83891629.72208
      -229.781  
  22936728.37606 122782052.84906      1974.453    22936730.96906  95497211.59206
      1535.685  
  37374003.96408  -1202455.72208        33.405    37373998.12707  -1179111.75307
        25.537  
  38340025.38607  -1220635.83807        39.209    38340021.01507  -1190410.24107
        31.369  
  37130585.40608  -1152869.05708        12.177    37130582.13307  -1138154.76707
         7.731  
  38467384.33307  -1153257.53807         9.465    38467383.10107  -1139819.13107
         9.518  
  39838089.53506  -4464972.81106      1582.614    39838092.86606  -3683498.92006
      1219.300  
  36075697.47108  -1593071.58008       257.196    36075693.61007  -1478831.30507
       199.816  
  37933017.86407  -4703556.32107      1548.487    37933015.93707  -3879233.78407
      1197.297  
  37075806.14508  -1688764.56608       321.126    37075804.52407  -1551256.13007
       246.633  
 13  3 17  1 28  0.0000000  0 25G21G24G02G05G08G29G26G15G09R18R02R12
                                R11R01R24R17R03C01C02C03C04C10C06C07
                                C09
  24381389.56306 128125071.19906      3246.930    24381390.40005  99837727.50805
      2530.078  
  24345995.84605 127939071.64605      3508.258    24346004.30004  99692805.97904
      2733.714  
  22364210.52707 117524690.25407     -3021.157    22364209.99507  91577668.22807
     -2354.151  
  21661931.51207 113834204.92907     -1313.924    21661931.33707  88701974.92207
     -1023.839  
  24231080.27907 127335176.25407     -1159.793    24231083.64806  99222226.48106
      -903.735  
  22052482.16807 115886562.38207     -1178.047    22052482.56807  90301215.96707
      -917.960  
  19992967.85508 105063752.48208     -1305.643    19992967.62807  81867857.56007
     -1017.384  
  20464971.27908 107544156.81608      1089.318    20464971.09908  83800642.79208
       848.819  
  21888996.92707 115027474.69407      2495.520    21888999.04607  89631815.46507
      1944.563  
  22838326.52306 121912556.83206      3058.487    22838334.45007  94820901.43807
      2378.827  
  20547428.22207 109645011.91907       276.324    20547431.48007  85279473.94207
       214.918  
  22293640.62807 119088677.50307      3283.309    22293647.46607  92624561.23707
      2553.691  
  21991557.32906 117516229.07606       124.781    21991562.01406  91401537.41706
        97.050  
  21699336.32407 115995376.28707     -1942.554    21699342.00506  90218636.24206
     -1510.877  
  21536622.13207 115165968.96107     -3908.486    21536625.90707  89573533.22907
     -3039.939  
  20157190.85707 107865196.86307      -308.697    20157192.35308  83895153.14108
      -240.100  
  22931196.96706 122752443.43406      1973.089    22931199.53106  95474182.04006
      1534.625  
  37373903.95908  -1202973.76108        33.003    37373898.96507  -1179512.30707
        26.535  
  38339907.17307  -1221251.90707        44.540    38339903.00107  -1190886.60307
        34.190  
  37130547.14608  -1153069.83408        12.573    37130543.35807  -1138309.98507
         8.566  
  38467351.41807  -1153430.61107        11.321    38467349.65207  -1139952.92507
         8.002  
  39833536.02206  -4488684.35106      1581.205    39833538.70706  -3701834.14006
      1223.413  
  36074950.58108  -1596961.40408       259.833    36074946.53407  -1481839.13007
       199.569  
  37928555.92607  -4726789.71707      1548.970    37928553.24307  -3897199.26707
      1195.619  
  37074875.75308  -1693610.01408       325.968    37074873.96007  -1555002.89807
       248.400  
 13  3 17  1 28 15.0000000  0 25G21G24G02G05G08G29G26G15G09R18R02R12
                                R11R01R24R17R03C01C02C03C04C10C06C07
                                C09
  24372122.14206 128076369.90106      3246.438    24372122.82405  99799778.45105
      2529.692  
  24335982.64205 127886447.76305      3508.792    24335988.26705  99651800.44305
      2734.129  
  22372841.17107 117570045.30007     -3026.412    22372840.95306  91613009.73106
     -2358.250  
  21665685.14207 113853930.15907     -1316.108    21665684.79707  88717345.19307
     -1025.542  
  24234402.60506 127352635.56306     -1168.212    24234406.17906  99235831.12006
      -910.296  
  22055856.42807 115904293.85907     -1186.057    22055856.77007  90315032.67007
      -924.201  
  19996707.56508 105083405.32508     -1314.750    19996707.53908  81883171.45208
     -1024.481  
  20461873.38708 107527876.71608      1081.441    20461873.27308  83787957.00508
       842.682  
  21881883.58807 114990093.53707      2488.744    21881885.55907  89602687.30207
      1939.282  
  22829743.86306 121866741.83406      3050.239    22829751.75607  94785267.56307
      2372.409  
  20546655.13407 109640886.83107       273.747    20546658.58507  85276265.53007
       212.915  
  22284427.89407 119039465.17607      3278.455    22284434.57907  92586285.07307
      2549.914  
  21991224.94306 117514453.64606       112.039    21991229.61706  91400156.49806
        87.139  
  21704787.70807 116024516.48107     -1942.846    21704793.23306  90241300.78106
     -1511.106  
  21547593.28407 115224636.78607     -3913.945    21547597.05107  89619163.66707
     -3044.185  
  20158075.25108 107869929.44708      -322.286    20158076.76608  83898834.02208
      -250.668  
  22925670.75306 122722861.67006      1971.037    22925673.57507  95451174.02107
      1533.029  
  37373805.53308  -1203488.46508        31.723    37373799.98307  -1179910.26907
        26.025  
  38339789.24307  -1221864.26707        40.204    38339786.13507  -1191360.08107
        27.707  
  37130508.53808  -1153267.44008        11.240    37130505.72307  -1138462.75707
         8.894  
  38467318.73307  -1153600.13907         9.377    38467317.22007  -1140084.00107
         3.853  
  39828984.31106  -4512386.29906      1575.582    39828987.50606  -3720161.91506
      1220.399  
  36074202.59108  -1600856.26808       258.110    36074198.54607  -1484850.84107
       196.852  
  37924099.06707  -4749998.03007      1544.482    37924096.23407  -3915145.36507
      1192.384  
  37073943.43308  -1698465.48508       322.826    37073941.19507  -1558757.43607
       249.495  
 13  3 17  1 28 30.0000000  0 25G21G24G02G05G08G29G26G15G09R18R02R12
                                R11R01R24R17R03C01C02C03C04C10C06C07
                                C09
  24362855.92206 128027675.48706      3245.698    24362856.82706  99761834.76306
      2529.117  
  24325966.35905 127833811.08705      3508.785    24325972.67705  99610784.96105
      2734.125  
  22381486.83107 117615478.63907     -3032.050    22381486.76106  91648412.23306
     -2362.644  
  21669444.93607 113873687.36707     -1318.635    21669444.35007  88732740.39607
     -1027.510  
  24237748.24306 127370217.56906     -1176.560    24237752.04106  99249531.35306
      -916.801  
  22059253.59707 115922145.72607     -1194.694    22059253.85707  90328943.19707
      -930.932  
  20000473.25908 105103194.66408     -1324.331    20000473.37107  81898591.70607
     -1031.947  
  20458797.53308 107511712.95008      1073.270    20458797.61108  83775361.87308
       836.314  
  21874789.57007 114952813.89807      2481.219    21874791.41207  89573638.24707
      1933.419  
  22821185.06306 121821054.43606      3041.114    22821192.68907  94749732.92407
      2365.312  
  20545889.39807 109636800.66607       270.566    20545893.00707  85273087.40007
       210.440  
  22275229.07107 118990327.44707      3272.745    22275235.69007  92548066.91207
      2545.473  
  21990928.03506 117512866.76506        98.905    21990932.57406  91398922.22706
        76.924  
  21710239.96507 116053661.53007     -1943.516    21710245.39406  90263969.10506
     -1511.628  
  21558579.43707 115283384.45707     -3919.583    21558583.12207  89664856.24107
     -3048.569  
  20158997.73608 107874864.69608      -336.184    20158999.17908  83902672.55208
      -261.477  
  22920149.94706 122693307.79306      1968.807    22920152.89607  95428187.66007
      1531.295  
  37373706.79408  -1204001.83908        34.836    37373701.58507  -1180307.21607
        25.404  
  38339672.30307  -1222474.93807        39.626    38339668.16707  -1191832.26407
        33.600  
  37130470.95608  -1153463.91408        13.683    37130468.10507  -1138614.64107
         8.984  
  38467286.32907  -1153768.17107        10.790    38467284.83607  -1140213.88307
         6.690  
  39824434.37806  -4536080.58406      1580.232    39824436.93606  -3738483.78706
      1224.150  
  36073453.09008  -1604758.11308       260.687    36073448.88707  -1487867.96707
       200.435  
  37919646.33907  -4773183.21007      1546.401    37919644.32607  -3933073.55207
      1196.455  
  37073008.32108  -1703333.00208       323.249    37073006.96407  -1562521.28707
       253.572  
 13  3 17  1 28 45.0000000  0 25G21G24G02G05G08G29G26G15G09R18R02R12
                                R11R01R24R17R03C01C02C03C04C10C06C07
                                C09
  24353592.22106 127978994.55506      3245.155    24353592.98306  99723901.60506
      2528.697  
  24315948.67705 127781168.04805      3510.495    24315955.82405  99569764.55305
      2735.468  
  22390148.61907 117660996.47807     -3036.903    22390148.71406  91683880.61306
     -2366.423  
  21673211.94507 113893482.89907     -1320.457    21673211.25507  88748165.46307
     -1028.928  
  24241118.43306 127387928.69406     -1184.590    24241122.15506  99263332.18306
      -923.058  
  22062674.84207 115940124.20407     -1202.461    22062675.05807  90342952.37807
      -936.984  
  20004266.14908 105123126.56508     -1333.120    20004266.26107  81914123.05807
     -1038.795  
  20455745.12908 107495672.15008      1065.716    20455745.24508  83762862.54908
       830.429  
  21867716.16307 114915642.52707      2474.940    21867717.89407  89544673.57107
      1928.526  
  22812651.57306 121775501.70806      3032.568    22812658.98307  94714303.03507
      2358.665  
  20545132.21507 109632759.76107       268.435    20545135.79307  85269944.46607
       208.783  
  22266045.54907 118941271.38907      3268.056    22266052.14607  92509912.28407
      2541.828  
  21990667.56206 117511475.15406        86.673    21990672.14206  91397839.84306
        67.411  
  21715694.34907 116082817.62407     -1943.683    21715699.73506  90286646.02606
     -1511.756  
  21569581.57607 115342218.09907     -3924.510    21569585.48007  89710615.65907
     -3052.401  
  20159959.13908 107880009.21508      -349.433    20159960.70508  83906673.82808
      -271.782  
  22914635.30206 122663788.22806      1967.378    22914638.47607  95405228.00907
      1530.184  
  37373608.31108  -1204515.16508        32.884    37373602.97607  -1180704.11507
        26.860  
  38339555.06507  -1223085.24507        39.712    38339551.11807  -1192304.14807
        32.309  
  37130432.87208  -1153660.51508        11.853    37130430.31707  -1138766.65207
        10.452  
  38467254.30907  -1153935.88707         9.560    38467252.83607  -1140343.52907
         8.496  
  39819886.02006  -4559768.34006      1578.187    39819888.09506  -3756800.58706
      1221.154  
  36072702.16308  -1608668.15808       259.905    36072697.81707  -1490891.43007
       200.855  
  37915198.27407  -4796346.40007      1541.789    37915195.66207  -3950984.77007
      1192.783  
  37072071.33808  -1708213.83108       324.312    37072069.33307  -1566295.42207
       250.424  
 13  3 17  1 29  0.0000000  0 25G21G24G02G05G08G29G26G15G09R18R02R12
                                R11R01R24R17R03C01C02C03C04C10C06C07
                                C09
  24344329.66106 127930319.56906      3244.843    24344330.49806  99685973.06706
      2528.453  
  24305928.55406 127728511.46306      3511.077    24305935.61505  99528733.58805
      2735.917  
  22398824.87707 117706590.61607     -3042.010    22398825.18506  91719408.42906
     -2370.403  
  21676984.67207 113913308.83807     -1322.723    21676984.04107  88763614.20907
     -1030.695  
  24244511.72006 127405760.77606     -1192.512    24244515.17505  99277227.26105
      -929.234  
  22066118.46307 115958220.94407     -1210.238    22066118.93907  90357053.69807
      -943.045  
  20008084.64908 105143192.80308     -1342.157    20008084.61207  81929759.07107
     -1045.837  
  20452714.55608 107479746.30808      1057.898    20452714.65008  83750452.80508
       824.337  
  21860661.90707 114878571.92307      2468.060    21860663.60107  89515787.41107
      1923.167  
  22804141.89006 121730075.75606      3024.228    22804149.25007  94678971.76707
      2352.181  
  20544381.91407 109628755.79407       265.813    20544385.60207  85266830.25307
       206.744  
  22256875.90407 118892289.61307      3262.900    22256882.86407  92471815.41307
      2537.817  
  21990441.91206 117510270.84306        74.190    21990446.86006  91396903.13506
        57.702  
  21721149.28507 116111976.76707     -1943.963    21721154.79306  90309325.31906
     -1511.973  
  21580598.09107 115401128.92807     -3929.877    21580602.28407  89756435.10707
     -3056.575  
  20160958.22708 107885354.85308      -363.058    20160959.79808  83910831.52908
      -282.379  
  22909125.47706 122634294.76406      1965.621    22909128.97707  95382288.66207
      1528.818  
  37373509.05908  -1205031.91808        32.667    37373503.22107  -1181103.67207
        25.032  
  38339437.10607  -1223698.60607        40.973    38339432.69907  -1192778.44007
        32.593  
  37130395.06508  -1153860.71308        10.973    37130391.19207  -1138921.41907
         8.408  
  38467221.75207  -1154106.82707         8.487    38467219.88907  -1140475.70807
         8.309  
  39815336.87706  -4583453.19406      1577.242    39815339.09806  -3775115.15106
      1220.408  
  36071948.93408  -1612589.90908       260.422    36071945.07307  -1493923.94307
       199.626  
  37910753.49307  -4819491.09307      1540.722    37910751.04707  -3968881.68507
      1191.392  
  37071131.03708  -1713111.50008       325.672    37071128.63307  -1570082.58907
       252.537  
 13  3 17  1 29 15.0000000  0 25G21G24G02G05G08G29G26G15G09R18R02R12
                                R11R01R24R17R03C01C02C03C04C10C06C07
                                C09
  24335068.61506 127881652.47706      3244.670    24335069.78906  99648050.66106
      2528.317  
  24295906.06405 127675843.24505      3511.808    24295913.63505  99487693.51305
      2736.480  
  22407515.87107 117752262.41807     -3047.056    22407516.37607  91754996.75807
     -2374.336  
  21680763.52407 113933166.80607     -1324.779    21680762.89607  88779087.90407
     -1032.298  
  24247928.35106 127423715.29106     -1200.888    24247931.78106  99291217.75006
      -935.758  
  22069584.85407 115976437.33707     -1218.071    22069585.58107  90371248.25407
      -949.148  
  20011929.04508 105163394.77108     -1351.081    20011928.81007  81945500.84607
     -1052.792  
  20449706.04508 107463936.92908      1050.369    20449706.21108  83738133.80708
       818.469  
  21853627.20007 114841604.12207      2461.349    21853628.95707  89486981.33607
      1917.935  
  22795656.61306 121684778.89306      3015.678    22795663.61107  94643740.87307
      2345.527  
  20543638.78407 109624790.54507       263.138    20543642.58807  85263746.16507
       204.662  
  22247720.62907 118843384.14607      3258.153    22247727.71507  92433777.88807
      2534.124  
  21990251.89206 117509255.71306        61.550    21990257.10206  91396113.54406
        47.870  
  21726605.01607 116141140.56007     -1944.170    21726610.56506  90332008.23006
     -1512.135  
  21591629.23407 115460118.09307     -3935.009    21591633.60207  89802315.49607
     -3060.567  
  20161995.05308 107890902.94508      -376.439    20161996.55208  83915146.68208
      -292.789  
  22903620.93606 122604828.97406      1963.795    22903624.32306  95359370.80306
      1527.393  
  37373410.19108  -1205545.72508        37.178    37373404.77307  -1181500.92707
        28.628  
  38339319.47507  -1224308.66707        45.472    38339315.40307  -1193250.12207
        35.036  
  37130356.63908  -1154058.16508        14.826    37130354.19307  -1139074.06407
        11.264  
  38467189.01607  -1154274.65407        12.783    38467187.87607  -1140605.46907
        10.222  
  39810790.54206  -4607128.39706      1579.017    39810793.46706  -3793422.26206
      1220.377  
  36071194.81308  -1616516.92608       263.739    36071190.81507  -1496960.52807
       204.653  
  37906313.79607  -4842610.87307      1542.090    37906311.01507  -3986759.30707
      1193.503  
  37070187.75408  -1718019.58508       329.409    37070186.71407  -1573877.79407
       253.792  
 13  3 17  1 29 30.0000000  0 25G21G24G02G05G08G29G26G15G09R18R02R12
                                R11R01R24R17R03C01C02C03C04C10C06C07
                                C09
  24325809.76006 127832995.92506      3243.518    24325810.51106  99610136.46806
      2527.417  
  24285881.94206 127623166.28106      3511.765    24285889.64205  99446646.68905
      2736.454  
  22416222.11407 117798014.21307     -3052.645    22416222.77506  91790647.45706
     -2378.686  
  21684549.01207 113953059.32707     -1327.323    21684548.30007  88794588.53207
     -1034.281  
  24251368.83706 127441794.56906     -1209.561    24251372.22806  99305305.42306
      -942.522  
  22073074.48507 115994775.62007     -1226.568    22073075.30507  90385537.79507
      -955.768  
  20015799.72208 105183734.67408     -1360.496    20015799.32807  81961350.10907
     -1060.127  
  20446720.16308 107448246.47308      1042.182    20446720.37408  83725907.48208
       812.090  
  21846612.63907 114804742.08307      2454.054    21846614.40607  89458257.69707
      1912.251  
  22787195.94906 121639613.97906      3006.691    22787202.65107  94608612.64107
      2338.538  
  20542903.40707 109620866.22507       260.415    20542907.17107  85260693.90107
       202.543  
  22238580.22707 118794558.31707      3252.436    22238587.18007  92395802.33207
      2529.678  
  21990098.04406 117508432.32406        48.581    21990103.10506  91395473.09206
        37.783  
  21732062.10407 116170311.60707     -1945.081    21732067.37206  90354696.77606
     -1512.845  
  21602675.57907 115519187.66107     -3940.586    21602679.98907  89848258.41807
     -3064.906  
  20163070.26407 107896656.11507      -390.309    20163071.56508  83919621.34508
      -303.576  
  22898121.96406 122575393.39406      1961.442    22898125.55707  95336476.47407
      1525.565  
  37373311.34608  -1206061.48608        36.482    37373306.00907  -1181899.71307
        27.848  
  38339202.32607  -1224920.33707        39.975    38339198.83807  -1193723.09607
        32.295  
  37130318.55308  -1154257.74308        13.036    37130315.10107  -1139228.36007
        12.301  
  38467156.44607  -1154444.27107        10.638    38467155.19207  -1140736.60107
        10.066  
  39806244.96406  -4630799.09006      1579.346    39806247.08906  -3811725.84606
      1218.998  
  36070438.63108  -1620454.09408       264.633    36070434.40907  -1500004.96907
       205.626  
  37901877.88507  -4865710.57007      1543.118    37901875.39007  -4004621.39407
      1193.270  
  37069242.43808  -1722942.96008       330.361    37069240.48407  -1577684.84607
       253.449  
 13  3 17  1 29 45.0000000  0 25G21G24G02G05G08G29G26G15G09R18R02R12
                                R11R01R24R17R03C01C02C03C04C10C06C07
                                C09
  24316552.49806 127784348.68706      3243.242    24316553.28406  99572229.55006
      2527.201  
  24275855.91806 127570479.33006      3513.393    24275863.40106  99405592.09206
      2737.725  
  22424943.35807 117843844.49107     -3057.437    22424944.17006  91826359.28606
     -2382.422  
  21688340.79007 113972984.82407     -1329.170    21688340.21107  88810114.86507
     -1035.718  
  24254832.78006 127459997.20206     -1217.383    24254836.24306  99319489.26806
      -948.611  
  22076587.02807 116013234.33507     -1234.268    22076587.80806  90399921.17906
      -961.769  
  20019696.23908 105204210.80608     -1369.369    20019695.82007  81977305.53207
     -1067.041  
  20443756.77608 107432673.70308      1034.483    20443756.94808  83713772.86408
       806.090  
  21839618.02007 114767984.88807      2447.242    21839619.84207  89429615.74907
      1906.943  
  22778759.81606 121594580.23506      2998.129    22778766.07407  94573586.41807
      2331.880  
  20542175.47607 109616981.40407       258.008    20542179.20107  85257672.38207
       200.674  
  22229454.47607 118745811.17307      3247.553    22229461.65107  92357887.98407
      2525.881  
  21989979.83406 117507799.25006        36.224    21989984.71306  91394980.67406
        28.173  
  21737520.35707 116199488.39007     -1945.077    21737525.20906  90377389.80506
     -1512.839  
  21613736.67607 115578335.58707     -3945.412    21613741.06207  89894262.30307
     -3068.658  
  20164183.56808 107902612.81908      -403.646    20164184.69708  83924254.33408
      -313.946  
  22892628.66906 122545986.37206      1959.770    22892632.50907  95313604.38207
      1524.267  
  37373212.93108  -1206574.14708        33.433    37373207.00407  -1182296.10307
        25.535  
  38339085.60407  -1225528.57107        40.633    38339081.95907  -1194193.39207
        34.045  
  37130280.59508  -1154454.39008        14.178    37130277.23707  -1139380.39807
         9.668  
  38467124.72807  -1154610.52007         9.254    38467123.07707  -1140865.13407
         7.601  
  39801701.32806  -4654459.99606      1573.462    39801702.77406  -3830021.92906
      1223.466  
  36069681.57208  -1624396.26408       263.173    36069677.55707  -1503053.27207
       204.361  
  37897446.12807  -4888785.04607      1538.602    37897443.84307  -4022464.02207
      1190.643  
  37068295.43508  -1727876.55108       329.774    37068293.16107  -1581499.76807
       256.806  
 13  3 17  1 30  0.0000000  0 25G21G24G02G05G08G29G26G15G09R18R02R12
                                R11R01R24R17R03C01C02C03C04C10C06C07
                                C09
  24307297.30506 127735712.22906      3241.616    24307297.97006  99534331.02506
      2525.931  
  24265828.21106 127517783.74406      3513.164    24265835.94105  99364530.70905
      2737.539  
  22433679.72507 117889754.05507     -3063.472    22433680.77107  91862132.88807
     -2387.125  
  21692139.00407 113992944.40207     -1331.836    21692138.74907  88825667.75607
     -1037.796  
  24258320.26206 127478324.18806     -1226.064    24258323.84006  99333769.98006
      -955.378  
  22080122.66607 116031814.20907     -1242.864    22080123.23706  90414398.97906
      -968.466  
  20023618.78308 105224823.93608     -1378.871    20023618.42307  81993367.70307
     -1074.445  
  20440815.90308 107417219.57308      1026.260    20440816.10408  83701730.68708
       799.684  
  21832643.58007 114731333.89407      2439.808    21832645.39607  89401056.54607
      1901.151  
  22770347.97506 121549679.01206      2988.828    22770354.33807  94538663.23807
      2324.643  
  20541455.14907 109613137.05007       254.753    20541458.72907  85254682.32607
       198.141  
  22220343.68707 118697144.42107      3241.879    22220351.46107  92320036.13207
      2521.466  
  21989897.21506 117507357.92106        22.925    21989902.23006  91394637.36906
        17.828  
  21742979.90807 116228671.78607     -1945.894    21742984.56906  90400087.95206
     -1513.475  
  21624812.60407 115637562.30407     -3951.229    21624816.95707  89940327.44907
     -3073.183  
  20165334.89807 107908773.91007      -417.575    20165336.17708  83929046.27308
      -324.782  
  22887140.66806 122516608.97706      1957.581    22887144.66007  95290755.29807
      1522.562  
  37373113.42308  -1207091.55508        35.671    37373107.76107  -1182696.17107
        25.398  
  38338967.97907  -1226141.23707        39.961    38338963.51807  -1194667.11707
        32.941  
  37130241.93808  -1154655.99208        15.601    37130239.05207  -1139536.24307
         9.350  
  38467091.64307  -1154781.33807         9.850    38467090.67007  -1140997.18907
        10.182  
  39797157.10006  -4678118.88306      1576.567    39797159.72506  -3848316.44006
      1219.126  
  36068921.92708  -1628351.35308       264.800    36068918.01507  -1506111.57307
       205.917  
  37893018.02607  -4911842.11107      1537.650    37893015.54707  -4040293.15307
      1189.545  
  37067344.49108  -1732828.26008       330.894    37067342.37807  -1585328.73507
       256.860  
 13  3 17  1 30 15.0000000  0 25G21G24G02G05G08G29G26G15G09R18R02R12
                                R11R01R24R17R03C01C02C03C04C10C06C07
                                C09
  24298043.83406 127687085.48306      3241.720    24298044.63706  99496440.10206
      2526.016  
  24255798.66106 127465079.18706      3514.429    24255806.44306  99323462.41206
      2738.527  
  22442430.89307 117935741.74307     -3068.453    22442432.22406  91897967.38706
     -2391.005  
  21695943.50207 114012937.37007     -1333.838    21695943.39907  88841246.67807
     -1039.356  
  24261831.38806 127496774.51306     -1234.175    24261834.70305  99348146.81505
      -961.697  
  22083681.17807 116050513.88807     -1250.520    22083681.34706  90428970.15106
      -974.431  
  20027567.14208 105245572.92308     -1387.515    20027566.86807  82009535.74107
     -1081.181  
  20437897.41508 107401883.07108      1018.658    20437897.62808  83689780.17908
       793.760  
  21825689.16807 114694788.57407      2432.920    21825691.00107  89372579.69307
      1895.784  
  22761960.84106 121504909.75606      2980.626    22761967.41307  94503842.73807
      2318.266  
  20540742.18507 109609332.02207       252.614    20540745.57307  85251722.86307
       196.478  
  22211247.87607 118648557.75607      3236.577    22211255.98007  92282246.59607
      2517.344  
  21989850.29106 117507107.35306        10.566    21989855.58406  91394442.46206
         8.217  
  21748440.52107 116257861.08407     -1945.915    21748445.06606  90422790.69906
     -1513.492  
  21635902.97807 115696866.45107     -3955.934    21635907.07807  89986452.82407
     -3076.842  
  20166524.25408 107915138.47108      -431.010    20166525.56008  83933996.47108
      -335.232  
  22881657.95906 122487260.05006      1955.744    22881661.49106  95267928.35206
      1521.132  
  37373014.15308  -1207607.17808        34.971    37373008.53007  -1183094.84507
        26.320  
  38338850.23707  -1226751.73907        42.294    38338846.41307  -1195139.17807
        29.050  
  37130203.75108  -1154855.95608        13.336    37130200.36607  -1139690.85407
        11.407  
  38467059.36507  -1154950.18907         9.773    38467057.97407  -1141127.73707
         8.788  
  39792615.21706  -4701769.23906      1578.598    39792618.72106  -3866604.34706
      1218.256  
  36068160.95808  -1632312.77508       263.710    36068157.26207  -1509174.75707
       202.212  
  37888595.23407  -4934875.16707      1535.838    37888593.32507  -4058103.71907
      1191.341  
  37066391.04508  -1737791.51308       332.168    37066389.15807  -1589166.59107
       256.799  
 13  3 17  1 30 30.0000000  0 25G21G24G02G05G08G29G26G15G09R18R02R12
                                R11R01R24R17R03C01C02C03C04C10C06C07
                                C09
  24288792.11606 127638467.35006      3240.850    24288792.77506  99458555.85606
      2525.338  
  24245767.17106 127412364.19306      3514.673    24245775.23506  99282385.99606
      2738.722  
  22451196.43807 117981805.54607     -3073.588    22451198.04906  91933861.15406
     -2395.012  
  21699753.95707 114032961.93907     -1336.280    21699753.73807  88856850.20507
     -1041.259  
  24265365.71206 127515346.32706     -1242.667    24265368.77406  99362618.29506
      -968.315  
  22087262.13907 116069331.64607     -1258.614    22087262.01807  90443633.30307
      -980.741  
  20031541.01108 105266455.78008     -1396.767    20031540.82908  82025808.07608
     -1088.392  
  20435001.02208 107386662.54208      1010.733    20435001.16708  83677920.02308
       787.583  
  21818754.48907 114658347.55707      2425.778    21818756.40807  89344184.11407
      1890.219  
  22753598.42606 121460271.44306      2971.299    22753604.98907  94469124.06707
      2311.011  
  20540036.16907 109605564.61407       249.817    20540039.47807  85248792.63507
       194.300  
  22202166.94207 118600049.66307      3231.061    22202175.04607  92244518.15707
      2513.052  
  21989838.67206 117507046.04606        -2.478    21989844.32206  91394394.73706
        -1.931  
  21753901.68307 116287054.27207     -1946.506    21753906.28806  90445496.46706
     -1513.953  
  21647007.51307 115756245.71707     -3961.318    21647011.25407  90032636.61107
     -3081.030  
  20167751.35908 107921704.56308      -444.555    20167752.55808  83939103.42108
      -345.765  
  22876180.15706 122457937.96706      1953.588    22876183.71306  95245122.29606
      1519.456  
  37372913.91608  -1208131.18808        37.047    37372907.84407  -1183500.00607
        28.605  
  38338732.11607  -1227370.29007        40.464    38338728.08107  -1195617.45107
        35.508  
  37130163.72108  -1155064.51808        16.459    37130160.59107  -1139852.09707
        13.599  
  38467025.47407  -1155127.19307        14.078    38467023.69907  -1141264.60207
        16.009  
  39788073.10806  -4725421.07106      1578.426    39788076.84006  -3884893.39806
      1221.047  
  36067396.98708  -1636290.59608       267.735    36067392.74407  -1512250.63807
       207.087  
  37884174.96807  -4957894.35307      1535.428    37884171.82007  -4075903.55207
      1186.949  
  37065433.70208  -1742776.39408       334.872    37065431.77207  -1593021.20307
       257.908  
 13  3 17  1 30 45.0000000  0 25G21G24G02G05G08G29G26G15G09R18R02R12
                                R11R01R24R17R03C01C02C03C04C10C06C07
                                C09
  24279543.04706 127589862.65506      3240.005    24279543.33706  99420682.07006
      2524.678  
  24235734.64006 127359643.52106      3514.864    24235743.03806  99241305.12006
      2738.867  
  22459977.36107 118027949.96907     -3078.895    22459979.12307  91969817.74907
     -2399.145  
  21703571.36907 114053022.62607     -1338.497    21703571.04407  88872481.88507
     -1042.986  
  24268923.95807 127534044.05207     -1250.671    24268926.90505  99377187.88805
      -974.551  
  22090866.16307 116088271.65907     -1266.523    22090866.14506  90458391.73306
      -986.901  
  20035541.16308 105287476.68008     -1405.964    20035541.02307  82042187.98707
     -1095.556  
  20432127.57808 107371562.41208      1002.599    20432127.57808  83666153.68108
       781.246  
  21811840.67807 114622015.89607      2418.622    21811842.60907  89315873.74007
      1884.641  
  22745261.53906 121415769.02306      2962.399    22745268.03707  94434511.09607
      2304.088  
  20539338.05707 109601839.24807       247.133    20539341.26707  85245895.12407
       192.215  
  22193101.75107 118551625.69607      3225.445    22193109.80607  92206855.14007
      2508.684  
  21989863.31507 117507178.49007       -15.226    21989869.13806  91394497.72806
       -11.843  
  21759364.43407 116316256.17007     -1947.048    21759369.28506  90468209.00206
     -1514.374  
  21658126.72807 115815704.19807     -3966.509    21658130.49407  90078882.01507
     -3085.069  
  20169016.96208 107928476.89008      -458.306    20169017.94608  83944370.78508
      -356.461  
  22870708.29206 122428647.07806      1951.674    22870712.12206  95222340.49806
      1517.968  
  37372813.17608  -1208653.79308        32.778    37372807.42807  -1183904.09007
        23.323  
  38338613.23807  -1227987.14607        35.694    38338609.71907  -1196094.43107
        30.459  
  37130123.64908  -1155271.90508        11.084    37130120.85207  -1140012.41707
         9.050  
  38466991.94607  -1155302.65907         9.838    38466990.16907  -1141400.24907
         7.065  
  39783533.45906  -4749064.63406      1575.601    39783536.07906  -3903176.03406
      1216.871  
  36066632.06308  -1640275.12308       262.832    36066627.98307  -1515331.69707
       202.969  
  37879759.00407  -4980889.89007      1530.047    37879755.87407  -4093685.13207
      1183.303  
  37064473.78808  -1747773.30108       331.604    37064471.68807  -1596885.09607
       255.973  
 13  3 17  1 31  0.0000000  0 25G21G24G02G05G08G29G26G15G09R18R02R12
                                R11R01R24R17R03C01C02C03C04C10C06C07
                                C09
  24270295.48306 127541265.36106      3239.355    24270295.46406  99382814.08506
      2524.175  
  24225699.87206 127306911.49506      3515.713    24225708.48506  99200215.38906
      2739.525  
  22468772.54507 118074168.32907     -3083.617    22468774.17506  92005832.00306
     -2402.820  
  21707394.55207 114073113.30607     -1340.456    21707394.30507  88888136.93107
     -1044.513  
  24272504.97407 127552861.37107     -1258.639    24272507.61706  99391850.65606
      -980.762  
  22094492.16107 116107327.59607     -1274.389    22094492.53507  90473240.47607
      -993.032  
  20039566.35408 105308629.22508     -1414.729    20039566.24407  82058670.47407
     -1102.387  
  20429275.85908 107356576.55808       994.945    20429275.78208  83654476.39508
       775.282  
  21804946.63307 114585787.82107      2411.660    21804948.43907  89287644.09407
      1879.217  
  22736949.21406 121371396.56606      2953.813    22736955.53607  94399999.20707
      2297.412  
  20538646.65208 109598149.62108       244.559    20538649.74907  85243025.41307
       190.212  
  22184051.18707 118503280.06907      3220.229    22184059.31207  92169253.04107
      2504.627  
  21989923.38106 117507498.85006       -27.736    21989928.95806  91394746.85806
       -21.575  
  21764827.62107 116345460.19407     -1947.231    21764832.66406  90490923.19806
     -1514.515  
  21669259.29907 115875234.80307     -3971.383    21669263.45407  90125183.50907
     -3088.859  
  20170319.83107 107935448.85307      -471.704    20170320.74008  83949793.41508
      -366.882  
  22865241.41006 122399381.08206      1950.281    22865244.83806  95199578.06106
      1516.885  
  37372714.35408  -1209168.69708        33.367    37372708.73307  -1184302.22307
        26.816  
  38338496.21707  -1228595.89307        42.308    38338492.31107  -1196565.11507
        32.677  
  37130085.18708  -1155471.70508        14.706    37130082.17107  -1140166.88207
         9.598  
  38466959.42007  -1155470.14707        11.411    38466957.80207  -1141529.75007
        11.414  
  39778995.70606  -4772693.43206      1577.285    39778998.15706  -3921447.25906
      1220.416  
  36065866.66308  -1644259.90108       265.715    36065862.96707  -1518412.94707
       205.863  
  37875348.61707  -5003855.27207      1531.213    37875345.67407  -4111443.35907
      1184.328  
  37063513.29508  -1752775.73508       333.468    37063511.27007  -1600753.27507
       256.887  
 13  3 17  1 31 15.0000000  0 25G21G24G02G05G08G29G26G15G09R18R02R12
                                R11R01R24R17R03C01C02C03C04C10C06C07
                                C09
  24261049.95906 127492679.85306      3238.564    24261050.10306  99344955.25306
      2523.561  
  24215663.85806 127254172.59506      3516.295    24215672.38606  99159120.33806
      2739.984  
  22477582.81007 118120464.80407     -3089.159    22477584.05506  92041907.08406
     -2407.143  
  21711224.04107 114093238.01107     -1342.874    21711224.02707  88903818.47107
     -1046.398  
  24276109.50707 127571802.23607     -1266.908    24276112.17606  99406609.70806
      -987.204  
  22098140.88607 116126503.12307     -1282.366    22098141.74507  90488182.39207
      -999.250  
  20043617.33708 105329917.15608     -1423.816    20043617.28207  82075258.45407
     -1109.468  
  20426446.64708 107341709.03708       987.079    20426446.56908  83642891.31608
       769.152  
  21798073.18707 114549667.73407      2404.241    21798074.90007  89259498.58207
      1873.436  
  22728662.19106 121327158.81606      2944.639    22728668.30107  94365592.07007
      2290.274  
  20537962.67308 109594499.71508       242.048    20537965.77307  85240186.57307
       188.258  
  22175016.31307 118455017.51307      3214.570    22175024.47807  92131715.56007
      2500.225  
  21990019.12906 117508011.12306       -40.777    21990024.74806  91395145.25506
       -31.717  
  21770292.17107 116374670.77907     -1947.670    21770297.15506  90513642.49606
     -1514.857  
  21680406.11407 115934841.43507     -3976.430    21680410.41307  90171544.14707
     -3092.784  
  20171660.65908 107942624.54808      -485.278    20171661.89808  83955374.48208
      -377.440  
  22859779.58406 122370144.02406      1948.133    22859782.83106  95176838.09706
      1515.214  
  37372615.80308  -1209682.11908        35.993    37372609.95607  -1184699.20107
        25.719  
  38338379.98107  -1229202.82707        40.621    38338376.08207  -1197034.39807
        33.863  
  37130046.96908  -1155670.22808        14.107    37130043.75007  -1140320.37507
         9.119  
  38466927.20607  -1155635.97107         9.340    38466926.18907  -1141657.95407
        11.616  
  39774459.56406  -4796313.70206      1576.395    39774462.17206  -3939711.90706
      1218.243  
  36065100.08108  -1648251.17608       267.549    36065096.69207  -1521499.22307
       208.550  
  37870942.98607  -5026796.67607      1530.295    37870940.17107  -4129183.06407
      1181.561  
  37062550.02008  -1757790.01008       333.720    37062548.52907  -1604630.59107
       259.278  
 13  3 17  1 31 30.0000000  0 25G21G24G02G05G08G29G26G15G09R18R02R12
                                R11R01R24R17R03C01C02C03C04C10C06C07
                                C09
  24251806.58106 127444105.68406      3238.227    24251806.85306  99307105.29106
      2523.296  
  24205626.43306 127201426.40206      3516.772    24205634.37706  99118019.54906
      2740.349  
  22486407.68507 118166838.62107     -3094.278    22486408.70106  92078042.45006
     -2411.129  
  21715059.84207 114113396.39807     -1344.986    21715060.01707  88919526.29007
     -1048.042  
  24279737.42307 127590866.10107     -1275.037    24279740.20105  99421464.61005
      -993.539  
  22101812.47307 116145797.58607     -1290.297    22101813.47706  90503217.02306
     -1005.427  
  20047693.99508 105351339.74208     -1432.595    20047693.91407  82091951.37807
     -1116.308  
  20423639.85708 107326959.27808       979.498    20423639.83108  83631398.01108
       763.246  
  21791220.31407 114513655.56107      2397.208    21791221.92107  89231437.15907
      1867.955  
  22720400.21306 121283055.71206      2935.530    22720406.37907  94331289.68807
      2283.192  
  20537286.01307 109590888.94007       239.519    20537289.19607  85237378.19907
       186.294  
  22165997.00807 118406837.93507      3209.244    22166005.50507  92094242.61507
      2496.083  
  21990150.81206 117508714.88906       -53.256    21990156.49106  91395692.62606
       -41.421  
  21775757.75907 116403887.22107     -1948.055    21775762.71706  90536366.35306
     -1515.157  
  21691566.89107 115994522.88307     -3981.215    21691571.29307  90217962.97207
     -3096.505  
  20173039.56707 107950003.40307      -498.753    20173040.96508  83961113.58308
      -387.919  
  22854323.17806 122340935.35806      1946.747    22854326.47106  95154120.25206
      1514.139  
  37372514.49708  -1210207.86908        34.626    37372508.95207  -1185105.70007
        27.010  
  38338260.80807  -1229821.69007        43.177    38338257.85707  -1197512.93107
        30.928  
  37130006.45908  -1155881.24108        14.119    37130003.18607  -1140483.50307
        11.492  
  38466893.18407  -1155813.92607         9.463    38466891.79307  -1141795.53607
         9.478  
  39769922.17406  -4819939.14506      1572.781    39769925.41606  -3957980.54306
      1212.561  
  36064329.86708  -1652262.55408       267.928    36064326.22207  -1524601.04207
       206.604  
  37866538.88007  -5049727.88907      1526.378    37866536.35907  -4146914.88007
      1180.366  
  37061582.27208  -1762829.84108       336.875    37061580.94807  -1608527.69707
       260.004  
 13  3 17  1 31 45.0000000  0 25G21G24G02G05G08G29G26G15G09R18R02R12
                                R11R01R24R17R03C01C02C03C04C10C06C07
                                C09
  24242565.56706 127395543.33806      3237.266    24242565.62806  99269264.50006
      2522.544  
  24195587.86706 127148673.94806      3516.741    24195595.29706  99076913.92206
      2740.327  
  22495247.33007 118213290.09207     -3099.220    22495248.17206  92114238.32006
     -2414.981  
  21718902.40407 114133588.88607     -1347.332    21718902.50407  88935260.68807
     -1049.870  
  24283388.78206 127610053.43806     -1283.065    24283391.48906  99436415.71406
      -999.797  
  22105506.79407 116165211.40307     -1298.185    22105507.82407  90518344.63607
     -1011.574  
  20051796.27508 105372897.25208     -1441.693    20051796.18107  82108749.42007
     -1123.398  
  20420855.56607 107312327.96607       971.530    20420855.66507  83619996.98807
       757.037  
  21784388.14007 114477752.28907      2389.949    21784389.72407  89203460.58907
      1862.298  
  22712163.64506 121239088.26006      2926.718    22712169.94507  94297092.77007
      2276.335  
  20536616.74307 109587317.79507       236.729    20536619.95907  85234600.62507
       184.122  
  22156993.46907 118358742.74707      3203.430    22157002.17207  92056835.29507
      2491.561  
  21990318.46606 117509610.88206       -66.089    21990324.26106  91396389.49506
       -51.404  
  21781224.29807 116433109.99107     -1948.247    21781229.51206  90559095.11906
     -1515.306  
  21702741.69307 116054279.22907     -3986.162    21702746.06407  90264440.04907
     -3100.354  
  20174456.52507 107957585.85907      -512.251    20174457.93708  83967011.02808
      -398.418  
  22848872.23406 122311755.55606      1944.398    22848875.67006  95131424.86406
      1512.309  
  37372415.42408  -1210724.07108        33.239    37372410.29907  -1185504.82407
        23.597  
  38338143.85107  -1230430.72207        41.266    38338139.57607  -1197983.84507
        32.328  
  37129967.26608  -1156082.90508        10.864    37129964.69707  -1140639.42707
         7.776  
  38466860.90607  -1155982.13907         9.973    38466859.57607  -1141925.57807
        11.461  
  39765388.00006  -4843547.85806      1571.923    39765391.25806  -3976236.22306
      1214.299  
  36063559.78008  -1656272.32908       265.063    36063556.31907  -1527701.62007
       205.147  
  37862142.00607  -5072627.00807      1525.631    37862139.14207  -4164621.87407
      1181.947  
  37060613.41708  -1767873.45508       336.181    37060611.86807  -1612427.70107
       261.428  
 13  3 17  1 32  0.0000000  0 25G21G24G02G05G08G29G26G15G09R18R02R12
                                R11R01R24R17R03C01C02C03C04C10C06C07
                                C09
  24233326.72706 127346992.77306      3236.096    24233326.75006  99231432.89406
      2521.633  
  24185547.98206 127095914.58606      3517.210    24185555.36506  99035802.92606
      2740.698  
  22504101.49407 118259817.96007     -3104.500    22504102.12906  92150493.72106
     -2419.097  
  21722751.26707 114153814.53607     -1349.550    21722751.43507  88951020.89707
     -1051.601  
  24287063.39006 127629363.03706     -1291.468    24287065.83506  99451462.09406
     -1006.341  
  22109223.64507 116184743.11007     -1305.963    22109224.57907  90533564.12107
     -1017.635  
  20055924.00408 105394588.36008     -1450.495    20055923.81308  82125651.56908
     -1130.257  
  20418093.60608 107297813.85208       963.770    20418093.82108  83608687.28708
       750.990  
  21777576.57507 114441957.22507      2382.684    21777578.08107  89175568.33307
      1856.636  
  22703952.11506 121195255.68506      2917.639    22703958.82607  94263000.75607
      2269.273  
  20535954.68007 109583785.08407       233.986    20535957.84407  85231852.94707
       181.989  
  22148005.63007 118310731.35007      3197.861    22148014.11807  92019493.14307
      2487.229  
  21990521.94306 117510698.27906       -78.869    21990527.64806  91397235.23706
       -61.342  
  21786692.24807 116462338.21307     -1948.794    21786697.19707  90581828.12707
     -1515.732  
  21713930.10107 116114108.58707     -3991.050    21713934.41807  90310973.90907
     -3104.156  
  20175911.38507 107965370.64907      -525.754    20175912.65908  83973065.84608
      -408.920  
  22843426.44606 122282603.43206      1942.649    22843429.33906  95108750.98806
      1510.949  
  37372315.95308  -1211242.21208        34.700    37372310.37407  -1185905.44807
        25.026  
  38338026.74807  -1231041.37407        40.201    38338022.45507  -1198456.01307
        30.584  
  37129928.65808  -1156286.77708        14.816    37129925.46307  -1140797.05107
         9.758  
  38466827.84307  -1156152.15207        11.743    38466826.76107  -1142057.03507
         7.057  
  39760856.14106  -4867151.21506      1575.981    39760858.27106  -3994487.77206
      1221.874  
  36062787.82608  -1660291.93608       267.833    36062784.31607  -1530809.80207
       208.001  
  37857748.01107  -5095505.55007      1524.356    37857745.60107  -4182312.96107
      1178.649  
  37059641.48708  -1772932.29208       337.793    37059640.85507  -1616339.48707
       259.923  
 13  3 17  1 32 15.0000000  0 25G21G24G02G05G08G29G26G15G09R18R02R12
                                R11R01R24R17R03C01C02C03C04C10C06C07
                                C09
  24224090.20006 127298454.46006      3235.198    24224090.26406  99193610.86506
      2520.936  
  24175506.93006 127043148.85706      3517.939    24175514.19506  98994686.93406
      2741.262  
  22512970.08907 118306422.19007     -3109.716    22512970.57006  92186808.61206
     -2423.161  
  21726606.45107 114174073.47707     -1351.927    21726606.70107  88966807.04007
     -1053.452  
  24290761.18106 127648795.06406     -1299.786    24290763.69706  99466603.87306
     -1012.823  
  22112962.98907 116204392.62707     -1314.076    22112963.80707  90548875.41807
     -1023.956  
  20060077.15008 105416413.00508     -1459.553    20060076.93208  82142657.77108
     -1137.315  
  20415354.01708 107283417.17508       955.648    20415354.27408  83597469.09008
       744.661  
  21770785.70007 114406270.98307      2375.272    21770787.14507  89147760.88307
      1850.863  
  22695766.16407 121151558.73707      2908.460    22695772.93407  94229014.25907
      2262.137  
  20535299.80507 109580290.87307       231.430    20535303.15007  85229135.22507
       180.002  
  22139033.68607 118262804.58207      3192.270    22139041.96107  91982216.81807
      2482.882  
  21990761.47206 117511977.16306       -91.921    21990766.74206  91398229.90006
       -71.496  
  21792161.32607 116491571.81807     -1949.288    21792166.03206  90604565.34506
     -1516.115  
  21725132.17307 116174010.93807     -3996.023    21725136.45307  90357564.54607
     -3108.024  
  20177404.03807 107973357.84907      -539.378    20177405.14208  83979278.10508
      -419.516  
  22837985.90106 122253479.05606      1940.557    22837988.38806  95086098.67706
      1509.320  
  37372217.24608  -1211756.71308        34.536    37372211.67007  -1186303.26807
        26.438  
  38337909.99207  -1231647.98607        37.103    38337906.57107  -1198925.05407
        30.460  
  37129889.97208  -1156487.13508        12.964    37129887.04507  -1140951.94407
        11.170  
  38466796.11907  -1156318.30007        10.153    38466794.95007  -1142185.48707
         8.318  
  39756324.78206  -4890743.62506      1570.549    39756327.02906  -4012730.85406
      1216.744  
  36062015.15908  -1664315.65108       267.157    36062011.51007  -1533921.16507
       207.941  
  37853359.59407  -5118357.73107      1523.255    37853356.48607  -4199983.66707
      1178.071  
  37058668.48908  -1778000.75008       339.998    37058667.09707  -1620258.71207
       263.466  
 13  3 17  1 32 30.0000000  0 25G21G24G02G05G08G29G26G15G09R18R02R12
                                R11R01R24R17R03C01C02C03C04C10C06C07
                                C09
  24214856.05006 127249928.70706      3234.750    24214856.41906  99155798.60906
      2520.587  
  24165464.71906 126990377.52706      3517.683    24165472.08406  98953566.58306
      2741.062  
  22521853.14607 118353102.79707     -3114.656    22521853.47206  92223183.04006
     -2427.010  
  21730468.17307 114194366.15307     -1353.874    21730468.26807  88982619.48307
     -1054.968  
  24294482.34906 127668349.61106     -1307.536    24294484.98906  99481841.11406
     -1018.862  
  22116724.48607 116224159.91207     -1321.677    22116725.51107  90564278.45307
     -1029.881  
  20064255.57708 105438371.07808     -1468.358    20064255.49708  82159767.94408
     -1144.176  
  20412636.82807 107269138.26107       947.949    20412637.00207  83586342.66907
       738.662  
  21764015.59607 114370694.34407      2368.160    21764017.08107  89120038.85407
      1845.321  
  22687605.86607 121107998.27407      2899.387    22687612.63407  94195133.91507
      2255.081  
  20534652.28408 109576835.42508       229.010    20534655.65407  85226447.65707
       178.119  
  22130077.66107 118214963.08807      3186.635    22130085.79607  91945006.84607
      2478.498  
  21991036.90906 117513448.02206      -104.591    21991042.00806  91399373.88806
       -81.350  
  21797631.18207 116520811.32807     -1949.683    21797636.00406  90627307.14006
     -1516.424  
  21736347.82007 116233985.85907     -4000.832    21736351.93907  90404211.62307
     -3111.763  
  20178934.54308 107981547.78708      -552.825    20178935.42708  83985648.02608
      -429.978  
  22832550.42406 122224382.60306      1938.807    22832553.30506  95063468.13206
      1507.963  
  37372116.04608  -1212284.44208        34.713    37372110.17507  -1186711.29007
        27.988  
  38337791.74707  -1232267.45407        39.131    38337787.26807  -1199404.04607
        25.950  
  37129848.90708  -1156700.88208        14.614    37129845.60907  -1141117.19007
        10.880  
  38466761.84907  -1156497.43707        15.196    38466760.34406  -1142323.97906
        11.625  
  39751793.84106  -4914341.82406      1575.953    39751795.17606  -4030978.40106
      1213.049  
  36061238.19208  -1668360.45708       271.071    36061234.83407  -1537048.83207
       209.188  
  37848972.06507  -5141200.36207      1522.728    37848969.88707  -4217646.99307
      1177.368  
  37057690.13008  -1783095.61208       340.653    37057688.90207  -1624198.34207
       263.246  
 13  3 17  1 32 45.0000000  0 25G21G24G02G05G08G29G26G15G09R18R02R12
                                R11R01R24R17R03C01C02C03C04C10C06C07
                                C09
  24205624.09306 127201414.62906      3233.674    24205624.41006  99117995.45706
      2519.750  
  24155421.33806 126937599.63006      3519.002    24155428.77706  98912441.12506
      2742.090  
  22530750.46307 118399858.63007     -3119.593    22530750.54606  92259616.09606
     -2430.856  
  21734336.09207 114214691.51107     -1356.101    21734335.96707  88998457.39407
     -1056.704  
  24298226.63906 127688025.54406     -1315.966    24298229.50506  99497172.93206
     -1025.436  
  22120508.26607 116244043.83807     -1329.290    22120509.34307  90579772.37307
     -1035.813  
  20068459.05208 105460461.34408     -1477.123    20068459.21608  82176981.13408
     -1151.005  
  20409941.80008 107254975.96908       940.300    20409941.95708  83575307.11708
       732.702  
  21757266.20407 114335226.59407      2360.903    21757267.63607  89092401.62707
      1839.663  
  22679470.98607 121064573.58507      2890.467    22679477.66307  94161359.17507
      2248.143  
  20534011.80608 109573417.59608       226.538    20534015.01207  85223789.32607
       176.196  
  22121137.48007 118167206.47407      3181.088    22121145.45307  91907862.85007
      2474.185  
  21991347.63406 117515109.82906      -117.021    21991353.18706  91400666.41106
       -91.015  
  21803101.94207 116550055.40407     -1949.618    21803106.74606  90650052.45106
     -1516.375  
  21747576.78707 116294031.82107     -4005.244    21747580.83607  90450913.95207
     -3115.195  
  20180502.68308 107989939.15008      -566.057    20180503.53008  83992174.62208
      -440.268  
  22827120.04406 122195313.06006      1937.220    22827123.14906  95040858.50306
      1506.726  
  37372017.85208  -1212795.26808        34.534    37372012.11907  -1187106.28207
        27.211  
  38337675.57807  -1232869.65507        39.755    38337671.37007  -1199869.69007
        31.274  
  37129811.09908  -1156897.92008        13.928    37129808.07607  -1141269.53307
        10.732  
  38466730.73507  -1156659.43007        11.704    38466729.93207  -1142449.22707
         5.790  
  39747265.51606  -4937915.62906      1571.711    39747267.96406  -4049207.10906
      1216.190  
  36060463.23508  -1672396.08408       268.261    36060459.54407  -1540169.40507
       207.439  
  37844593.33807  -5164003.32007      1518.561    37844589.75407  -4235279.62707
      1173.389  
  37056712.27108  -1788186.83808       339.961    37056711.80107  -1628135.17907
       261.293  
 13  3 17  1 33  0.0000000  0 25G21G24G02G05G08G29G26G15G09R18R02R12
                                R11R01R24R17R03C01C02C03C04C10C06C07
                                C09
  24196394.55506 127152913.58206      3233.029    24196394.99706  99080202.45306
      2519.245  
  24145376.86406 126884816.45806      3519.239    24145384.07406  98871311.49506
      2742.271  
  22539662.31507 118446690.32207     -3124.660    22539662.16106  92296108.24106
     -2434.805  
  21738210.23907 114235050.25707     -1358.215    21738210.10307  89014321.32307
     -1058.351  
  24301994.16306 127707823.51106     -1324.059    24301997.16506  99512599.89606
     -1031.736  
  22124314.45307 116264044.96907     -1337.242    22124315.35907  90595357.65407
     -1042.008  
  20072687.80208 105482684.25108     -1485.884    20072688.01307  82194297.67507
     -1157.832  
  20407269.10008 107240930.90608       932.454    20407269.33408  83564362.92308
       726.588  
  21750537.81107 114299868.89707      2353.615    21750539.23707  89064850.20207
      1833.987  
  22671361.83307 121021285.80507      2881.389    22671368.19207  94127690.94907
      2241.083  
  20533378.53508 109570038.00408       224.110    20533381.48307  85221160.75207
       174.307  
  22112213.57707 118119536.33307      3175.351    22112221.38307  91870786.13307
      2469.721  
  21991694.32607 117516963.46307      -129.985    21991700.07006  91402108.13906
      -101.101  
  21808573.66007 116579304.95407     -1949.909    21808578.55606  90672802.06606
     -1516.598  
  21758819.09007 116354148.90107     -4010.100    21758823.02507  90497671.61007
     -3118.972  
  20182108.66308 107998532.57708      -579.560    20182109.62508  83998858.38708
      -450.771  
  22821694.69306 122166271.04506      1935.334    22821697.53606  95018270.24906
      1505.260  
  37371918.20508  -1213314.47308        36.596    37371912.46607  -1187507.74407
        27.935  
  38337558.02307  -1233479.93107        42.585    38337554.55107  -1200341.53507
        30.088  
  37129771.38108  -1157103.50508        14.465    37129768.67607  -1141428.47907
        11.916  
  38466697.96907  -1156829.67007        14.017    38466697.06507  -1142580.86107
         7.428  
  39742737.95906  -4961490.28006      1574.756    39742741.02506  -4067436.46706
      1215.464  
  36059685.10508  -1676447.78708       269.560    36059681.30007  -1543302.41207
       209.287  
  37840217.32007  -5186791.84007      1516.298    37840213.79207  -4252901.09207
      1174.783  
  37055730.48508  -1793299.65308       341.720    37055729.62707  -1632088.72107
       261.935  
 13  3 17  1 33 15.0000000  0 25G21G24G02G05G08G29G26G15G09R18R02R12
                                R11R01R24R17R03C01C02C03C04C10C06C07
                                C09
  24187167.63706 127104425.68406      3232.227    24187167.95206  99042419.67506
      2518.618  
  24135331.49506 126832028.43006      3519.034    24135338.59406  98830178.15006
      2742.116  
  22548588.65807 118493597.87607     -3129.917    22548588.22106  92332659.49706
     -2438.901  
  21742090.71507 114255442.81207     -1360.815    21742090.83907  89030211.59207
     -1060.378  
  24305784.91106 127727743.62506     -1331.845    24305788.16606  99528121.99306
     -1037.805  
  22128142.77807 116284163.38907     -1345.263    22128143.80507  90611034.29607
     -1048.260  
  20076941.94008 105505039.82108     -1494.986    20076942.03807  82211717.57807
     -1164.925  
  20404618.82208 107227003.63808       924.354    20404619.14807  83553510.50507
       720.276  
  21743830.42707 114264622.02807      2346.022    21743831.93907  89037385.12707
      1828.070  
  22663278.33107 120978135.81107      2871.926    22663284.68907  94094129.85307
      2233.721  
  20532752.40107 109566696.97607       221.296    20532755.27007  85218562.16407
       172.118  
  22103305.84207 118071953.40107      3169.174    22103313.45707  91833777.20707
      2464.916  
  21992077.28506 117519009.43106      -143.028    21992082.73706  91403699.44606
      -111.244  
  21814046.50907 116608560.39407     -1950.741    21814051.49306  90695556.25106
     -1517.246  
  21770074.80507 116414336.97407     -4015.187    21770078.36707  90544484.48807
     -3122.928  
  20183752.38607 108007328.38707      -593.214    20183753.43608  84005699.55708
      -461.389  
  22816274.58906 122137256.75806      1933.307    22816277.39607  94995703.59407
      1503.686  
  37371818.23608  -1213833.88508        35.173    37371812.70007  -1187909.35507
        27.932  
  38337440.69707  -1234090.13907        43.293    38337437.10007  -1200813.37407
        31.844  
  37129731.91508  -1157309.57008        12.938    37129728.53907  -1141587.78707
         8.840  
  38466666.01007  -1156999.97407        10.458    38466663.86407  -1142712.51207
         3.339  
  39738211.30706  -4985057.69506      1573.118    39738215.65106  -4085660.19506
      1216.469  
  36058905.50508  -1680507.51908       270.629    36058901.97507  -1546441.62607
       209.849  
  37835845.10007  -5209557.78207      1517.344    37835842.07507  -4270505.12307
      1173.791  
  37054746.12508  -1798425.94608       340.868    37054744.85307  -1636052.67007
       262.695  
 13  3 17  1 33 30.0000000  0 25G21G24G02G05G08G29G26G15G09R18R02R12
                                R11R01R24R17R03C01C02C03C04C10C06C07
                                C09
  24177943.31406 127055951.98206      3231.174    24177943.97306  99004647.98806
      2517.797  
  24125285.39706 126779236.79706      3519.322    24125292.48106  98789041.94906
      2742.336  
  22557529.41507 118540581.66907     -3134.887    22557529.03506  92369270.18006
     -2442.776  
  21745977.94007 114275869.87307     -1363.075    21745978.24707  89046128.76807
     -1062.138  
  24309598.67606 127747786.49806     -1340.499    24309602.38205  99543739.77505
     -1044.549  
  22131993.54807 116304399.27907     -1353.021    22131994.59607  90626802.50107
     -1054.302  
  20081221.44508 105527528.38108     -1503.659    20081221.48607  82229241.11807
     -1171.683  
  20401990.98707 107213194.56507       916.523    20401991.31907  83542750.19407
       714.174  
  21737144.36407 114229486.94907      2338.605    21737145.90707  89010007.15707
      1822.292  
  22655221.00407 120935124.60407      2862.829    22655227.19407  94060676.72007
      2226.646  
  20532133.43207 109563394.91907       218.827    20532136.49107  85215993.90507
       170.200  
  22094414.84607 118024458.86307      3163.242    22094422.09707  91796837.07107
      2460.302  
  21992496.43306 117521248.14406      -155.836    21992501.35906  91405440.68106
      -121.203  
  21819520.49007 116637822.18607     -1951.050    21819525.76606  90718315.38106
     -1517.487  
  21781343.65907 116474596.06207     -4019.752    21781347.05507  90591352.58907
     -3126.479  
  20185433.84207 108016326.79907      -606.646    20185435.08708  84012698.29908
      -471.838  
  22810859.95506 122108270.78906      1931.048    22810862.54907  94973158.98207
      1501.930  
  37371718.32208  -1214353.03408        34.354    37371712.63907  -1188310.76507
        27.332  
  38337323.87607  -1234699.61307        42.649    38337320.47507  -1201284.63207
        33.641  
  37129692.00308  -1157515.43708        15.122    37129689.63607  -1141746.94807
        10.888  
  38466633.09207  -1157169.69707        11.205    38466630.58607  -1142843.74807
        10.405  
  39733687.89006  -5008617.04906      1571.822    39733691.37306  -4103877.69006
      1218.243  
  36058124.39308  -1684574.50108       271.987    36058120.79107  -1549586.43807
       210.482  
  37831477.71807  -5232300.41007      1516.129    37831474.57607  -4288091.11107
      1171.362  
  37053759.12408  -1803565.12008       344.263    37053758.37707  -1640026.54607
       266.862  
 13  3 17  1 33 45.0000000  0 25G21G24G02G05G08G29G26G15G09R18R02R12
                                R11R01R24R17R03C01C02C03C04C10C06C07
                                C09
  24168721.52406 127007491.33606      3230.446    24168722.23406  98966886.46806
      2517.231  
  24115238.54006 126726440.16506      3519.485    24115245.44806  98747901.83706
      2742.464  
  22566484.37407 118587639.72507     -3139.689    22566483.92706  92405938.72106
     -2446.517  
  21749871.29707 114296329.73507     -1364.986    21749871.74807  89062071.48607
     -1063.628  
  24313435.54106 127767950.17406     -1348.227    24313439.45005  99559451.70305
     -1050.569  
  22135866.39907 116324750.61107     -1360.631    22135867.31007  90642660.66707
     -1060.233  
  20085525.86708 105550147.91308     -1512.300    20085525.86507  82246866.70907
     -1178.416  
  20399385.34907 107199502.09407       908.998    20399385.61307  83532080.73807
       708.310  
  21730479.34007 114194462.38007      2331.303    21730480.86207  88982715.29307
      1816.600  
  22647189.39407 120892250.93907      2853.627    22647195.45107  94027330.57107
      2219.491  
  20531521.49707 109560130.07307       216.394    20531524.58107  85213454.57707
       168.307  
  22085540.16107 117977051.61907      3157.370    22085547.20607  91759964.79207
      2455.734  
  21992951.21506 117523678.10206      -168.329    21992955.89306  91407330.66406
      -130.921  
  21824995.15407 116667088.61207     -1951.099    21825001.13806  90741078.09906
     -1517.526  
  21792625.19807 116534923.92107     -4024.073    21792628.63707  90638274.17607
     -3129.841  
  20187152.85407 108025526.21207      -620.056    20187153.94508  84019853.38008
      -482.267  
  22805449.98406 122079311.25306      1929.636    22805452.99907  94950634.95007
      1500.828  
  37371619.29408  -1214866.92908        36.999    37371613.82307  -1188708.11307
        29.209  
  38337208.17307  -1235303.54807        43.145    38337204.04507  -1201751.61507
        33.842  
  37129653.39508  -1157716.32908        15.520    37129650.88007  -1141902.26907
        10.495  
  38466601.10007  -1157334.10807        13.483    38466600.64607  -1142970.87207
        11.776  
  39729165.41106  -5032163.41406      1571.079    39729169.22806  -4122085.15306
      1216.116  
  36057343.36408  -1688643.82508       273.153    36057339.07507  -1552733.07907
       212.325  
  37827115.33007  -5255014.83907      1514.979    37827111.72407  -4305655.29407
      1173.013  
  37052771.35808  -1808712.25408       346.477    37052769.51807  -1644006.62007
       265.940  
 13  3 17  1 34  0.0000000  0 25G21G24G02G05G08G29G26G15G09R18R02R12
                                R11R01R24R17R03C01C02C03C04C10C06C07
                                C09
  24159502.30506 126959044.05706      3229.522    24159502.99806  98929135.37206
      2516.514  
  24105190.77306 126673639.21406      3520.591    24105197.44206  98706758.37706
      2743.327  
  22575453.49407 118634772.44707     -3144.522    22575453.12406  92442665.44206
     -2450.281  
  21753770.91107 114316822.71007     -1367.211    21753771.42307  89078040.02107
     -1065.360  
  24317295.46406 127788235.18906     -1356.386    24317299.39105  99575258.15705
     -1056.927  
  22139761.30607 116345217.75107     -1368.146    22139762.02407  90658609.07207
     -1066.089  
  20089855.22708 105572898.71608     -1520.838    20089855.22707  82264594.59607
     -1185.069  
  20396801.98107 107185926.62207       901.359    20396802.14107  83521502.46207
       702.359  
  21723835.54907 114159549.25107      2324.045    21723836.97107  88955510.26407
      1810.945  
  22639183.74507 120849515.85407      2844.653    22639189.52907  93994092.17407
      2212.509  
  20530916.80208 109556902.83308       214.214    20530919.60007  85210944.49307
       166.610  
  22076681.90007 117929732.69307      3151.872    22076689.08707  91723161.25007
      2451.461  
  21993441.88506 117526300.02106      -180.785    21993446.38606  91409369.95606
      -140.610  
  21830470.85807 116696359.96607     -1951.275    21830477.10007  90763844.64707
     -1517.661  
  21803919.77107 116595320.59307     -4028.559    21803922.97807  90685249.28107
     -3133.328  
  20188909.45307 108034926.89107      -633.218    20188910.37208  84027164.99208
      -492.505  
  22800045.04506 122050378.67706      1928.106    22800048.29307  94928131.82407
      1499.638  
  37371518.49608  -1215394.38208        34.530    37371512.55307  -1189115.94207
        24.216  
  38337089.92207  -1235920.70007        42.854    38337085.83707  -1202228.78807
        34.542  
  37129611.99408  -1157930.94508        14.012    37129609.92407  -1142068.18407
        11.305  
  38466566.95407  -1157511.80507        13.867    38466565.84307  -1143108.24207
        10.368  
  39724641.88206  -5055715.58306      1569.379    39724645.54806  -4140297.12706
      1212.933  
  36056557.46908  -1692734.30908       272.600    36056553.27707  -1555896.05907
       209.665  
  37822755.27407  -5277719.79407      1512.539    37822751.92007  -4323212.15007
      1169.003  
  37051777.56808  -1813886.15608       345.109    37051775.71207  -1648007.37407
       266.558  
 13  3 17  1 34 15.0000000  0 25G21G24G02G05G08G29G26G15G09R18R02R12
                                R11R01R24R17R03C01C02C03C04C10C06C07
                                C09
  24150285.83806 126910611.12206      3228.503    24150286.43306  98891395.44006
      2515.717  
  24095142.36206 126620834.84706      3520.642    24095148.79905  98665612.21205
      2743.364  
  22584436.80307 118681980.12607     -3149.441    22584436.65006  92479450.57106
     -2454.113  
  21757676.88507 114337349.28307     -1369.497    21757677.55507  89094034.73207
     -1067.142  
  24321178.70906 127808641.82206     -1365.470    24321182.98005  99591159.37405
     -1064.011  
  22143678.17107 116365800.88207     -1375.926    22143679.13807  90674647.84707
     -1072.151  
  20094209.57708 105595780.78408     -1529.767    20094209.64807  82282424.76207
     -1192.027  
  20394240.97708 107172468.56608       893.386    20394241.02108  83511015.65908
       696.145  
  21717213.04407 114124748.34307      2316.325    21717214.49907  88928392.68307
      1804.929  
  22631204.12207 120806920.01507      2835.161    22631209.92207  93960962.08907
      2205.126  
  20530319.18708 109553713.57508       211.538    20530321.87807  85208463.93407
       164.529  
  22067840.34407 117882503.11607      3145.746    22067847.66707  91686427.19007
      2446.694  
  21993968.45907 117529114.45507      -194.065    21993973.05806  91411558.98206
      -150.937  
  21835947.72707 116725636.93307     -1951.900    21835953.71006  90786615.57306
     -1518.147  
  21815227.07507 116655785.90307     -4033.185    21815230.41807  90732277.74707
     -3136.930  
  20190703.98408 108044529.01008      -646.743    20190704.82208  84034633.29908
      -503.022  
  22794645.17606 122021473.18306      1926.334    22794648.42507  94905649.84107
      1498.266  
  37371419.19408  -1215910.50408        36.523    37371413.77507  -1189515.00507
        28.965  
  38336972.94507  -1236526.15607        40.458    38336969.29107  -1202696.96407
        30.350  
  37129573.44908  -1158134.40208        14.195    37129570.09107  -1142225.49507
        11.351  
  38466535.11407  -1157677.93207        12.501    38466533.62307  -1143236.69807
         8.446  
  39720121.69706  -5079248.55706      1570.906    39720125.85406  -4158494.22706
      1217.420  
  36055772.97008  -1696820.96408       273.120    36055768.59207  -1559056.10707
       209.723  
  37818401.26007  -5300390.27807      1511.564    37818398.30407  -4340742.34907
      1169.241  
  37050783.52408  -1819061.87708       345.507    37050781.89407  -1652009.52807
       269.333  
 13  3 17  1 34 30.0000000  0 25G21G24G02G05G08G29G26G15G09R18R02R12
                                R11R01R24R17R03C01C02C03C04C10C06C07
                                C09
  24141072.23606 126862193.47806      3227.455    24141072.78206  98853667.42006
      2514.900  
  24085093.53206 126568028.39406      3520.569    24085099.60506  98624464.44806
      2743.310  
  22593434.48107 118729263.03107     -3154.753    22593434.57906  92516294.30606
     -2458.253  
  21761589.43007 114357910.37207     -1371.753    21761590.31407  89110056.33307
     -1068.899  
  24325085.18506 127829170.59606     -1372.989    24325089.25105  99607155.71905
     -1069.870  
  22147617.21007 116386500.53707     -1383.833    22147618.53707  90690777.40507
     -1078.314  
  20098589.03308 105618794.68808     -1538.714    20098589.13607  82300357.66407
     -1198.998  
  20391702.55508 107159128.70408       885.362    20391702.41608  83500620.96108
       689.894  
  21710612.17007 114090060.74907      2308.664    21710613.74107  88901363.41207
      1798.961  
  22623250.65407 120764464.67207      2825.792    22623256.67807  93927941.28807
      2197.841  
  20529728.66008 109550562.98408       208.559    20529731.62507  85206013.47907
       162.214  
  22059015.77907 117835364.40807      3139.485    22059023.22807  91649763.78807
      2441.825  
  21994531.44907 117532121.95107      -207.135    21994535.85106  91413898.15306
      -161.103  
  21841425.99007 116754920.19607     -1952.591    21841431.47207  90809391.39307
     -1518.685  
  21826547.21107 116716319.96307     -4037.927    21826550.68807  90779359.70907
     -3140.615  
  20192536.14708 108054333.37908      -660.339    20192537.22308  84042258.90108
      -513.597  
  22789250.56406 121992595.61806      1924.318    22789253.70807  94883189.56107
      1496.694  
  37371319.98808  -1216428.09508        33.542    37371314.30707  -1189915.20307
        26.086  
  38336856.59207  -1237132.70307        39.397    38336853.29407  -1203165.93507
        33.147  
  37129533.55408  -1158339.52408        12.447    37129531.18007  -1142384.07607
         8.630  
  38466502.93907  -1157845.35507        12.284    38466501.62707  -1143366.13107
         3.065  
  39715603.85506  -5102775.09806      1563.390    39715607.76506  -4176686.35006
      1209.302  
  36054986.05508  -1700916.61108       273.549    36054982.17307  -1562223.08807
       209.842  
  37814051.98607  -5323039.10907      1509.461    37814048.81807  -4358255.82607
      1165.274  
  37049786.58408  -1824252.25008       346.641    37049785.08307  -1656023.03707
       268.801  
 13  3 17  1 34 45.0000000  0 25G21G24G02G05G08G29G26G15G09R18R02R12
                                R11R01R24R17R03C01C02C03C04C10C06C07
                                C09
  24131861.17806 126813788.96306      3226.505    24131861.64906  98815949.63706
      2514.158  
  24075043.86506 126515217.50406      3520.590    24075049.75806  98583313.19906
      2743.324  
  22602445.97107 118776618.75907     -3159.667    22602446.11906  92553194.80006
     -2462.083  
  21765508.11107 114378503.70007     -1374.084    21765509.05907  89126103.04707
     -1070.717  
  24329014.33005 127849819.21105     -1380.591    24329018.39106  99623245.62606
     -1075.785  
  22151577.98907 116407314.10807     -1391.399    22151579.45307  90706995.72707
     -1084.210  
  20102993.09308 105641937.84908     -1547.352    20102993.12207  82318391.28207
     -1205.730  
  20389186.18108 107145904.58708       877.507    20389185.86108  83490316.45008
       683.771  
  21704032.50807 114055484.57607      2301.190    21704034.27107  88874420.95007
      1793.136  
  22615323.08707 120722148.03607      2816.571    22615329.31607  93895028.34907
      2190.666  
  20529144.87407 109547448.56207       206.210    20529147.97007  85203591.14307
       160.384  
  22050207.90707 117788314.67407      3133.594    22050215.34806  91613169.60406
      2437.242  
  21995130.07407 117535320.45107      -219.788    21995134.49606  91416385.88806
      -170.946  
  21846904.69007 116784207.45707     -1952.732    21846909.98806  90832170.32806
     -1518.795  
  21837879.87007 116776920.06507     -4042.438    21837883.28907  90826493.03407
     -3144.124  
  20194405.64307 108064337.49807      -673.742    20194406.79308  84050039.85708
      -524.024  
  22783860.64106 121963743.66106      1922.481    22783863.79006  94860749.16406
      1495.263  
  37371220.06608  -1216946.69508        33.425    37371214.62007  -1190316.17907
        25.622  
  38336740.57407  -1237739.98907        38.174    38336735.36907  -1203635.50607
        31.355  
  37129494.25408  -1158545.87108        11.661    37129491.61607  -1142543.60407
        11.454  
  38466470.45907  -1158013.65507        10.316    38466469.49707  -1143496.27207
         7.374  
  39711087.63806  -5126294.57706      1566.649    39711092.18506  -4194873.05606
      1208.861  
  36054197.99508  -1705020.81808       271.302    36054194.37507  -1565396.69907
       211.974  
  37809706.56307  -5345665.80207      1505.461    37809703.44807  -4375752.15707
      1163.302  
  37048786.84008  -1829456.83808       344.783    37048785.41307  -1660047.52507
       263.895  
 13  3 17  1 35  0.0000000  0 25G21G24G02G05G08G29G26G15G09R18R02R12
                                R11R01R24R17R03C01C02C03C04C10C06C07
                                C09
  24122652.71106 126765398.18406      3225.564    24122652.95306  98778242.55906
      2513.428  
  24064993.43606 126462403.14406      3521.302    24064999.38406  98542159.23706
      2743.879  
  22611471.44807 118824047.30307     -3164.423    22611471.49306  92590152.01206
     -2465.789  
  21769433.12007 114399129.54407     -1376.466    21769433.90807  89142175.11807
     -1072.571  
  24332965.88105 127870593.75805     -1388.586    24332970.02105  99639448.84205
     -1082.018  
  22155560.39307 116428241.47507     -1399.280    22155561.82707  90723302.73807
     -1090.349  
  20107421.74908 105665210.22108     -1556.004    20107421.63607  82336525.58507
     -1212.471  
  20386691.82708 107132796.52008       869.836    20386691.43208  83480102.38008
       677.795  
  21697474.27507 114021020.45807      2293.638    21697476.08807  88847565.80707
      1787.251  
  22607421.82707 120679970.88707      2806.908    22607428.10907  93862223.93207
      2183.154  
  20528567.94407 109544370.50907       203.687    20528571.18607  85201197.09807
       158.423  
  22041416.85607 117741354.69807      3127.399    22041423.99007  91576645.18007
      2432.423  
  21995764.46906 117538710.26806      -232.654    21995769.01706  91419022.43306
      -180.952  
  21852384.36407 116813498.92707     -1953.220    21852389.25806  90854952.53406
     -1519.174  
  21849224.64207 116837585.76707     -4046.867    21849228.05007  90873677.39107
     -3147.567  
  20196312.49308 108074541.37608      -687.158    20196313.69508  84057976.18608
      -534.457  
  22778475.95206 121934917.36406      1920.545    22778478.25307  94838328.73607
      1493.761  
  37371120.45908  -1217467.34308        33.159    37371114.83407  -1190718.75907
        24.403  
  38336622.91107  -1238348.83107        39.405    38336619.41007  -1204106.27907
        29.618  
  37129454.35708  -1158754.38408        11.972    37129451.11107  -1142704.81207
         8.844  
  38466438.27907  -1158183.68707         7.728    38466436.63407  -1143627.71507
         6.609  
  39706572.37006  -5149807.93706      1563.992    39706576.43706  -4213055.01306
      1208.568  
  36053407.84808  -1709134.39108       274.290    36053404.57807  -1568577.55107
       211.535  
  37805365.25907  -5368271.21907      1506.587    37805362.09107  -4393232.05507
      1167.217  
  37047784.45208  -1834676.48208       346.305    37047782.62607  -1664083.64607
       269.178  
 13  3 17  1 35 15.0000000  0 25G21G24G02G05G08G29G26G15G09R18R02R12
                                R11R01R24R17R03C01C02C03C04C10C06C07
                                C09
  24113447.44906 126717024.36506      3223.853    24113447.55906  98740548.68106
      2512.094  
  24054943.04806 126409588.43306      3520.421    24054948.56306  98501004.95906
      2743.187  
  22620511.18407 118871551.22407     -3169.913    22620511.15106  92627167.97306
     -2470.067  
  21773365.03607 114419790.59607     -1378.835    21773365.44707  89158274.62407
     -1074.418  
  24336941.88105 127891484.92205     -1397.463    24336945.07405  99655727.65805
     -1088.934  
  22159564.98307 116449285.29707     -1407.482    22159566.33407  90739700.51407
     -1096.740  
  20111875.44908 105688614.31408     -1565.067    20111875.19707  82354762.52307
     -1219.534  
  20384220.08208 107119807.24808       861.604    20384219.62508  83469980.86808
       671.379  
  21690937.99307 113986671.60407      2285.668    21690939.78307  88820800.47507
      1781.042  
  22599547.34507 120637936.29807      2796.960    22599553.78707  93829530.37307
      2175.414  
  20527998.40907 109541331.57907       200.718    20528001.73307  85198833.49007
       156.115  
  22032643.24207 117694488.10207      3120.920    22032650.14107  91540193.43807
      2427.386  
  21996435.06606 117542294.11006      -246.075    21996439.72906  91421809.89206
      -191.390  
  21857865.36307 116842797.31007     -1953.911    21857870.28906  90877740.11306
     -1519.711  
  21860581.94507 116898319.40607     -4051.790    21860585.39507  90920914.57607
     -3151.399  
  20198257.22908 108084947.70408      -701.035    20198258.49208  84066069.97808
      -545.251  
  22773096.34506 121906119.46806      1918.405    22773098.21107  94815930.37307
      1492.093  
  37371019.71308  -1217992.77308        32.607    37371013.68607  -1191125.03707
        26.187  
  38336505.14807  -1238962.19507        40.425    38336500.97407  -1204580.52707
        33.393  
  37129413.22208  -1158967.97108        12.421    37129409.94907  -1142869.94507
        10.197  
  38466403.95907  -1158358.35207        11.961    38466403.06307  -1143762.78707
         7.886  
  39702057.69006  -5173318.06706      1563.632    39702061.41506  -4231234.42006
      1209.240  
  36052615.57908  -1713260.22008       273.494    36052611.80107  -1571767.88207
       211.764  
  37801028.34207  -5390858.12707      1504.923    37801024.37607  -4410697.63307
      1161.789  
  37046778.85308  -1839914.12608       349.734    37046777.08907  -1668133.70407
       270.793  
 13  3 17  1 35 30.0000000  0 25G21G24G02G05G08G29G26G15G09R18R02R12
                                R11R01R24R17R03C01C02C03C04C10C06C07
                                C09
  24104245.12906 126668666.51106      3223.599    24104245.37706  98702867.25506
      2511.897  
  24044892.31606 126356772.13506      3521.388    24044897.84106  98459849.52006
      2743.948  
  22629564.94007 118919129.32507     -3174.129    22629564.94706  92664241.71906
     -2473.355  
  21777303.47307 114440485.77507     -1380.571    21777303.67207  89174400.71807
     -1075.772  
  24340940.71305 127912497.31705     -1404.538    24340944.23905  99672100.90905
     -1094.447  
  22163591.39507 116470444.09407     -1414.292    22163592.68407  90756187.84207
     -1102.050  
  20116353.90708 105712148.51408     -1573.012    20116353.46608  82373100.84108
     -1225.725  
  20381770.73308 107106935.53708       854.241    20381770.28108  83459950.96508
       665.642  
  21684423.43507 113952437.25307      2278.563    21684425.23307  88794124.37207
      1775.503  
  22591699.53307 120596043.48507      2788.378    22591705.83907  93796947.10307
      2168.740  
  20527436.13608 109538330.51108       199.010    20527439.43307  85196499.31507
       154.784  
  22023887.02607 117647713.86807      3115.328    22023893.95607  91503813.51907
      2423.033  
  21997141.65107 117546070.93107      -258.134    21997146.56506  91424747.42906
      -200.772  
  21863347.44507 116872101.45707     -1953.754    21863352.68207  90900532.18307
     -1519.591  
  21871951.74007 116959119.22307     -4055.360    21871955.31407  90968203.22907
     -3154.176  
  20200239.42808 108095555.05108      -713.806    20200240.89708  84074320.10708
      -555.186  
  22767721.55506 121877348.59106      1917.198    22767723.65307  94793553.04607
      1491.155  
  37370918.88508  -1218514.42308        32.060    37370913.65307  -1191528.36307
        25.874  
  38336388.16607  -1239571.40307        41.158    38336384.67007  -1205051.58607
        31.672  
  37129372.77008  -1159177.92608        11.548    37129370.08507  -1143032.25807
         7.184  
  38466371.24107  -1158529.08807        10.774    38466370.39807  -1143894.76507
         5.600  
  39697544.95406  -5196816.21506      1564.074    39697548.28506  -4249404.62106
      1210.842  
  36051822.53808  -1717389.59208       271.701    36051819.41007  -1574960.94907
       212.127  
  37796695.13607  -5413417.85007      1500.418    37796692.79807  -4428142.19007
      1161.372  
  37045770.81608  -1845161.11808       347.755    37045769.14307  -1672190.97907
       269.293  
 13  3 17  1 35 45.0000000  0 25G21G24G02G05G08G29G26G15G09R18R02R12
                                R11R01R24R17R03C01C02C03C04C10C06C07
                                C09
  24095045.67906 126620323.61906      3222.024    24095045.82406  98665197.48306
      2510.671  
  24034841.19606 126303953.86806      3520.939    24034846.79405  98418692.49305
      2743.592  
  22638632.60007 118966780.18307     -3179.317    22638632.58106  92701372.16006
     -2477.398  
  21781247.96207 114461213.98507     -1383.275    21781248.33607  89190552.52907
     -1077.880  
  24344961.82905 127933629.65605     -1412.573    24344966.41705  99688567.62305
     -1100.714  
  22167639.40107 116491716.39707     -1422.131    22167640.57907  90772763.62107
     -1108.156  
  20120856.71608 105735811.42808     -1582.048    20120856.22807  82391539.46007
     -1232.766  
  20379343.47208 107094180.12408       846.142    20379343.09808  83450011.67608
       659.331  
  21677930.46807 113918316.65907      2270.636    21677932.29507  88767536.91107
      1769.329  
  22583878.19607 120554291.68807      2778.510    22583884.13407  93764473.49407
      2161.064  
  20526880.73907 109535366.05607       196.015    20526883.88407  85194193.62107
       152.456  
  22015148.07907 117601031.70107      3108.873    22015155.02107  91467505.20107
      2418.014  
  21997884.41906 117550039.75506      -271.243    21997889.25806  91427834.28206
      -210.966  
  21868830.11907 116901410.22007     -1954.360    21868835.60606  90923327.82606
     -1520.061  
  21883333.55907 117019983.31507     -4060.129    21883337.47307  91015541.87707
     -3157.884  
  20202259.07708 108106362.32008      -727.432    20202260.51608  84082725.72308
      -565.783  
  22762351.80606 121848603.51706      1915.276    22762354.10507  94771195.77907
      1489.660  
  37370818.67408  -1219035.29808        36.038    37370813.35507  -1191931.12407
        25.528  
  38336271.57407  -1240179.54307        38.832    38336267.80607  -1205521.80307
        31.308  
  37129332.51408  -1159387.29408        13.902    37129329.66407  -1143194.15107
        10.615  
  38466338.83507  -1158698.83807         9.385    38466337.04607  -1144026.00907
         8.013  
  39693034.08206  -5220305.38306      1565.526    39693036.92806  -4267567.85506
      1207.883  
  36051028.39108  -1721525.58208       277.227    36051024.95007  -1578159.12407
       212.229  
  37792368.28107  -5435953.42007      1498.209    37792365.06107  -4445568.07707
      1161.712  
  37044760.36508  -1850420.47308       349.463    37044759.59407  -1676257.81607
       269.616  
 13  3 17  1 36  0.0000000  0 25G21G24G02G05G08G29G26G15G09R18R02R12
                                R11R01R24R17R03C01C02C03C04C10C06C07
                                C09
  24085849.55506 126571997.78106      3221.109    24085849.70206  98627541.03006
      2509.958  
  24024790.08606 126251135.49206      3521.231    24024795.42405  98377535.39605
      2743.823  
  22647714.47207 119014505.35107     -3184.280    22647714.61306  92738560.51806
     -2481.262  
  21785198.76807 114481977.05107     -1385.177    21785199.53107  89206731.50407
     -1079.361  
  24349005.45105 127954883.91605     -1421.317    24349011.12605  99705129.39205
     -1107.521  
  22171709.29707 116513103.79007     -1429.577    22171710.29007  90789429.09207
     -1113.959  
  20125384.23708 105759604.62108     -1590.368    20125383.81607  82410079.60107
     -1239.249  
  20376938.60308 107081542.92408       838.711    20376938.40008  83440164.51708
       653.543  
  21671459.56607 113884311.97107      2263.186    21671461.45207  88741039.77707
      1763.523  
  22576083.66507 120512683.44107      2769.228    22576089.39207  93732111.53407
      2153.844  
  20526332.41907 109532439.81607       194.004    20526335.40407  85191917.64907
       150.890  
  22006426.80807 117554444.00707      3102.791    22006433.43707  91431270.37507
      2413.285  
  21998663.44506 117554202.25706      -283.725    21998668.14906  91431071.79306
      -220.676  
  21874314.04007 116930725.46207     -1954.377    21874319.56006  90946128.51906
     -1520.074  
  21894727.73207 117080913.20307     -4064.099    21894731.97807  91062931.72107
     -3160.971  
  20204316.36608 108117370.89808      -740.550    20204317.48108  84091287.94608
      -575.983  
  22756987.11406 121819886.08506      1913.662    22756989.48707  94748860.02107
      1488.406  
  37370718.01208  -1219562.01408        32.637    37370712.42207  -1192338.39707
        25.907  
  38336153.75807  -1240793.17307        40.216    38336149.61907  -1205996.26707
        30.249  
  37129291.49208  -1159602.73008        11.793    37129288.23407  -1143360.71507
         9.364  
  38466305.06807  -1158874.24307         9.325    38466303.86007  -1144161.62707
         7.106  
  39688524.24007  -5243791.94607      1561.758    39688526.88306  -4285729.07706
      1210.334  
  36050231.59108  -1725674.69908       274.921    36050227.82807  -1581367.46107
       212.590  
  37788043.59407  -5458471.34207      1499.738    37788040.01007  -4462980.28507
      1158.139  
  37043747.07208  -1855698.75808       350.963    37043744.97707  -1680339.29207
       271.153  
 13  3 17  1 36 15.0000000  0 25G21G24G02G05G08G29G26G15G09R18R02R12
                                R11R01R24R17R03C01C02C03C04C10C06C07
                                C09
  24076656.24906 126523686.47606      3220.093    24076655.96906  98589895.84906
      2509.162  
  24014738.55606 126198314.65006      3521.497    24014744.10805  98336376.35105
      2744.026  
  22656809.89807 119062301.51407     -3188.937    22656810.11107  92775804.20207
     -2484.892  
  21789155.82307 114502771.98007     -1387.515    21789156.63007  89222935.33707
     -1081.180  
  24353072.61805 127976256.54205     -1428.855    24353077.31105  99721783.39605
     -1113.389  
  22175800.41307 116534603.08907     -1437.224    22175801.26507  90806181.76907
     -1119.915  
  20129936.00208 105783524.82408     -1598.985    20129935.68307  82428718.70707
     -1245.962  
  20374555.61008 107069020.89908       830.924    20374555.63108  83430407.11108
       647.474  
  21665010.33407 113850420.66907      2255.436    21665012.20807  88714630.99607
      1757.485  
  22568315.36306 120471216.01106      2759.731    22568321.17207  93699859.11407
      2146.459  
  20525790.59107 109529548.86007       191.406    20525793.66307  85189669.12007
       148.872  
  21997722.73707 117507948.30107      3096.397    21997728.92206  91395107.09206
      2408.312  
  21999478.19506 117558555.85906      -296.754    21999482.72806  91434457.94006
      -230.808  
  21879798.72807 116960044.06407     -1954.813    21879804.24506  90968931.82006
     -1520.412  
  21906133.76307 117141905.32807     -4068.261    21906138.08707  91110369.97207
     -3164.209  
  20206410.71507 108128577.79207      -753.859    20206411.45308  84100004.40208
      -586.336  
  22751627.08006 121791193.24206      1912.024    22751629.31307  94726543.41807
      1487.133  
  37370617.23508  -1220085.12008        36.736    37370612.01207  -1192742.85507
        31.997  
  38336036.22807  -1241402.81707        42.073    38336033.03507  -1206467.68007
        33.138  
  37129250.62808  -1159814.70108        18.261    37129247.87807  -1143524.58007
        11.263  
  38466271.64007  -1159045.79807        13.127    38466270.83307  -1144294.27507
        10.041  
  39684016.02907  -5267266.53407      1568.034    39684018.49106  -4303881.01106
      1210.254  
  36049433.80108  -1729827.43508       280.090    36049430.57307  -1584578.58907
       216.207  
  37783724.60407  -5480962.13007      1504.058    37783720.99107  -4480371.52607
      1159.968  
  37042731.69808  -1860986.44608       354.567    37042729.60507  -1684428.02907
       273.733  
 13  3 17  1 36 30.0000000  0 25G21G24G02G05G08G29G26G15G09R18R02R12
                                R11R01R24R17R03C01C02C03C04C10C06C07
                                C09
  24067465.88506 126475390.74406      3219.287    24067465.78206  98552262.81306
      2508.536  
  24004686.59306 126145492.83106      3521.309    24004692.55306  98295216.55306
      2743.881  
  22665919.05007 119110169.45607     -3193.176    22665919.40706  92813103.81706
     -2488.194  
  21793119.27507 114523599.85007     -1389.470    21793119.98307  89239164.83507
     -1082.704  
  24357162.68606 127997748.65306     -1436.611    24357166.60405  99738530.43205
     -1119.454  
  22179913.04307 116556214.93307     -1444.448    22179913.84407  90823022.13907
     -1125.545  
  20134512.19508 105807572.73808     -1607.231    20134511.90307  82447457.32107
     -1252.389  
  20372194.78208 107056614.92208       823.361    20372194.95508  83420740.11508
       641.581  
  21658583.02307 113816644.15307      2248.147    21658584.71307  88688311.64307
      1751.804  
  22560573.43806 120429890.79706      2750.479    22560579.47807  93667717.27407
      2139.262  
  20525255.59307 109526694.14007       189.250    20525258.78007  85187448.79107
       147.195  
  21989036.23407 117461546.19607      3090.550    21989042.33007  91359016.58007
      2403.762  
  22000328.70306 117563101.08606      -309.239    22000333.22906  91437993.13206
      -240.517  
  21885284.38807 116989367.04607     -1954.857    21885289.74006  90991738.54006
     -1520.446  
  21917551.54807 117202960.02407     -4072.162    21917555.94207  91157856.85907
     -3167.243  
  20208542.29307 108139983.86107      -766.846    20208542.91408  84108875.77008
      -596.437  
  22746271.32906 121762525.73006      1910.686    22746273.99407  94704246.48307
      1486.092  
  37370516.50208  -1220611.39108        33.217    37370510.44607  -1193149.76307
        24.906  
  38335918.49707  -1242015.27507        40.627    38335915.09007  -1206941.22607
        29.114  
  37129209.22808  -1160030.02108        12.967    37129205.99207  -1143691.07407
        10.651  
  38466238.41207  -1159220.37007        10.103    38466237.09307  -1144429.25407
         7.025  
  39679509.36507  -5290735.85407      1563.858    39679510.85606  -4322028.92406
      1211.347  
  36048634.77908  -1733990.55308       275.972    36048630.79207  -1587797.73407
       213.342  
  37779409.09907  -5503432.45407      1495.347    37779405.59807  -4497746.95707
      1155.869  
  37041713.38008  -1866290.41808       352.498    37041711.10407  -1688529.37507
       273.441  
 13  3 17  1 36 45.0000000  0 25G21G24G02G05G08G29G26G15G09R18R02R12
                                R11R01R24R17R03C01C02C03C04C10C06C07
                                C09
  24058278.71106 126427111.45006      3218.023    24058278.43906  98514642.59906
      2507.550  
  23994634.81606 126092670.78006      3521.241    23994641.04705  98254056.56905
      2743.831  
  22675041.96007 119158109.93107     -3198.438    22675042.59506  92850459.92306
     -2492.297  
  21797089.10907 114544461.42807     -1391.945    21797089.79807  89255420.58407
     -1084.634  
  24361275.37805 128019360.79305     -1444.869    24361279.14305  99755371.00505
     -1125.888  
  22184047.15907 116577939.81907     -1452.198    22184048.05207  90839950.59907
     -1131.584  
  20139112.78508 105831748.75108     -1615.995    20139112.53407  82466295.75207
     -1259.218  
  20369856.16308 107044325.71008       815.335    20369856.44607  83411164.11507
       635.326  
  21652177.75607 113782983.52807      2240.194    21652179.23407  88662082.59507
      1745.607  
  22552858.44506 120388709.17906      2740.492    22552864.79507  93635687.13307
      2131.495  
  20524727.63807 109523876.25007       186.637    20524730.75007  85185257.09807
       145.162  
  21980367.50507 117415239.01107      3083.976    21980373.45607  91322999.91607
      2398.650  
  22001215.18606 117567839.19206      -322.416    22001219.80206  91441678.31706
      -250.768  
  21890771.02407 117018695.21507     -1955.463    21890776.05306  91014549.30306
     -1520.917  
  21928981.00907 117264077.67207     -4076.524    21928985.32407  91205392.73307
     -3170.634  
  20210711.09608 108151589.64208      -780.355    20210711.67008  84117902.46808
      -606.944  
  22740920.92806 121733884.35506      1908.461    22740923.43107  94681969.87207
      1484.358  
  37370414.90608  -1221139.76308        33.704    37370409.38807  -1193558.30407
        26.761  
  38335800.30507  -1242629.57407        37.865    38335797.08107  -1207416.20007
        32.890  
  37129167.04608  -1160247.73508        12.900    37129164.68707  -1143859.40407
         8.920  
  38466205.01007  -1159396.86707         6.701    38466203.16307  -1144565.70007
         9.118  
  39675003.39907  -5314198.80907      1564.839    39675004.98406  -4340171.87406
      1208.225  
  36047833.14608  -1738163.03808       275.155    36047829.54207  -1591024.13307
       213.316  
  37775098.35607  -5525881.35307      1493.313    37775094.62007  -4515105.82107
      1153.737  
  37040691.72108  -1871609.61808       352.728    37040689.29707  -1692642.48207
       270.994  
 13  3 17  1 37  0.0000000  0 25G21G24G02G05G08G29G26G15G09R18R02R12
                                R11R01R24R17R03C01C02C03C04C10C06C07
                                C09
  24049094.78006 126378849.47406      3216.962    24049094.55706  98477035.89306
      2506.724  
  23984583.25006 126039848.90506      3521.403    23984589.49806  98212896.70906
      2743.954  
  22684178.45807 119206122.57707     -3202.943    22684179.33506  92887872.28006
     -2495.808  
  21801065.44407 114565356.74407     -1394.215    21801066.02407  89271702.62107
     -1086.404  
  24365410.80205 128041092.77405     -1452.624    24365414.59004  99772299.08204
     -1131.920  
  22188202.68307 116599777.43407     -1459.390    22188203.72507  90856966.87807
     -1137.189  
  20143737.70808 105856052.69308     -1624.505    20143737.51307  82485233.85807
     -1265.851  
  20367539.71307 107032153.26707       807.653    20367540.04507  83401679.10007
       629.339  
  21645794.60807 113749439.23307      2232.527    21645795.96207  88635944.20607
      1739.633  
  22545170.42907 120347671.29907      2731.427    22545177.25807  93603768.81307
      2124.446  
  20524206.61608 109521095.17508       184.271    20524209.51007  85183094.03207
       143.322  
  21971716.63607 117369027.28507      3077.573    21971722.51507  91287057.50507
      2393.670  
  22002137.98507 117572769.92407      -335.103    22002142.59006  91445513.35606
      -260.634  
  21896258.55607 117048028.61607     -1955.629    21896263.66006  91037364.11006
     -1521.050  
  21940421.92707 117325257.51807     -4080.684    21940426.29207  91252976.95807
     -3173.872  
  20212917.12308 108163394.95508      -793.644    20212917.61208  84127084.36308
      -617.280  
  22735575.40806 121705268.96006      1906.853    22735578.03707  94659713.46307
      1483.108  
  37370314.05708  -1221666.18108        36.714    37370308.15307  -1193965.34507
        26.832  
  38335682.86807  -1243241.50407        42.616    38335679.10507  -1207889.35207
        38.759  
  37129125.71608  -1160463.62208        15.526    37129122.83507  -1144026.31007
        11.687  
  38466171.31807  -1159571.20807        13.058    38466169.62506  -1144700.49606
        11.146  
  39670499.42807  -5337651.20107      1565.014    39670501.26806  -4358306.67106
      1215.113  
  36047031.22708  -1742340.66308       281.820    36047027.18607  -1594254.51707
       217.701  
  37770791.80007  -5548304.51407      1495.933    37770788.27907  -4532444.77707
      1155.834  
  37039668.07608  -1876939.82308       357.874    37039665.83807  -1696764.11207
       275.071  
 13  3 17  1 37 15.0000000  0 25G21G24G02G05G08G29G26G15G09R18R02R12
                                R11R01R24R17R03C01C02C03C04C10C06C07
                                C09
  24039914.21506 126330605.10106      3215.682    24039913.96506  98439442.91206
      2505.731  
  23974531.78406 125987028.15906      3521.167    23974537.99606  98171737.73706
      2743.771  
  22693328.64607 119254207.58907     -3208.131    22693329.76106  92925341.03606
     -2499.848  
  21805048.40407 114586286.30507     -1396.585    21805048.68707  89288011.33807
     -1088.249  
  24369569.30105 128062944.94705     -1460.448    24369572.85204  99789326.72004
     -1138.008  
  22192379.66607 116621727.92307     -1467.201    22192380.92007  90874071.12607
     -1143.274  
  20148386.93108 105880484.55008     -1633.120    20148386.90607  82504271.65107
     -1272.562  
  20365245.63308 107020097.96008       799.618    20365245.88908  83392285.35208
       623.080  
  21639433.66507 113716012.02607      2224.355    21639434.99707  88609897.04307
      1733.265  
  22537509.59907 120306778.18807      2721.178    22537516.73507  93571963.07607
      2116.473  
  20523692.52008 109518351.14008       181.573    20523695.19607  85180959.76007
       141.223  
  21963083.80707 117322912.21807      3071.024    21963090.21607  91251190.25407
      2388.577  
  22003097.05707 117577893.96707      -348.221    22003101.59906  91449498.74906
      -270.835  
  21901747.06307 117077367.56207     -1956.212    21901752.52006  91060183.24906
     -1521.500  
  21951874.47907 117386499.43507     -4084.937    21951878.71407  91300609.47007
     -3177.179  
  20215160.54808 108175400.01108      -807.156    20215161.14108  84136421.60508
      -627.789  
  22730234.78606 121676679.84706      1904.795    22730237.62607  94637477.53307
      1481.509  
  37370212.05208  -1222194.21008        35.080    37370206.84907  -1194373.63307
        26.255  
  38335564.87707  -1243854.74907        40.580    38335561.07107  -1208363.52907
        32.209  
  37129084.10308  -1160681.37108        15.784    37129081.12507  -1144194.65907
        11.761  
  38466137.74207  -1159747.00307         9.370    38466136.03607  -1144836.40607
        11.324  
  39665996.86807  -5361096.56007      1563.718    39665999.17806  -4376436.01906
      1209.907  
  36046226.79708  -1746527.07308       280.483    36046223.23307  -1597491.68907
       216.489  
  37766489.68307  -5570705.62207      1493.746    37766486.78307  -4549766.68407
      1151.869  
  37038642.07108  -1882284.76608       358.202    37038639.37707  -1700897.13007
       275.279  
 13  3 17  1 37 30.0000000  0 25G21G24G02G05G08G29G26G15G09R18R02R12
                                R11R01R24R17R03C01C02C03C04C10C06C07
                                C09
  24030736.83206 126282377.35906      3214.927    24030736.47606  98401862.84306
      2505.138  
  23964480.27606 125934207.32006      3521.978    23964486.47606  98130578.67006
      2744.404  
  22702492.22207 119302363.24207     -3212.454    22702493.47806  92962864.83106
     -2503.216  
  21809037.56707 114607248.45507     -1398.294    21809037.58107  89304345.46207
     -1089.581  
  24373750.50105 128084915.76005     -1468.692    24373753.84404  99806446.75204
     -1144.450  
  22196577.68107 116643789.52407     -1474.155    22196579.36507  90891261.92207
     -1148.696  
  20153060.06508 105905042.48308     -1641.029    20153060.27008  82523407.68608
     -1278.725  
  20362973.50608 107008158.16008       792.483    20362973.77808  83382981.61408
       617.520  
  21633094.74307 113682700.66507      2217.065    21633096.03007  88583940.16707
      1727.584  
  22529875.81707 120266028.64607      2712.080    22529883.01607  93540268.99607
      2109.396  
  20523184.90907 109515642.44807       179.608    20523187.48407  85178852.99907
       139.695  
  21954468.68607 117276892.33307      3065.040    21954475.38406  91215397.04906
      2383.923  
  22004091.58606 117583209.63206      -360.560    22004096.24006  91453633.16706
      -280.436  
  21907236.09107 117106710.31507     -1955.815    21907242.07206  91083005.35106
     -1521.192  
  21963338.40407 117447801.50607     -4088.287    21963342.43207  91348288.77407
     -3179.784  
  20217440.89507 108187602.98007      -819.778    20217441.85108  84145912.77608
      -637.607  
  22724898.77406 121648115.50806      1903.690    22724901.66907  94615260.85007
      1480.652  
  37370110.55108  -1222725.63308        36.740    37370104.54507  -1194784.51907
        29.752  
  38335447.13007  -1244470.90207        40.518    38335442.93307  -1208839.92907
        31.364  
  37129041.47908  -1160902.56008        15.925    37129038.85007  -1144365.67207
        11.935  
  38466103.32207  -1159925.86607        12.846    38466101.58507  -1144974.69307
         7.005  
  39661496.11907  -5384536.45807      1560.896    39661497.48606  -4394561.13706
      1206.787  
  36045420.80208  -1750723.82808       281.498    36045417.41207  -1600736.86207
       216.733  
  37762191.15207  -5593086.12107      1492.630    37762188.48007  -4567072.66707
      1154.726  
  37037612.04108  -1887646.03408       358.303    37037609.92207  -1705042.76607
       276.704  
 13  3 17  1 37 45.0000000  0 25G21G24G02G05G08G29G26G15G09R18R02R12
                                R11R01R24R17R03C01C02C03C04C10C06C07
                                C09
  24021562.66306 126234166.70306      3212.788    24021562.19106  98364296.11906
      2503.472  
  23954428.98406 125881387.24606      3521.251    23954435.06906  98089420.21406
      2743.831  
  22711669.37607 119350589.65707     -3217.446    22711670.58106  93000443.76506
     -2507.106  
  21813032.94707 114628243.72307     -1401.019    21813032.90907  89320705.39607
     -1091.704  
  24377953.95105 128107005.33105     -1476.212    24377957.33905  99823659.40605
     -1150.296  
  22200796.96607 116665962.39107     -1482.093    22200798.77907  90908539.44507
     -1154.882  
  20157757.23908 105929726.74008     -1650.016    20157757.65008  82542642.16708
     -1285.728  
  20360723.40708 106996334.33808       784.129    20360723.75108  83373768.24908
       611.010  
  21626778.06607 113649506.08907      2208.933    21626779.36707  88558074.28907
      1721.248  
  22522269.14507 120225423.64507      2702.071    22522276.48807  93508687.34307
      2101.613  
  20522683.94407 109512969.59007       176.878    20522686.56407  85176774.10807
       137.572  
  21945871.64907 117230969.11907      3058.195    21945878.12707  91179679.05507
      2378.600  
  22005122.23806 117588717.35906      -373.712    22005126.89406  91457916.95706
      -290.665  
  21912726.15807 117136057.70007     -1956.756    21912732.25906  91105831.03306
     -1521.925  
  21974813.26407 117509163.49707     -4092.871    21974817.41007  91396014.65707
     -3183.351  
  20219758.51907 108200004.36007      -833.477    20219759.39508  84155558.26508
      -648.261  
  22719567.18306 121619576.24506      1901.698    22719570.34607  94593063.67307
      1479.098  
  37370009.96908  -1223247.43408        35.808    37370003.85207  -1195187.99007
        29.564  
  38335330.94707  -1245077.17007        42.880    38335326.38807  -1209308.71007
        34.512  
  37129000.59908  -1161114.41608        17.042    37128998.06307  -1144529.45107
        12.259  
  38466070.61807  -1160095.03607        13.334    38466069.58507  -1145105.48807
         9.873  
  39656997.72407  -5407957.98207      1560.458    39656999.87806  -4412672.06506
      1210.359  
  36044615.60308  -1754918.11308       280.228    36044611.86507  -1603980.11407
       220.002  
  37757899.75307  -5615433.22407      1489.591    37757897.05207  -4584352.80707
      1152.961  
  37036582.25908  -1893010.75208       361.095    37036579.29007  -1709191.08307
       278.385  
 13  3 17  1 38  0.0000000  0 25G21G24G02G05G08G29G26G15G09R18R02R12
                                R11R01R24R17R03C01C02C03C04C10C06C07
                                C09
  24012392.27506 126185976.40806      3212.032    24012391.84906  98326745.27406
      2502.884  
  23944378.36606 125828571.26306      3521.203    23944384.55706  98048264.94306
      2743.797  
  22720860.60107 119398889.86507     -3222.069    22720861.79806  93038080.19306
     -2510.709  
  21817035.15507 114649275.43407     -1403.139    21817035.18507  89337093.71507
     -1093.357  
  24382180.63305 128129216.79105     -1484.360    24382184.74905  99840966.99405
     -1156.641  
  22205038.09407 116688249.43807     -1489.431    22205039.85007  90925905.96107
     -1160.597  
  20162479.01008 105954540.23108     -1658.425    20162479.53707  82561977.33307
     -1292.280  
  20358496.09908 106984629.66208       776.587    20358496.34807  83364647.72907
       605.133  
  21620484.27807 113616431.84207      2201.084    21620485.67807  88532302.17707
      1715.132  
  22514690.18107 120184966.70407      2692.142    22514697.69407  93477220.83607
      2093.889  
  20522190.26307 109510335.91407       174.526    20522192.99407  85174725.68707
       135.743  
  21937293.51607 117185146.41807      3051.607    21937299.85907  91144039.20907
      2373.474  
  22006189.55907 117594420.60107      -386.365    22006194.25206  91462352.81506
      -300.506  
  21918217.65307 117165412.69207     -1957.062    21918223.66606  91128662.64806
     -1522.162  
  21986299.99007 117570588.15407     -4096.926    21986304.21707  91443789.28207
     -3186.505  
  20222113.70207 108212607.24407      -846.773    20222114.47208  84165360.48808
      -658.603  
  22714241.01206 121591065.23206      1899.891    22714244.27407  94570888.46007
      1477.693  
  37369909.71708  -1223769.90208        35.073    37369903.45507  -1195591.97907
        24.872  
  38335214.33107  -1245683.74607        41.272    38335210.96207  -1209777.72807
        30.047  
  37128959.53808  -1161327.10008        11.039    37128956.79007  -1144693.88507
        11.339  
  38466037.71507  -1160264.64207         7.139    38466036.94807  -1145236.60307
         7.620  
  39652501.47907  -5431371.39907      1560.928    39652503.53806  -4430776.74006
      1201.127  
  36043808.37208  -1759120.01808       277.956    36043805.06707  -1607229.26707
       215.724  
  37753612.85507  -5637757.13107      1486.783    37753609.79007  -4601615.02307
      1149.630  
  37035549.08408  -1898389.13408       359.033    37035547.31107  -1713349.94907
       278.547  
 13  3 17  1 38 15.0000000  0 25G21G24G02G05G08G29G26G15G09R18R02R12
                                R11R01R24R17R03C01C02C03C04C10C06C07
                                C09
  24003225.08206 126137803.37206      3211.141    24003224.80506  98289207.86306
      2502.189  
  23934327.82906 125775756.09806      3521.102    23934333.82806  98007110.31006
      2743.718  
  22730065.27707 119447259.88007     -3226.975    22730066.45906  93075771.04506
     -2514.532  
  21821043.38107 114670339.70007     -1405.423    21821043.54807  89353507.40407
     -1095.136  
  24386429.99605 128151546.20605     -1492.884    24386434.34005  99858366.53805
     -1163.288  
  22209300.16807 116710646.67507     -1496.828    22209301.63406  90943358.32806
     -1166.361  
  20167224.64608 105979478.77708     -1666.580    20167225.13107  82581409.95307
     -1298.634  
  20356290.74508 106973040.38008       768.918    20356290.88908  83355617.12408
       599.158  
  21614212.67207 113583474.56907      2193.496    21614214.21507  88506621.21407
      1709.220  
  22507138.39607 120144654.45207      2682.729    22507145.87507  93445866.88107
      2086.569  
  20521703.12307 109507737.16607       172.248    20521705.89807  85172704.43007
       133.971  
  21928733.68907 117139420.84907      3045.337    21928739.83707  91108474.90507
      2368.598  
  22007292.75806 117600315.51306      -399.329    22007297.57206  91466937.76106
      -310.588  
  21923709.64007 117194771.58807     -1957.113    21923715.53806  91151497.31506
     -1522.202  
  21997797.52407 117632070.93707     -4100.645    21997802.04007  91491609.15207
     -3189.395  
  20224505.68007 108225407.30307      -859.795    20224506.40608  84175316.07208
      -668.731  
  22708919.35406 121562578.35806      1898.356    22708922.62007  94548732.04007
      1476.503  
  37369810.19108  -1224288.26108        34.392    37369804.20107  -1195992.77707
        27.448  
  38335098.68507  -1246285.96207        39.060    38335094.58907  -1210243.35707
        31.336  
  37128919.94908  -1161535.94708        14.083    37128916.83907  -1144855.34807
        11.266  
  38466006.01407  -1160430.06907        11.854    38466004.69307  -1145364.51007
         5.818  
  39648007.04907  -5454771.82907      1559.247    39648010.21706  -4448871.35606
      1211.089  
  36043001.22208  -1763324.86908       281.134    36042997.03007  -1610480.67707
       216.460  
  37749330.64707  -5660053.07307      1484.747    37749328.15607  -4618855.63707
      1147.393  
  37034514.41808  -1903776.47408       359.336    37034512.42207  -1717515.74507
       277.409  
 13  3 17  1 38 30.0000000  0 25G21G24G02G05G08G29G26G15G09R18R02R12
                                R11R01R24R17R03C01C02C03C04C10C06C07
                                C09
  23994061.41506 126089648.48906      3209.740    23994061.25506  98251684.59606
      2501.098  
  23924277.56706 125722942.89106      3520.704    23924283.85406  97965957.18306
      2743.406  
  22739283.29407 119495700.34007     -3231.685    22739284.39306  93113516.75606
     -2518.203  
  21825058.07807 114691437.48607     -1407.575    21825058.36707  89369947.20307
     -1096.813  
  24390701.87605 128173994.08205     -1500.023    24390706.14505  99875858.33805
     -1168.857  
  22213583.43707 116733154.60307     -1503.843    22213584.56807  90960896.94707
     -1171.825  
  20171994.28208 106004542.93308     -1675.101    20171994.58507  82600940.44307
     -1305.274  
  20354107.40608 106961567.13608       761.024    20354107.58407  83346676.93007
       593.007  
  21607963.60807 113550635.52207      2185.510    21607965.05907  88481032.36707
      1702.996  
  22499614.00807 120104488.13407      2672.970    22499621.26707  93414626.43007
      2078.979  
  20521222.88707 109505174.22907       169.791    20521225.54407  85170711.01907
       132.059  
  21920192.05007 117093793.73707      3038.426    21920198.15707  91072987.18807
      2363.224  
  22008431.77006 117606402.97306      -412.114    22008436.97006  91471672.43706
      -320.532  
  21929202.55107 117224135.32307     -1957.539    21929208.32806  91174335.71906
     -1522.532  
  22009305.99307 117693612.42907     -4104.802    22009310.64207  91539474.63907
     -3192.631  
  20226934.78407 108238405.48007      -873.008    20226935.38708  84185425.73508
      -679.007  
  22703602.33906 121534116.64706      1896.794    22703605.75007  94526595.17407
      1475.286  
  37369709.04308  -1224815.40908        33.138    37369702.85707  -1196400.37607
        29.016  
  38334980.69907  -1246896.57707        39.913    38334976.92707  -1210715.50407
        30.931  
  37128878.15708  -1161753.73608        13.487    37128874.89107  -1145023.73407
        12.212  
  38465973.10607  -1160604.08907        10.233    38465971.12007  -1145499.04207
         8.114  
  39643513.14507  -5478171.98207      1565.414    39643516.60606  -4466965.76906
      1204.392  
  36042190.42808  -1767545.44808       280.415    36042186.71007  -1613744.26907
       216.888  
  37745052.30107  -5682333.72307      1486.042    37745049.69907  -4636084.39407
      1150.608  
  37033475.37408  -1909185.55708       361.027    37033473.85807  -1721698.37107
       274.496  
 13  3 17  1 38 45.0000000  0 25G21G24G02G05G08G29G26G15G09R18R02R12
                                R11R01R24R17R03C01C02C03C04C10C06C07
                                C09
  23984901.34706 126041512.66806      3208.085    23984901.16906  98214176.19706
      2499.807  
  23914227.88006 125670132.98606      3520.076    23914234.67606  97924806.68506
      2742.923  
  22748514.70507 119544211.58207     -3236.701    22748515.81406  93151317.64406
     -2522.111  
  21829079.27507 114712569.31307     -1410.161    21829079.72707  89386413.55307
     -1098.828  
  24394996.29505 128196561.26005     -1509.048    24395000.31605  99893447.11705
     -1175.906  
  22217887.85907 116755773.56907     -1511.877    22217888.73607  90978522.09307
     -1178.086  
  20176787.86208 106029732.91908     -1683.668    20176788.04807  82620568.99107
     -1311.950  
  20351946.35208 106950210.53608       753.040    20351946.50608  83337827.64708
       586.786  
  21601737.15507 113517915.63607      2177.187    21601738.54407  88455536.38407
      1696.513  
  22492117.12907 120064468.99207      2662.748    22492124.12707  93383500.45207
      2071.028  
  20520749.49808 109502647.67308       167.100    20520752.06807  85168745.92107
       129.967  
  21911669.07107 117048266.38607      3031.647    21911675.54507  91037577.07307
      2357.951  
  22009607.14506 117612683.60206      -425.229    22009612.15206  91476557.35806
      -330.735  
  21934696.53907 117253504.46707     -1958.277    21934702.35006  91197178.34506
     -1523.108  
  22020825.73007 117755212.50607     -4108.847    22020830.30107  91587385.72207
     -3195.777  
  20229400.87908 108251601.94808      -886.583    20229401.49708  84195689.65208
      -689.565  
  22698290.05906 121505680.40506      1894.773    22698293.50607  94504478.17107
      1473.716  
  37369608.69508  -1225336.42208        36.737    37369602.71207  -1196803.22407
        27.025  
  38334865.00207  -1247500.69807        41.068    38334861.00407  -1211182.61107
        31.163  
  37128837.13608  -1161965.63508        15.730    37128834.39307  -1145187.54407
        12.927  
  38465940.65007  -1160771.70407        11.842    38465939.53407  -1145628.63807
         8.718  
  39639022.42806  -5501557.00806      1557.633    39639025.33906  -4485048.47606
      1212.948  
  36041379.59508  -1771766.77908       283.311    36041376.03707  -1617008.44607
       217.591  
  37740779.55307  -5704584.26907      1484.979    37740776.48407  -4653289.86807
      1147.423  
  37032435.51608  -1914601.50608       363.119    37032433.72907  -1725886.28307
       279.623  
 13  3 17  1 39  0.0000000  0 25G21G24G02G05G08G29G26G15G09R18R02R12
                                R11R01R24R17R03C01C02C03C04C10C06C07
                                C09
  23975745.22406 125993397.34406      3207.147    23975745.00106  98176683.74906
      2499.075  
  23904179.09506 125617327.27906      3520.291    23904185.98906  97883659.38706
      2743.083  
  22757759.73007 119592794.32607     -3241.127    22757760.93506  93189174.23606
     -2525.558  
  21833107.33007 114733736.17907     -1412.182    21833107.84807  89402907.19207
     -1100.402  
  24399313.56605 128219248.27605     -1517.077    24399317.68304  99911125.37404
     -1182.136  
  22222213.42807 116778504.13507     -1519.115    22222214.36207  90996234.19307
     -1183.727  
  20181605.63108 106055049.58408     -1691.895    20181605.71107  82640296.23607
     -1318.361  
  20349807.78208 106938971.44108       745.432    20349807.80208  83329069.91308
       580.857  
  21595533.62407 113485316.24807      2169.442    21595534.90407  88430134.27807
      1690.475  
  22484647.87807 120024598.20407      2652.798    22484654.68207  93352489.83407
      2063.287  
  20520283.04808 109500158.50708       164.794    20520285.54607  85166809.89607
       128.173  
  21903165.14407 117002840.34507      3025.225    21903172.12907  91002245.75307
      2352.956  
  22010818.87807 117619158.39807      -437.917    22010823.52706  91481593.28906
      -340.603  
  21940191.79307 117282879.77007     -1958.395    21940197.71706  91220025.72906
     -1523.202  
  22032356.48307 117816871.50107     -4112.351    22032360.81907  91635342.65107
     -3198.499  
  20231904.17507 108264997.65407      -899.435    20231904.89408  84206108.49308
      -699.563  
  22692982.96306 121477270.68406      1893.281    22692986.05907  94482381.75207
      1472.555  
  37369507.51508  -1225863.75708        37.158    37369502.03107  -1197210.96707
        29.404  
  38334748.20507  -1248110.76307        43.118    38334743.83807  -1211654.32307
        32.617  
  37128795.04208  -1162183.99508        13.479    37128792.64507  -1145356.37407
        11.592  
  38465907.45407  -1160945.40507        12.460    38465905.76907  -1145762.93007
         8.350  
  39634531.93407  -5524939.19707      1559.660    39634534.14606  -4503128.99806
      1206.165  
  36040566.54608  -1776001.21308       283.481    36040562.67607  -1620282.74107
       219.853  
  37736509.96707  -5726816.89807      1482.163    37736506.82307  -4670481.51007
      1145.891  
  37031391.19708  -1920036.64508       362.486    37031389.99807  -1730089.04907
       282.380  
 13  3 17  1 39 15.0000000  0 24G21G24G02G05G29G26G15G09R18R02R12R11
                                R01R24R17R03C01C02C03C04C10C06C07C09
  23966592.08006 125945297.72506      3205.839    23966591.88806  98139203.55206
      2498.057  
  23894130.33206 125564521.22106      3520.622    23894137.13206  97842511.86706
      2743.344  
  22767017.39307 119641443.50107     -3245.504    22767018.64906  93227082.58106
     -2528.971  
  21837141.13607 114754933.20407     -1414.195    21837141.58607  89419424.34307
     -1101.972  
  22226559.10207 116801341.08807     -1525.987    22226560.24207  91014029.16707
     -1189.083  
  20186446.33208 106080487.33108     -1699.887    20186446.40507  82660117.83407
     -1324.589  
  20347690.54308 106927844.82908       737.993    20347690.50808  83320399.82708
       575.060  
  21589352.07407 113452832.82207      2161.605    21589353.48407  88404822.54607
      1684.371  
  22477205.66607 119984871.12907      2643.540    22477212.07507  93321591.01907
      2056.088  
  20519822.54707 109497701.31407       162.736    20519825.15107  85164898.74507
       126.572  
  21894679.31707 116957511.06607      3018.680    21894686.30906  90966989.68606
      2347.865  
  22012065.93406 117625822.19906      -450.494    22012070.51006  91486776.23406
      -350.386  
  21945687.53807 117312256.28807     -1958.511    21945693.32006  91242874.08506
     -1523.289  
  22043897.15007 117878583.98707     -4115.811    22043901.39707  91683341.14607
     -3201.194  
  20234443.61708 108278587.18108      -912.317    20234444.44208  84216678.09308
      -709.582  
  22687679.82506 121448882.17506      1891.788    22687682.50807  94460301.82707
      1471.389  
  37369406.39808  -1226390.52808        35.741    37369400.68807  -1197618.28507
        26.240  
  38334630.89407  -1248719.93907        39.682    38334626.56107  -1212125.34407
        29.971  
  37128753.04208  -1162402.01708        12.685    37128750.47607  -1145524.92807
        12.078  
  38465874.30007  -1161118.40807        11.515    38465872.75007  -1145896.66807
        11.129  
  39630043.51007  -5548311.74307      1554.693    39630046.43006  -4521202.05706
      1207.675  
  36039752.09108  -1780241.93708       283.380    36039747.70707  -1623561.90807
       217.196  
  37732245.33207  -5749024.84807      1479.181    37732242.19707  -4687654.06307
      1142.419  
  37030345.36908  -1925484.12908       363.770    37030344.30107  -1734301.35907
       281.265  
 13  3 17  1 39 30.0000000  0 24G21G24G02G05G29G26G15G09R18R02R12R11
                                R01R24R17R03C01C02C03C04C10C06C07C09
  23957442.96806 125897219.10106      3204.692    23957443.01906  98101739.70306
      2497.165  
  23884082.71206 125511720.99406      3519.661    23884089.57306  97801368.87306
      2742.596  
  22776288.71707 119690164.38607     -3250.523    22776290.00206  93265046.81706
     -2532.882  
  21841181.66307 114776165.98407     -1416.712    21841182.12907  89435969.33807
     -1103.933  
  22230926.14707 116824289.73307     -1533.641    22230927.32607  91031911.19607
     -1195.046  
  20191311.03208 106106051.70008     -1708.628    20191311.16707  82680038.10207
     -1331.400  
  20345595.68308 106916836.24008       729.967    20345595.68208  83311821.71308
       568.805  
  21583193.72807 113420471.20107      2153.493    21583195.27707  88379605.72307
      1678.049  
  22469791.57107 119945293.95507      2633.598    22469797.65407  93290808.80007
      2048.357  
  20519369.05307 109495281.87107       160.157    20519371.88907  85163016.94207
       124.566  
  21886212.76807 116912284.75007      3011.579    21886219.72807  90931813.70407
      2342.342  
  22013349.56807 117632680.83207      -463.676    22013354.06306  91492110.70706
      -360.637  
  21951184.31806 117341639.63306     -1959.091    21951190.02906  91265727.77406
     -1523.738  
  22055448.85407 117940354.98907     -4120.006    22055453.13407  91731385.16407
     -3204.455  
  20237020.49208 108292376.16608      -925.991    20237021.33908  84227402.83808
      -720.216  
  22682381.55307 121420520.69107      1889.834    22682384.32507  94438242.92107
      1469.873  
  37369305.57108  -1226915.14408        36.013    37369299.54407  -1198023.90607
        27.742  
  38334514.49607  -1249326.58007        41.513    38334510.04107  -1212594.39907
        32.963  
  37128711.86608  -1162618.04308        12.107    37128708.61607  -1145691.95107
        11.607  
  38465840.87807  -1161289.02707         8.964    38465839.65207  -1146028.57607
         7.119  
  39625556.85007  -5571672.76907      1560.664    39625560.91706  -4539266.23006
      1201.488  
  36038936.85308  -1784487.19108       284.938    36038932.82407  -1626844.57407
       219.711  
  37727985.91107  -5771206.37207      1478.399    37727982.93507  -4704806.17707
      1143.664  
  37029296.90508  -1930942.41508       364.153    37029295.56307  -1738522.01307
       280.508  
 13  3 17  1 39 45.0000000  0 24G21G24G02G05G29G26G15G09R18R02R12R11
                                R01R24R17R03C01C02C03C04C10C06C07C09
  23948297.67106 125849160.61406      3203.355    23948298.03006  98064291.54406
      2496.121  
  23874035.85306 125458924.96906      3519.603    23874042.75606  97760229.16606
      2742.552  
  22785573.34407 119738955.00107     -3254.743    22785574.60406  93303065.39306
     -2536.167  
  21845228.64307 114797432.78907     -1418.959    21845229.09207  89452540.85107
     -1105.683  
  22235314.13707 116847348.08007     -1540.933    22235315.39807  91049878.71107
     -1200.730  
  20196199.39208 106131740.50908     -1716.722    20196199.61107  82700055.34307
     -1337.707  
  20343522.85107 106905943.73907       722.189    20343522.93307  83303334.03907
       562.743  
  21577058.23607 113388229.98607      2145.376    21577059.96007  88354482.72507
      1671.722  
  22462405.38007 119905865.20507      2623.671    22462411.52407  93260141.99507
      2040.631  
  20518922.33707 109492898.18907       157.542    20518925.17507  85161162.96507
       122.532  
  21877765.33207 116867160.12207      3004.891    21877772.18307  90896716.81107
      2337.140  
  22014668.88806 117639732.46106      -476.513    22014673.42706  91497595.29406
      -370.622  
  21956681.77607 117371028.12407     -1959.577    21956687.63806  91288585.41706
     -1524.122  
  22067011.06207 118002182.15507     -4123.711    22067015.29807  91779472.87707
     -3207.337  
  20239634.28508 108306362.54108      -939.093    20239635.11008  84238281.10908
      -730.407  
  22677088.08106 121392184.17206      1888.151    22677090.56907  94416203.40207
      1468.563  
  37369203.22108  -1227447.39508        33.390    37369197.76407  -1198435.45207
        25.121  
  38334396.30607  -1249940.51307        39.164    38334392.67707  -1213069.12107
        30.878  
  37128668.77308  -1162841.92408        13.023    37128665.79207  -1145865.02207
        11.117  
  38465806.87707  -1161467.14707         8.565    38465805.45507  -1146166.27507
         9.260  
  39621070.84107  -5595032.22707      1557.983    39621074.56006  -4557329.18806
      1199.263  
  36038118.96108  -1788746.91408       282.292    36038114.34907  -1630138.42607
       218.417  
  37723729.69907  -5793371.32307      1475.887    37723725.37207  -4721945.46907
      1140.834  
  37028244.59208  -1936421.25308       364.295    37028243.70907  -1742758.56207
       283.604  
 13  3 17  1 40  0.0000000  0 24G21G24G02G05G29G26G15G09R18R02R12R11
                                R01R24R17R03C01C02C03C04C10C06C07C09
  23939156.18206 125801122.61606      3201.771    23939156.66206  98026859.37206
      2494.888  
  23863989.89806 125406133.74106      3519.245    23863997.05806  97719093.18806
      2742.273  
  22794871.18807 119787815.05907     -3259.480    22794872.35506  93341138.08306
     -2539.859  
  21849282.12207 114818733.83007     -1421.245    21849282.54207  89469139.03607
     -1107.466  
  22239722.83207 116870515.93507     -1547.937    22239724.32607  91067931.54407
     -1206.189  
  20201111.46308 106157553.63008     -1724.860    20201111.75807  82720169.45807
     -1344.048  
  20341472.11507 106895167.48907       714.568    20341472.27007  83294936.97007
       556.806  
  21570945.79207 113356109.66507      2137.278    21570947.68607  88329453.93907
      1665.413  
  22455047.00007 119866585.49107      2613.629    22455053.46907  93229591.10307
      2032.822  
  20518482.31707 109490550.33407       155.524    20518485.17207  85159336.84907
       120.962  
  21869337.02207 116822137.98907      2998.030    21869343.74507  90861699.64907
      2331.804  
  22016024.73506 117646977.20106      -489.519    22016028.95106  91503230.07506
      -380.739  
  21962180.47407 117400421.81307     -1959.656    21962186.37706  91311447.13606
     -1524.180  
  22078583.61707 118064065.03407     -4127.440    22078587.79307  91827603.91407
     -3210.239  
  20242284.81308 108320546.28708      -952.117    20242285.80608  84249312.88608
      -740.538  
  22671799.42106 121363872.65806      1886.676    22671801.30107  94394183.33707
      1467.416  
  37369101.08608  -1227978.91408        35.964    37369095.32407  -1198846.41807
        29.556  
  38334278.48707  -1250553.39607        40.871    38334275.12807  -1213542.99307
        31.052  
  37128625.59508  -1163065.28708        15.044    37128622.92107  -1146037.70607
        10.266  
  38465772.33207  -1161644.34207        11.907    38465771.67707  -1146303.27307
        10.097  
  39616587.28707  -5618381.52707      1556.791    39616590.54906  -4575384.25906
      1202.632  
  36037299.50608  -1793012.59708       284.423    36037295.49007  -1633436.89707
       218.510  
  37719477.73207  -5815511.23707      1476.371    37719474.39007  -4739065.39007
      1140.862  
  37027189.87608  -1941912.29108       365.419    37027189.50107  -1747004.53807
       283.434  
 13  3 17  1 40 15.0000000  0 24G21G24G02G05G29G26G15G09R18R02R12R11
                                R01R24R17R03C01C02C03C04C10C06C07C09
  23930018.56006 125753104.00806      3200.501    23930019.05206  97989442.29306
      2493.899  
  23853944.63206 125353345.98006      3518.833    23853951.99706  97677959.91706
      2741.952  
  22804182.00207 119836742.98207     -3264.278    22804182.93006  93379263.63806
     -2543.600  
  21853341.82607 114840067.71307     -1423.368    21853342.28207  89485762.81807
     -1109.119  
  22244152.02507 116893791.62107     -1555.276    22244153.63107  91086068.42007
     -1211.905  
  20206046.82308 106183489.27308     -1733.167    20206047.21207  82740379.03407
     -1350.521  
  20339443.23108 106884506.12508       706.967    20339443.50607  83286629.43207
       550.885  
  21564856.26507 113324109.33707      2129.333    21564858.13707  88304518.65207
      1659.223  
  22447716.19807 119827453.68707      2603.849    22447722.69107  93199155.26207
      2025.217  
  20518048.73007 109488236.89507       152.987    20518051.54407  85157537.49407
       118.990  
  21860927.81307 116777217.56507      2991.198    21860934.33107  90826761.59307
      2326.491  
  22017416.34406 117654413.61306      -502.223    22017420.82507  91509013.94607
      -390.618  
  21967679.88707 117429819.33307     -1959.829    21967685.80907  91334311.82007
     -1524.315  
  22090166.29107 118126001.86307     -4130.848    22090170.51807  91875776.89507
     -3212.888  
  20244972.01908 108334925.59808      -965.137    20244973.03508  84260496.77608
      -750.663  
  22666514.84406 121335584.60606      1885.247    22666516.75107  94372181.55307
      1466.304  
  37369000.37208  -1228503.79708        37.000    37368994.36007  -1199252.26407
        28.784  
  38334162.40607  -1251159.27307        41.843    38334158.57807  -1214011.47807
        34.110  
  37128584.00808  -1163282.18808        13.752    37128581.25107  -1146205.40407
        12.172  
  38465740.63107  -1161814.68907        11.942    38465739.08207  -1146434.97607
        10.949  
  39612106.24607  -5641714.80407      1556.482    39612109.16606  -4593426.97606
      1201.901  
  36036480.35908  -1797278.24108       285.530    36036476.18907  -1636735.33307
       221.492  
  37715232.05707  -5837620.12307      1475.667    37715227.78707  -4756161.34507
      1140.108  
  37026134.13608  -1947409.50408       368.854    37026133.74507  -1751255.30707
       284.316